{"Stops" : [{"StopId":700,"StopCode":"14456","PointLetter":"Z","StopName":"New Oxford Street","Latitude":51.516826,"Longitude":-0.127831,"Action":0},{"StopId":559,"StopCode":"29844","PointLetter":"E","StopName":"Museum Street","Latitude":51.517624,"Longitude":-0.124353,"Action":0},{"StopId":284,"StopCode":"26425","PointLetter":"M","StopName":"Kingsway / Holborn Station","Latitude":51.516741,"Longitude":-0.119734,"Action":0},{"StopId":304,"StopCode":"29984","PointLetter":"K","StopName":"Aldwych / The Royal Courts Of Justice","Latitude":51.513401,"Longitude":-0.116096,"Action":0},{"StopId":18,"StopCode":"29985","PointLetter":"S","StopName":"Aldwych / Somerset House","Latitude":51.511881,"Longitude":-0.117239,"Action":0},{"StopId":166,"StopCode":"1835","PointLetter":"N","StopName":"Waterloo Bridge / South Bank","Latitude":51.507076,"Longitude":-0.115377,"Action":0},{"StopId":10056,"StopCode":"2593","PointLetter":"E","StopName":"Waterloo Station / Waterloo Road","Latitude":51.503531,"Longitude":-0.111316,"Action":0},{"StopId":445,"StopCode":"1047","PointLetter":"S","StopName":"The Old Vic","Latitude":51.501339,"Longitude":-0.108726,"Action":0},{"StopId":268,"StopCode":"2597","PointLetter":"T","StopName":"St George's Circus","Latitude":51.499121,"Longitude":-0.106124,"Action":0},{"StopId":465,"StopCode":"26212","PointLetter":"E","StopName":"Elephant & Castle / London Road","Latitude":51.496103,"Longitude":-0.101308,"Action":0},{"StopId":16598,"StopCode":"26747","PointLetter":"K","StopName":"Elephant & Castle / New Kent Road","Latitude":51.495062,"Longitude":-0.098671,"Action":0},{"StopId":317,"StopCode":"2574","PointLetter":"BA","StopName":"Rodney Place","Latitude":51.494219,"Longitude":-0.094413,"Action":0},{"StopId":16644,"StopCode":"34289","PointLetter":"BC","StopName":"Bricklayer's Arms / New Kent Road","Latitude":51.494334,"Longitude":-0.087623,"Action":0},{"StopId":16643,"StopCode":"34290","PointLetter":"BH","StopName":"Bricklayer's Arms / Tower Bridge Road","Latitude":51.495694,"Longitude":-0.083388,"Action":0},{"StopId":3012,"StopCode":"1206","PointLetter":"N","StopName":"Griggs Place","Latitude":51.496441,"Longitude":-0.080648,"Action":0},{"StopId":3254,"StopCode":"13644","PointLetter":"P","StopName":"Fendall Street","Latitude":51.495682,"Longitude":-0.078217,"Action":0},{"StopId":3024,"StopCode":"1130","PointLetter":"Q","StopName":"Spa Road","Latitude":51.494821,"Longitude":-0.076164,"Action":0},{"StopId":3125,"StopCode":"13647","PointLetter":"R","StopName":"Alscot Road","Latitude":51.493692,"Longitude":-0.074238,"Action":0},{"StopId":19474,"StopCode":"13649","PointLetter":"","StopName":"Harris Academy","Latitude":51.492804,"Longitude":-0.071091,"Action":0},{"StopId":19471,"StopCode":"26204","PointLetter":"PA","StopName":"Southwark Park Road / St James's Road","Latitude":51.492375,"Longitude":-0.065808,"Action":0},{"StopId":11553,"StopCode":"26206","PointLetter":"PB","StopName":"Anchor Street","Latitude":51.492201,"Longitude":-0.061263,"Action":0},{"StopId":18731,"StopCode":"26208","PointLetter":"GS","StopName":"Lynton Road","Latitude":51.490514,"Longitude":-0.059823,"Action":0},{"StopId":18648,"StopCode":"1211","PointLetter":"GT","StopName":"Galleywall Road / South Bermondsey Stn","Latitude":51.489053,"Longitude":-0.057998,"Action":0},{"StopId":18708,"StopCode":"1212","PointLetter":"RL","StopName":"Beamish House","Latitude":51.489611,"Longitude":-0.056375,"Action":0},{"StopId":18849,"StopCode":"13626","PointLetter":"RM","StopName":"Corbetts Lane / The Jolly Gardeners","Latitude":51.490943,"Longitude":-0.053149,"Action":0},{"StopId":18766,"StopCode":"33452","PointLetter":"RN","StopName":"Warndon Street","Latitude":51.491114,"Longitude":-0.050477,"Action":0},{"StopId":12259,"StopCode":"33453","PointLetter":"S","StopName":"Surrey Quays Station","Latitude":51.492861,"Longitude":-0.047896,"Action":0},{"StopId":12173,"StopCode":"2216","PointLetter":"P","StopName":"Rotherhithe Police Station","Latitude":51.495463,"Longitude":-0.051328,"Action":0},{"StopId":10379,"StopCode":"BP2390","PointLetter":"D","StopName":"Canada Water Bus Station","Latitude":51.498146,"Longitude":-0.049917,"Action":0}], "Routes" : [{"Id":533,"Route":"N1","From":"New Oxford Street","Towards":"Titmuss Avenue","Run":"1","IsDay":0,"encodedLevels":"PBDH?AA@@@@@@?@C?@A?F??C@GAB@@G@?G@CA?C@AD@?AC@@?ED@B@B?D@@AC@DC@?B@BI?@@D??@?FCB@D@?D@AG?AD?@B??A??@F@AA@?B@CAAF@@D?AGA@DB??@EB??@CDA@FABABBGACBA?BCB?FCA@C@F?F?A?@EA?B@BAEAH@DA?CFA?D?AH@C?@BD@E?BAJ?@CA??ADBE@F?C@BAABAAF@A?D@B@ADAC?@B?ADAC@F@?CA?AB??AB@EB?BAB@?@FA?@@CA?E@?C?BC@?@?CBA?@I?B?AD@?@C?A?D@@F?DD@E@BAGC?A?AAF@AD??ACAG?AC?AC?AB?E??A@CAACI@A?F?C@C?AB@I@C@DACB?@E@A?@CBBF?@CAB@E?ABD@E@B?@HAA@BAE?B?B@?E?A?D@AI@AB@@F@@BD@A@E?B?D@B@B@?E?A??ACA?@F?B?A?B@DB@B@I?@?CD?B?DA@EAC@E?AB@GAC?AE@BP","encodedPoints":"_zlyH~cXqAgQk@}C_JoXFGfC_Af@Ax@U@GPGBDNG@IJCFBRIXUDGvMcIdAs@xFaEBM?m@JyGTcAb@qAP@^v@RnAP^vF`TJE~HoG~F_FvLkKtDkDPeADQNMRIr@@\\WTk@Fk@La@b@{@dCcDnMuOrE}FjA}AtD_GFw@Ei@Ya@Me@@WH[FGd@IX?b@QnBuChHsJbCaEAgA@]H_@HMp@U`@gA@]f@uFhCcTFkA@gAKaS?}BKmHGsG[aEu@SSSK]?e@H}@HaDoF_Jc@g@oBsDFg@jDuP~CkMBG~@aAvBgDn@gB@MDKFEDO|D}HFYH{@@sAMiCBi@EiBHmHv@sKFSf@gTKgCPmKvBuAp@]xFmDt@_Ar@eAxCmFaBqC_DcH_@k@sAcES_AQwAsAoHIAMyAPUDC\\e@DQ@eCI_Dm@uGq@wEOKcB`@cA`@mAhAsCfAKO`@iAA[Go@EGWDGFMs@_@aDF_CDSP[d@r@b@xAz@vBVFNEpCiGnAaCw@aHg@yDaBwJUkAQ_BBaADa@Lk@HU|@{At@yBDi@CiAeBcOlAS~Gu@h@@p@VdD~@vDWD|Cf@`FF\\JZr@zAxAlBnAyC`EeIvAuBbCqDhB_CfCeFlGePxCyI^_Bh@uCtBoRJeCAoAOyDkAgUSkKBo@IoK?{GYmKa@AqAwFbBqA|A}@[_BkIs]WqA_AoH}AaIuAcFgDyOSmBmCoMcAcHB}DXsJ?iDJqM[wCyA}IODIEKY@]v@aAAq@Ky@OwEDqFFsAIeHq@}B]sCi@sKg@oNoAsK}@aI_@eEgAqFC?MGK]B[BO@a@GaAKcAg@_C_DkMaBuEgFmO[qByCsL_@o@OECEIWBc@BGLKLg@VgBz@aU@}@EoBGy@a@wBwAsJBg@ToBk@eKK]IgAI]EKyAeHS}JQw@MKGMG_@B]BSVe@NUNETJJNBFbAfAb@Hb@DL?\\Gv@YxA_ApE{BSmB[eB~AcAy@oDu@_E`@eAzCeFtAoAr@gA_GmK_Am@UIMMEMk@KCKTgClAwK`@_ICsAUaEa@}IEyDF}G`@sK\\mCp@{Fp@yCh@aAdBoC^_AJs@dAsET_ChBsGtCqKReB`AkHbBiN`BeLb@_Cp@oHJeFn@kH`DeUYUsCoAm@SkFyB[aLSiFqBaUyDge@o@mDEIEcAM[]Ug@CmFB]HmHrCuAJ_ONaDl@CHQXSHSCQMKWU[QGwHc@}Am@aGc@e@Pm@\\WVYt@g@pDM\\]\\OFM?WKkAeAg@FkCdAu@d@iCbCaA~AAHUPQS?Yo@u@uEsHaDiGU}@Ig@OaCE{NCgBO_BOq@K_@Sc@SYUUq@]e@KmBGm@J[^Qd@qCnJuBbFu@jA_@bARr@^p@jBjFNnAFrA@bBGhAK`OLl@P`AP^vBzCz@j@hA^LGVBNJJPFTFT?XAXK`@Ej@A`BvCxQbAfEBBL|@MXEDMBEAOICGy@d@OTwAzDL~@EVKLSBEWAYBUBMtEgJPLDFVCf@Oj@}AbByCVUb@QvAO|@J|FXVMb@]x@cAf@iAZeAZ{BHwCCaAEm@[wBWcAm@sAoFgJ","Color":"993333","hasRunTwo":1,"startPoint":{"Latitude":51.516642,"Longitude":-0.128799},"endPoint":{"Latitude":51.503771,"Longitude":0.117779}},{"Id":1571,"Route":"1","From":"New Oxford Street","Towards":"Canada Water Bus Station","Run":"1","IsDay":1,"encodedLevels":"PBDH?AA@@@@@@?@C?@A?F??C@GAB@@G@?G@CA?C@AD@?AC@@?ED@B@B?D@@AC@DC@?B@BI?@@D??@?FCB@D@?D@AG?AD?@B??A??@F@AA@?B@C?AAF@@D?AHA@DB??@EC??@C@DA@H@ACAE?AC??@G@?@A?AE?@DA?P","encodedPoints":"_zlyH~cXqAgQk@}C_JoXFGfC_Af@Ax@U@GPGBDNG@IJCFBRIXUDGvMcIdAs@xFaEBM?m@JyGTcAb@qAP@^v@RnAP^vF`TJE~HoG~F_FvLkKtDkDPeADQNMRIr@@\\WTk@Fk@La@b@{@dCcDnMuOrE}FjA}AtD_GFw@Ei@Ya@Me@@WH[FGd@IX?b@QnBuChHsJbCaEAgA@]H_@HMp@U`@gA@]f@uFhCcTFkA@gAKaS?}BKmHGsG[aEu@SSSK]?e@H}@HaDoF_Jc@g@oBsDFg@jDuP~CkMBG~@aAvBgDn@gB@MDKFEDO|D}HFYH{@@sAMiCBi@EiBHmHx@}IDeBT_IPkIKgCPmKvBuAp@]xFmDt@_Ar@eAxCmFaBqC_DcH_@k@sAcES_AQwAsAoHIAMyAPUDC\\e@DQ@eCI_Dm@uGq@wEGGGCcB`@cA`@mAhAgEnCc@hAs@tBwBnE_@j@wCfEe@v@s@t@EQKOOMi@gAuBgGCSsAyC[OYI[AIlAERIF","Color":"663366","hasRunTwo":1,"startPoint":{"Latitude":51.516642,"Longitude":-0.128799},"endPoint":{"Latitude":51.498254,"Longitude":-0.049937}}]}


