{"Stops" : [{"StopId":433,"StopCode":"BP4957","PointLetter":"G","StopName":"Edmonton Green Bus Station","Latitude":51.625449,"Longitude":-0.058811,"Action":0},{"StopId":615,"StopCode":"12308","PointLetter":"J","StopName":"Edmonton Green Police Station","Latitude":51.622675,"Longitude":-0.061299,"Action":0},{"StopId":640,"StopCode":"12312","PointLetter":"K","StopName":"Shrubbery Road","Latitude":51.621146,"Longitude":-0.061783,"Action":0},{"StopId":642,"StopCode":"12314","PointLetter":"G","StopName":"Brettenham Road","Latitude":51.617877,"Longitude":-0.063136,"Action":0},{"StopId":1046,"StopCode":"28562","PointLetter":"D","StopName":"Angel Corner","Latitude":51.616018,"Longitude":-0.063865,"Action":0},{"StopId":956,"StopCode":"1698","PointLetter":"A","StopName":"Angel Corner / Silver Street Station","Latitude":51.614542,"Longitude":-0.065416,"Action":0},{"StopId":988,"StopCode":"923","PointLetter":"N","StopName":"Pymmes Park","Latitude":51.615155,"Longitude":-0.072077,"Action":0},{"StopId":947,"StopCode":"14110","PointLetter":"J","StopName":"North Middlesex Hospital","Latitude":51.616229,"Longitude":-0.077246,"Action":0},{"StopId":1027,"StopCode":"BP3489","PointLetter":"WQ","StopName":"Millfield Theatre & Arts Centre","Latitude":51.616613,"Longitude":-0.080365,"Action":0},{"StopId":1028,"StopCode":"14129","PointLetter":"WT","StopName":"Great Cambridge Road","Latitude":51.616045,"Longitude":-0.085791,"Action":0},{"StopId":991,"StopCode":"12935","PointLetter":"WU","StopName":"Ostliffe Road","Latitude":51.616187,"Longitude":-0.088399,"Action":0},{"StopId":190,"StopCode":"16014","PointLetter":"WX","StopName":"Ulster Gardens","Latitude":51.616082,"Longitude":-0.091885,"Action":0},{"StopId":138,"StopCode":"12937","PointLetter":"WZ","StopName":"Chequers Way","Latitude":51.615943,"Longitude":-0.094939,"Action":0},{"StopId":1006,"StopCode":"16015","PointLetter":"","StopName":"Melville Gardens","Latitude":51.613889,"Longitude":-0.103070,"Action":0},{"StopId":962,"StopCode":"972","PointLetter":"V","StopName":"Green Lanes","Latitude":51.612524,"Longitude":-0.107056,"Action":0},{"StopId":21326,"StopCode":"BP5649","PointLetter":"S","StopName":"Palmerston Road","Latitude":51.612299,"Longitude":-0.110936,"Action":0},{"StopId":1163,"StopCode":"16016","PointLetter":"GK","StopName":"United Synagogue","Latitude":51.612184,"Longitude":-0.121701,"Action":0},{"StopId":1172,"StopCode":"25370","PointLetter":"GB","StopName":"York Road","Latitude":51.609566,"Longitude":-0.122791,"Action":0},{"StopId":1165,"StopCode":"1101","PointLetter":"BB","StopName":"Bounds Green Station","Latitude":51.607547,"Longitude":-0.123611,"Action":0},{"StopId":1109,"StopCode":"25164","PointLetter":"GZ","StopName":"Woodfield Way","Latitude":51.604829,"Longitude":-0.127362,"Action":0},{"StopId":1212,"StopCode":"16018","PointLetter":"","StopName":"Albert Road","Latitude":51.601676,"Longitude":-0.131578,"Action":0},{"StopId":1257,"StopCode":"33038","PointLetter":"","StopName":"Victoria Road","Latitude":51.600076,"Longitude":-0.134964,"Action":0},{"StopId":1348,"StopCode":"2012","PointLetter":"","StopName":"Rosebery Road","Latitude":51.598470,"Longitude":-0.138597,"Action":0},{"StopId":1503,"StopCode":"16020","PointLetter":"","StopName":"St Andrew's Church","Latitude":51.597556,"Longitude":-0.141652,"Action":0},{"StopId":1449,"StopCode":"1913","PointLetter":"CS","StopName":"Colney Hatch Lane","Latitude":51.595679,"Longitude":-0.144674,"Action":0},{"StopId":1380,"StopCode":"1145","PointLetter":"B","StopName":"Muswell Hill","Latitude":51.591638,"Longitude":-0.142716,"Action":0},{"StopId":1291,"StopCode":"25366","PointLetter":"H","StopName":"Princes Avenue","Latitude":51.590056,"Longitude":-0.143936,"Action":0},{"StopId":1387,"StopCode":"16022","PointLetter":"L","StopName":"Muswell Hill Road","Latitude":51.589744,"Longitude":-0.145811,"Action":0},{"StopId":1502,"StopCode":"16024","PointLetter":"K","StopName":"Birchwood Avenue","Latitude":51.590954,"Longitude":-0.148389,"Action":0},{"StopId":1318,"StopCode":"16026","PointLetter":"","StopName":"Midhurst Avenue","Latitude":51.590937,"Longitude":-0.153601,"Action":0},{"StopId":1404,"StopCode":"16028","PointLetter":"L","StopName":"Twyford Avenue","Latitude":51.590084,"Longitude":-0.160002,"Action":0},{"StopId":1271,"StopCode":"10242","PointLetter":"J","StopName":"Fairlawn Avenue","Latitude":51.588904,"Longitude":-0.163890,"Action":0},{"StopId":1498,"StopCode":"27476","PointLetter":"H","StopName":"East Finchley Station","Latitude":51.586917,"Longitude":-0.163912,"Action":0},{"StopId":1476,"StopCode":"16029","PointLetter":"B","StopName":"Great North Road","Latitude":51.585784,"Longitude":-0.164434,"Action":0},{"StopId":1356,"StopCode":"14888","PointLetter":"","StopName":"Belvedere Court","Latitude":51.584017,"Longitude":-0.169341,"Action":0},{"StopId":1388,"StopCode":"16474","PointLetter":"","StopName":"Monarch Court","Latitude":51.584761,"Longitude":-0.173786,"Action":0},{"StopId":1460,"StopCode":"18730","PointLetter":"","StopName":"Blandford Close","Latitude":51.585333,"Longitude":-0.178787,"Action":0},{"StopId":1444,"StopCode":"2072","PointLetter":"","StopName":"Market Place","Latitude":51.585668,"Longitude":-0.181804,"Action":0},{"StopId":1463,"StopCode":"16472","PointLetter":"","StopName":"Eastholm","Latitude":51.586199,"Longitude":-0.186489,"Action":0},{"StopId":1305,"StopCode":"16470","PointLetter":"","StopName":"Brookland Rise","Latitude":51.586741,"Longitude":-0.190711,"Action":0},{"StopId":1332,"StopCode":"20929","PointLetter":"TW","StopName":"Beaufort Drive","Latitude":51.588540,"Longitude":-0.194884,"Action":0},{"StopId":1504,"StopCode":"16533","PointLetter":"TZ","StopName":"Henlys Corner","Latitude":51.589571,"Longitude":-0.198192,"Action":0},{"StopId":1415,"StopCode":"2799","PointLetter":"TC","StopName":"Addison Way","Latitude":51.587941,"Longitude":-0.199744,"Action":0},{"StopId":1355,"StopCode":"6092","PointLetter":"TD","StopName":"Childs Way","Latitude":51.584623,"Longitude":-0.199774,"Action":0},{"StopId":1290,"StopCode":"2299","PointLetter":"TE","StopName":"Temple Fortune Lane","Latitude":51.581542,"Longitude":-0.198827,"Action":0},{"StopId":1464,"StopCode":"6090","PointLetter":"TF","StopName":"Clifton Gardens","Latitude":51.580067,"Longitude":-0.198222,"Action":0},{"StopId":1472,"StopCode":"2800","PointLetter":"","StopName":"Hoop Lane","Latitude":51.576682,"Longitude":-0.196841,"Action":0},{"StopId":1344,"StopCode":"2768","PointLetter":"GV","StopName":"Golders Green Station","Latitude":51.572959,"Longitude":-0.195617,"Action":0},{"StopId":1390,"StopCode":"15912","PointLetter":"GO","StopName":"Hodford Road","Latitude":51.571779,"Longitude":-0.196660,"Action":0},{"StopId":1467,"StopCode":"16073","PointLetter":"","StopName":"Dunstan Road","Latitude":51.568627,"Longitude":-0.202845,"Action":0},{"StopId":1438,"StopCode":"16072","PointLetter":"","StopName":"The Vale / Hendon Way","Latitude":51.567378,"Longitude":-0.205217,"Action":0},{"StopId":1468,"StopCode":"16071","PointLetter":"N","StopName":"Hendon Way","Latitude":51.568407,"Longitude":-0.208452,"Action":0},{"StopId":1351,"StopCode":"16069","PointLetter":"P","StopName":"Cleveland Gardens","Latitude":51.567072,"Longitude":-0.211088,"Action":0},{"StopId":1501,"StopCode":"35838","PointLetter":"F","StopName":"Caney Mews","Latitude":51.564816,"Longitude":-0.216514,"Action":0},{"StopId":1459,"StopCode":"35841","PointLetter":"G","StopName":"Clitterhouse Road South","Latitude":51.567243,"Longitude":-0.218194,"Action":0},{"StopId":1466,"StopCode":"35843","PointLetter":"H","StopName":"Clitterhouse Road North","Latitude":51.568717,"Longitude":-0.218771,"Action":0},{"StopId":1350,"StopCode":"35846","PointLetter":"J","StopName":"Claremont Way","Latitude":51.571422,"Longitude":-0.219214,"Action":0},{"StopId":1349,"StopCode":"35847","PointLetter":"V","StopName":"Mapledown School","Latitude":51.573845,"Longitude":-0.220663,"Action":0},{"StopId":1280,"StopCode":"35211","PointLetter":"A","StopName":"Brent Cross Shopping Centre","Latitude":51.575669,"Longitude":-0.223521,"Action":0}], "Routes" : [{"Id":2668,"Route":"102","From":"Edmonton Green Bus Station","Towards":"Brent Cross Shopping Centre","Run":"1","IsDay":1,"encodedLevels":"P@B?@CAC??AF?AB?@ABH@@C??CD@AB@EA@@@@G?C@?@D@CCAACAAB?C@AF@B?BAFAA?AC?AD?AIBG@B?CA@E?@C?@D?A?DCBH?DACC@BAH??@CAE@BFAC?C??BGA?@A@DA@FA@DBA@IBD?A??A@EA@C@A?E@B@ICAF@??@D?AFB?DD@I@BABDA?C?FAE?@@B?D??IAF?CB@?B@D?@B@?CBH?@CADAD@F@BAC?BG?@FADA?@BD@AE@ACBE@B?@B?G?AC?@@ADCP","encodedPoints":"idbzHfjJPV`@fARjAFd@j@fCXIRFHNLf@\\v@h@t@dEpAn@VdH|A|FhBfCz@lK~CvG|BxJnBGn@GfGY~KI?KC[@V`VWFUNoBbCQZQp@]zEa@|MU|Cu@xNG^UdGJ`EDTVp@NTNJp@lAe@bEC`Ap@fBInBD`DHXEvBWb@KlACnDBdFPpO\\vQZpId@|ChDdPfCpKjGjWzAdIJnAFnBKpEi@zJIvCGpGBlAXtJFtKEhAOfCoAtKna@hMnBlABZXbA`GlKvIzOpCfE`AbAbFxGZ`Af@nBrBdGv@`BtBpD~BpEf@bDr@~DfC`MlB`JbEjF|BdEPzA|ImC^OrGcFx@[`DyC?w@La@LGRHDFBP?j@VpB~BrEbCxGWd@aHrR_@vBn@vENfCAhCD~M`@fFf@xHpCd`@jApJPGH@@DtBVtE^v@?`@[nAQvCm@z@hEjAxDb@fA`BtCjBzB~@|@d@XmBfJaAvHkB~Y{@fOUzDa@hK[`Gi@jIaC~c@m@hE}@lEo@xBi@|AcDfHaDvIMd@]tBWvCOnDEdFh\\RlCEbEi@vFaBXQrSgGhIiCdN{DhBa@|Cg@zGs@Hu@_@q@c@o@d@mDf@Al@HU|BC~@BZd@`@Gr@e@DSRELIZe@dD`Ad@pGdFF^FLAPrAhKj@~Bj@pBl@|A`DpHdIvRaHdDsBpAH\\dJ`Up@lAHGREJ?XLNVDLF\\ATEl@CPILrE|KlBdHOLMNsFxDmCz@}H|DuBZgEHwCtB]JW?e@O}AmAqDoBM?QI_@`@]t@kChHqAtC~AnDVTPFDEh@S`@G^TPXNdAR`CGf@MXWX_FbCkAjAI\\Cx@@^TlBBrAGLOJI@MCQWEa@?MWoAg@wDqA_HmAl@Oq@","Color":"993333","hasRunTwo":1,"startPoint":{"Latitude":51.625814,"Longitude":-0.058111},"endPoint":{"Latitude":51.575797,"Longitude":-0.223237}},{"Id":49,"Route":"102","From":"Edmonton Green Bus Station","Towards":"Golders Green Station","Run":"1","IsDay":0,"encodedLevels":"P@B?@CAC??AF?AB?@ABH@@C??CD@AB@EA@@@@G?C@?@D@CCAACAAB?C@AF@B?BAFAA?AC?AD?AIBG@B?CA@E?@C?@D?A?DCBH?DACC@BAH??@CAE@BFAC?C??BGA?@A@DA@FA@DBA@IBD?A??A@EA@C@A?E@B@ICAF@??@D?AFB?DD@I@BABDA?C?FAE?@@B?D??IAF?CB@?B@D?@B@?CBH?@CADAD@F@BAC?BG?@FADA?@BD@AE@ACBE@B?@B?G?AC?@@ADCP","encodedPoints":"idbzHfjJPV`@fARjAFd@j@fCXIRFHNLf@\\v@h@t@dEpAn@VdH|A|FhBfCz@lK~CvG|BxJnBGn@GfGY~KI?KC[@V`VWFUNoBbCQZQp@]zEa@|MU|Cu@xNG^UdGJ`EDTVp@NTNJp@lAe@bEC`Ap@fBInBD`DHXEvBWb@KlACnDBdFPpO\\vQZpId@|ChDdPfCpKjGjWzAdIJnAFnBKpEi@zJIvCGpGBlAXtJFtKEhAOfCoAtKna@hMnBlABZXbA`GlKvIzOpCfE`AbAbFxGZ`Af@nBrBdGv@`BtBpD~BpEf@bDr@~DfC`MlB`JbEjF|BdEPzA|ImC^OrGcFx@[`DyC?w@La@LGRHDFBP?j@VpB~BrEbCxGWd@aHrR_@vBn@vENfCAhCD~M`@fFf@xHpCd`@jApJPGH@@DtBVtE^v@?`@[nAQvCm@z@hEjAxDb@fA`BtCjBzB~@|@d@XmBfJaAvHkB~Y{@fOUzDa@hK[`Gi@jIaC~c@m@hE}@lEo@xBi@|AcDfHaDvIMd@]tBWvCOnDEdFh\\RlCEbEi@vFaBXQrSgGhIiCdN{DhBa@|Cg@zGs@Hu@_@q@c@o@d@mDf@Al@HU|BC~@BZd@`@Gr@e@DSRELIZe@dD`Ad@pGdFF^FLAPrAhKj@~Bj@pBl@|A`DpHdIvRaHdDsBpAH\\dJ`Up@lAHGREJ?XLNVDLF\\ATEl@CPILrE|KlBdHOLMNsFxDmCz@}H|DuBZgEHwCtB]JW?e@O}AmAqDoBM?QI_@`@]t@kChHqAtC~AnDVTPFDEh@S`@G^TPXNdAR`CGf@MXWX_FbCkAjAI\\Cx@@^TlBBrAGLOJI@MCQWEa@?MWoAg@wDqA_HmAl@Oq@","Color":"663366","hasRunTwo":1,"startPoint":{"Latitude":51.625814,"Longitude":-0.058111},"endPoint":{"Latitude":51.575797,"Longitude":-0.223237}}]}


