{"Stops" : [{"StopId":5377,"StopCode":"35292","PointLetter":"JJ","StopName":"Rockware Avenue / Greenford Station","Latitude":51.542910,"Longitude":-0.345462,"Action":0},{"StopId":5463,"StopCode":"13152","PointLetter":"MM","StopName":"Greenford Station","Latitude":51.542011,"Longitude":-0.346143,"Action":0},{"StopId":5467,"StopCode":"17112","PointLetter":"NN","StopName":"Birkbeck Avenue","Latitude":51.540479,"Longitude":-0.347771,"Action":0},{"StopId":5439,"StopCode":"17110","PointLetter":"OO","StopName":"Courthope Road","Latitude":51.537858,"Longitude":-0.348745,"Action":0},{"StopId":4823,"StopCode":"16266","PointLetter":"DD","StopName":"Cowgate Road","Latitude":51.534526,"Longitude":-0.347179,"Action":0},{"StopId":4698,"StopCode":"15297","PointLetter":"C","StopName":"Costons Lane","Latitude":51.530492,"Longitude":-0.350569,"Action":0},{"StopId":4625,"StopCode":"2028","PointLetter":"D","StopName":"Ruislip Road East","Latitude":51.528048,"Longitude":-0.351984,"Action":0},{"StopId":4787,"StopCode":"36586","PointLetter":"P","StopName":"Oldfield Lane South","Latitude":51.528086,"Longitude":-0.354678,"Action":0},{"StopId":4623,"StopCode":"15299","PointLetter":"R","StopName":"Pembroke Road","Latitude":51.528696,"Longitude":-0.359760,"Action":0},{"StopId":4867,"StopCode":"15792","PointLetter":"EL","StopName":"Beechwood Avenue","Latitude":51.530804,"Longitude":-0.364543,"Action":0},{"StopId":4749,"StopCode":"33463","PointLetter":"EW","StopName":"Ruislip Road","Latitude":51.531271,"Longitude":-0.366415,"Action":0},{"StopId":4822,"StopCode":"33466","PointLetter":"L","StopName":"Avon Road","Latitude":51.528181,"Longitude":-0.367333,"Action":0},{"StopId":4751,"StopCode":"34931","PointLetter":"N","StopName":"Ash Grove","Latitude":51.524257,"Longitude":-0.365138,"Action":0},{"StopId":4755,"StopCode":"15344","PointLetter":"P","StopName":"Rutland Road","Latitude":51.522246,"Longitude":-0.370529,"Action":0},{"StopId":4797,"StopCode":"15305","PointLetter":"T","StopName":"Allenby Road","Latitude":51.519512,"Longitude":-0.367931,"Action":0},{"StopId":4592,"StopCode":"15306","PointLetter":"U","StopName":"Dormers Avenue","Latitude":51.517913,"Longitude":-0.368680,"Action":0},{"StopId":4744,"StopCode":"34861","PointLetter":"V","StopName":"Telford Road","Latitude":51.516076,"Longitude":-0.364624,"Action":0},{"StopId":4813,"StopCode":"BP1082","PointLetter":"W","StopName":"Masefield Avenue","Latitude":51.515097,"Longitude":-0.366014,"Action":0},{"StopId":4602,"StopCode":"37090","PointLetter":"Y","StopName":"Kingsley Avenue","Latitude":51.515181,"Longitude":-0.370133,"Action":0},{"StopId":4729,"StopCode":"15309","PointLetter":"B","StopName":"North Road","Latitude":51.515802,"Longitude":-0.373368,"Action":0},{"StopId":4674,"StopCode":"15311","PointLetter":"D","StopName":"North Avenue","Latitude":51.514194,"Longitude":-0.375443,"Action":0},{"StopId":4859,"StopCode":"27852","PointLetter":"F","StopName":"High Street / Southall Town Hall","Latitude":51.512036,"Longitude":-0.375462,"Action":0},{"StopId":5422,"StopCode":"34424","PointLetter":"L","StopName":"Southall Broadway","Latitude":51.510370,"Longitude":-0.375925,"Action":0},{"StopId":5498,"StopCode":"15960","PointLetter":"Q","StopName":"Park Avenue","Latitude":51.507798,"Longitude":-0.377904,"Action":0},{"StopId":5290,"StopCode":"20406","PointLetter":"O","StopName":"Southall Station","Latitude":51.505519,"Longitude":-0.378878,"Action":0},{"StopId":5331,"StopCode":"8750","PointLetter":"M","StopName":"The Green","Latitude":51.502530,"Longitude":-0.381246,"Action":0},{"StopId":5412,"StopCode":"8748","PointLetter":"F","StopName":"King Street","Latitude":51.500378,"Longitude":-0.382980,"Action":0},{"StopId":5457,"StopCode":"BP2545","PointLetter":"","StopName":"Montague Waye","Latitude":51.499990,"Longitude":-0.386826,"Action":0},{"StopId":5459,"StopCode":"15968","PointLetter":"BE","StopName":"Derley Road","Latitude":51.498679,"Longitude":-0.392160,"Action":0},{"StopId":5411,"StopCode":"15970","PointLetter":"BF","StopName":"Brent Road","Latitude":51.497865,"Longitude":-0.394450,"Action":0},{"StopId":5359,"StopCode":"15971","PointLetter":"BP","StopName":"Wentworth Road","Latitude":51.496873,"Longitude":-0.398894,"Action":0},{"StopId":5291,"StopCode":"BP1292","PointLetter":"BT","StopName":"Navigator Park","Latitude":51.496191,"Longitude":-0.400977,"Action":0},{"StopId":5485,"StopCode":"34586","PointLetter":"A","StopName":"Heston Centre","Latitude":51.493481,"Longitude":-0.401994,"Action":0},{"StopId":5339,"StopCode":"34588","PointLetter":"B","StopName":"Cranford Community School","Latitude":51.486772,"Longitude":-0.405268,"Action":0},{"StopId":5361,"StopCode":"27908","PointLetter":"M","StopName":"Quinton Close","Latitude":51.484743,"Longitude":-0.406159,"Action":0},{"StopId":5517,"StopCode":"27939","PointLetter":"CL","StopName":"The Parkway","Latitude":51.483346,"Longitude":-0.408613,"Action":0},{"StopId":5420,"StopCode":"BP1584","PointLetter":"CM","StopName":"The Avenue","Latitude":51.480196,"Longitude":-0.410394,"Action":0},{"StopId":5325,"StopCode":"16331","PointLetter":"CT","StopName":"Waye Avenue","Latitude":51.480474,"Longitude":-0.414316,"Action":0},{"StopId":5357,"StopCode":"16329","PointLetter":"CU","StopName":"Craneswater","Latitude":51.480984,"Longitude":-0.420836,"Action":0},{"StopId":2984,"StopCode":"13551","PointLetter":"H","StopName":"Oxford Avenue","Latitude":51.480664,"Longitude":-0.425125,"Action":0},{"StopId":2903,"StopCode":"3419","PointLetter":"J","StopName":"Harlington Corner","Latitude":51.480600,"Longitude":-0.435712,"Action":0},{"StopId":5289,"StopCode":"17145","PointLetter":"BL","StopName":"Mondial Way","Latitude":51.480933,"Longitude":-0.444486,"Action":0},{"StopId":2890,"StopCode":"18208","PointLetter":"BM","StopName":"Nene Road","Latitude":51.481056,"Longitude":-0.447693,"Action":0},{"StopId":5781,"StopCode":"OC901","PointLetter":"","StopName":"Heathrow Central Bus Station","Latitude":51.471543,"Longitude":-0.452566,"Action":0}], "Routes" : [{"Id":4423,"Route":"105","From":"Rockware Avenue / Greenford Station","Towards":"Heathrow Central Bus Station","Run":"1","IsDay":1,"encodedLevels":"PF@C?GABB@?EA@AC@?G@B?@BDBB@?D?AB@H?AC@BA@D?AE@CAHF?ABACAG?B?B?HC?FA?CA?F?ABD?B@I@BDB@C@?H?FABAD?AED?@BCA@@D@BHCBC@?F?A?AACB?E@@CA@E?A@B?H?A?D@AAD@@BABF@@B@AFA?AIB@FB?B@D@?ADBAB@AD?@AA?AHC@AEBC@?C@P","encodedPoints":"{zqyHd_bAyB~N~A~@lDfChFvFxGtHt@BVIrF{CfAUn@Cd@K^_E@eBG_@HeC^]VMJAJBXVFLFRNhAh@n@zA`@hD~BnJbHdG`FnA~@rDzBpAr@tDfBjBr@~A`@]vBwAdH_ArDSnBE`AAhJQzD[rDsAfIGf@oBtJaFfEg@n@mAvBcAdD~SjG\\Kh@[fD{C`G_GdAaBt@k@~Bo@H^jDdKfBxINh@fBvFhCxHbKkMzBgEXq@nAhAxClBjBpA^JNAb@M?a@BY|B}NtBkIPc@PYZWx@]NfCZjJFlOOfDs@fF}@hFOhCa@fO@JtV@~DBrDhBpD~BrBjB`GtDLB|Br@bJ`Bn@zBb@Tb@JxD~A~@z@lAzAhB~CX|@X^bDlAtHbCr@@o@jJqBtL[P@^Gr@OjGRn@HPVb@~AzBvAnCjArCpBnFVdAj@xCVpBF|AdAvLpAhEPv@@`@?^In@i@pAi@|BCX?lAx@HvB`@rFlApGzAh@RzA|@z@t@jFnC|Bv@rShGp@XtGhBzAPdDvAb@l@pD~HtAfCpCpHF\\`@\\VHdLLdCHVGsHhc@_@jEEvACjFj@hKN|D~@p[XrO@tFEzGOnNgB`wA\\BDx@f@dBj@VVXHZAXARSz@CpBm@zEEN@ZZdC\\^XPp@L|c@ItHRd@G`@OvCe@NRF\\","Color":"993333","hasRunTwo":1,"startPoint":{"Latitude":51.542381,"Longitude":-0.343065},"endPoint":{"Latitude":51.471395,"Longitude":-0.452934}},{"Id":2811,"Route":"105","From":"Rockware Avenue / Greenford Station","Towards":"Heathrow Central Bus Station","Run":"1","IsDay":0,"encodedLevels":"PF@C?GABB@?EA@AC@?G@B?@BDBB@?D?AB@H?AC@BA@D?AE@CAHF?ABACAG?B?B?HC?FA?CA?F?ABD?B@I@BDB@C@?H?FABAD?AED?@BCA@@D@BHCBC@?F?A?AACB?E@@CA@E?A@B?H?A?D@AAD@@BABF@@B@AFA?AIB@FB?B@D@?ADBAB@AD?@AA?AHC@AEBC@?C@P","encodedPoints":"{zqyHd_bAyB~N~A~@lDfChFvFxGtHt@BVIrF{CfAUn@Cd@K^_E@eBG_@HeC^]VMJAJBXVFLFRNhAh@n@zA`@hD~BnJbHdG`FnA~@rDzBpAr@tDfBjBr@~A`@]vBwAdH_ArDSnBE`AAhJQzD[rDsAfIGf@oBtJaFfEg@n@mAvBcAdD~SjG\\Kh@[fD{C`G_GdAaBt@k@~Bo@H^jDdKfBxINh@fBvFhCxHbKkMzBgEXq@nAhAxClBjBpA^JNAb@M?a@BY|B}NtBkIPc@PYZWx@]NfCZjJFlOOfDs@fF}@hFOhCa@fO@JtV@~DBrDhBpD~BrBjB`GtDLB|Br@bJ`Bn@zBb@Tb@JxD~A~@z@lAzAhB~CX|@X^bDlAtHbCr@@o@jJqBtL[P@^Gr@OjGRn@HPVb@~AzBvAnCjArCpBnFVdAj@xCVpBF|AdAvLpAhEPv@@`@?^In@i@pAi@|BCX?lAx@HvB`@rFlApGzAh@RzA|@z@t@jFnC|Bv@rShGp@XtGhBzAPdDvAb@l@pD~HtAfCpCpHF\\`@\\VHdLLdCHVGsHhc@_@jEEvACjFj@hKN|D~@p[XrO@tFEzGOnNgB`wA\\BDx@f@dBj@VVXHZAXARSz@CpBm@zEEN@ZZdC\\^XPp@L|c@ItHRd@G`@OvCe@NRF\\","Color":"663366","hasRunTwo":1,"startPoint":{"Latitude":51.542381,"Longitude":-0.343065},"endPoint":{"Latitude":51.471395,"Longitude":-0.452934}}]}


