{"Stops" : [{"StopId":16023,"StopCode":"R0002","PointLetter":"H","StopName":"Finsbury Park Interchange","Latitude":51.564839,"Longitude":-0.105529,"Action":0},{"StopId":5625,"StopCode":"379","PointLetter":"N","StopName":"Blackstock Rd / City & Islington College","Latitude":51.564019,"Longitude":-0.103226,"Action":0},{"StopId":18453,"StopCode":"16753","PointLetter":"EA","StopName":"Brownswood Road / Finsbury Park Road","Latitude":51.561828,"Longitude":-0.098974,"Action":0},{"StopId":18433,"StopCode":"16755","PointLetter":"PA","StopName":"Queen's Drive","Latitude":51.562532,"Longitude":-0.096867,"Action":0},{"StopId":18406,"StopCode":"16757","PointLetter":"PE","StopName":"Green Lanes","Latitude":51.564156,"Longitude":-0.091678,"Action":0},{"StopId":18454,"StopCode":"16759","PointLetter":"PF","StopName":"Queen Elizabeth's Walk","Latitude":51.565295,"Longitude":-0.087071,"Action":0},{"StopId":18455,"StopCode":"16760","PointLetter":"","StopName":"Lordship Road","Latitude":51.566056,"Longitude":-0.084124,"Action":0},{"StopId":18408,"StopCode":"16763","PointLetter":"","StopName":"Heathland Road","Latitude":51.567054,"Longitude":-0.080244,"Action":0},{"StopId":18458,"StopCode":"1527","PointLetter":"B","StopName":"Listria Park","Latitude":51.565786,"Longitude":-0.074757,"Action":0},{"StopId":36,"StopCode":"1116","PointLetter":"C","StopName":"Stoke Newington Station","Latitude":51.564786,"Longitude":-0.073024,"Action":0},{"StopId":20,"StopCode":"BP3194","PointLetter":"D","StopName":"Northwold Road / Stoke Newington Common","Latitude":51.562977,"Longitude":-0.071831,"Action":0},{"StopId":18465,"StopCode":"16765","PointLetter":"UM","StopName":"Geldeston Road","Latitude":51.562878,"Longitude":-0.063655,"Action":0},{"StopId":18413,"StopCode":"16769","PointLetter":"UN","StopName":"Clapton Library","Latitude":51.562768,"Longitude":-0.059158,"Action":0},{"StopId":746,"StopCode":"54","PointLetter":"A","StopName":"Clapton Station","Latitude":51.562280,"Longitude":-0.057418,"Action":0},{"StopId":744,"StopCode":"194","PointLetter":"B","StopName":"Lea Bridge Roundabout","Latitude":51.559336,"Longitude":-0.056101,"Action":0},{"StopId":672,"StopCode":"1011","PointLetter":"E","StopName":"Clapton Pond","Latitude":51.556801,"Longitude":-0.055661,"Action":0},{"StopId":685,"StopCode":"29245","PointLetter":"G","StopName":"Millfields Road","Latitude":51.555138,"Longitude":-0.054563,"Action":0},{"StopId":21038,"StopCode":"BP5525","PointLetter":"N","StopName":"Clapton Girls' Technology College","Latitude":51.552816,"Longitude":-0.052859,"Action":0},{"StopId":775,"StopCode":"935","PointLetter":"V","StopName":"Hackney Baths","Latitude":51.550639,"Longitude":-0.052836,"Action":0},{"StopId":665,"StopCode":"2271","PointLetter":"S","StopName":"Clapton Square","Latitude":51.549921,"Longitude":-0.054007,"Action":0},{"StopId":21820,"StopCode":"BP5529","PointLetter":"Y","StopName":"Pembury Circus","Latitude":51.549461,"Longitude":-0.056046,"Action":0},{"StopId":21822,"StopCode":"BP5782","PointLetter":"H","StopName":"Hackney Central Station","Latitude":51.547959,"Longitude":-0.056614,"Action":0},{"StopId":805,"StopCode":"307","PointLetter":"B","StopName":"Hackney Town Hall","Latitude":51.545264,"Longitude":-0.055157,"Action":0},{"StopId":21817,"StopCode":"BP5762","PointLetter":"LZ","StopName":"St Thomas's Square","Latitude":51.541991,"Longitude":-0.055138,"Action":0},{"StopId":796,"StopCode":"8318","PointLetter":"LB","StopName":"Well Street","Latitude":51.539258,"Longitude":-0.056307,"Action":0},{"StopId":827,"StopCode":"784","PointLetter":"LE","StopName":"King Edward's Road","Latitude":51.538361,"Longitude":-0.056951,"Action":0},{"StopId":817,"StopCode":"2278","PointLetter":"LH","StopName":"St Joseph's Hospice","Latitude":51.536589,"Longitude":-0.056969,"Action":0},{"StopId":788,"StopCode":"1704","PointLetter":"Q","StopName":"Mare Street / Victoria Park Road","Latitude":51.534928,"Longitude":-0.057111,"Action":0},{"StopId":800,"StopCode":"7570","PointLetter":"P","StopName":"Cambridge Heath Station","Latitude":51.533166,"Longitude":-0.057129,"Action":0},{"StopId":753,"StopCode":"2280","PointLetter":"H","StopName":"Old Ford Road","Latitude":51.529936,"Longitude":-0.055954,"Action":0},{"StopId":792,"StopCode":"4613","PointLetter":"A","StopName":"Bethnal Green Station","Latitude":51.528111,"Longitude":-0.055412,"Action":0},{"StopId":808,"StopCode":"BP1650","PointLetter":"T","StopName":"Three Colts Lane","Latitude":51.525089,"Longitude":-0.054878,"Action":0},{"StopId":772,"StopCode":"2282","PointLetter":"P","StopName":"Cephas Street","Latitude":51.523020,"Longitude":-0.054822,"Action":0},{"StopId":812,"StopCode":"946","PointLetter":"R","StopName":"Darling Row","Latitude":51.521159,"Longitude":-0.055939,"Action":0},{"StopId":20925,"StopCode":"BP3571","PointLetter":"W","StopName":"Cavell Street","Latitude":51.518461,"Longitude":-0.057510,"Action":0}], "Routes" : [{"Id":8933,"Route":"106","From":"Finsbury Park Interchange","Towards":"Cavell Street","Run":"1","IsDay":1,"encodedLevels":"P?ACCD?A@GB?A?CC@B?AD@CAG?AD@@C@EAE@AGA@D@BBD?B?@B?B?D@J?CA?@BD@AE@?A?DAE?@?CB@H?A?@DAE?@?CA??HB?@AG@?CAAAE?@?BE??B@@AF@BC@B?A??DB?@@?A@C?@E??D?@BF@AABG@E@P","encodedPoints":"sfvyHvrSOCMGM]hAoBYu@^w@xFsKtEeItCwEmAsC?EJU[{@o@kAVc@u@{AMe@uCaN{AoGaCsMiEmXsJil@OkBBqDReCLeAx@iEP]tAsBfCqEPwALoD~IDZNTa@H[jB{Jl@iIl@aM@s@EgAW_Cm@{As@oEPuAJcB@}ACqCFkALq@f@qBBg@?aCMcA{AiIbAeAROvCmAPClHgCv@MtC}AzA}AVs@`@[JBn@`A\\^`@RRLdACtDw@LM`C_BpHyEvIwF`DgD~A}@j@QLTFVNdBDn@h@vDpAbB|BfE@JEj@@bCClSDj@HPJJDBZGTu@vDwJ`EkLTWlALpG\\vBN~EBbK_@HFhDCHBVNrEhDdAz@|DlBJ?REdDIfADfAP|EJtHf@|@?xAO~GsArD{AFGH?FBLELCvI}BhC[jACl@C@DPE`@CDHl@@d@EzDw@hHaAnDF`A?NBXJhFfCfCtA~DdAf@QRA~@u@pCuA`F{AGxGOdC_En@QH","Color":"993333","hasRunTwo":1,"startPoint":{"Latitude":51.564748,"Longitude":-0.105557},"endPoint":{"Latitude":51.518821,"Longitude":-0.057606}}]}


