{"Stops" : [{"StopId":4459,"StopCode":"FW5","PointLetter":"D","StopName":"Arragon Road","Latitude":51.449012,"Longitude":-0.329042,"Action":0},{"StopId":3889,"StopCode":"25606","PointLetter":"F","StopName":"Twickenham / London Road","Latitude":51.448519,"Longitude":-0.329203,"Action":0},{"StopId":3754,"StopCode":"14752","PointLetter":"L","StopName":"Twickenham / King Street","Latitude":51.445915,"Longitude":-0.328781,"Action":0},{"StopId":3800,"StopCode":"R0278","PointLetter":"U","StopName":"Heath Road / Copthall Gardens","Latitude":51.445104,"Longitude":-0.332465,"Action":0},{"StopId":3885,"StopCode":"2841","PointLetter":"GS","StopName":"Heath Road / Grove Avenue","Latitude":51.445266,"Longitude":-0.336302,"Action":0},{"StopId":4484,"StopCode":"16174","PointLetter":"GC","StopName":"Twickenham Green","Latitude":51.444384,"Longitude":-0.341946,"Action":0},{"StopId":4526,"StopCode":"16176","PointLetter":"GD","StopName":"First Cross Road","Latitude":51.444152,"Longitude":-0.345898,"Action":0},{"StopId":4483,"StopCode":"16178","PointLetter":"GE","StopName":"Meadway","Latitude":51.443283,"Longitude":-0.349253,"Action":0},{"StopId":4405,"StopCode":"16179","PointLetter":"GF","StopName":"Mill Road","Latitude":51.441369,"Longitude":-0.353869,"Action":0},{"StopId":4440,"StopCode":"16181","PointLetter":"T","StopName":"Sixth Cross Road","Latitude":51.439485,"Longitude":-0.359936,"Action":0},{"StopId":4482,"StopCode":"16183","PointLetter":"N","StopName":"Willow Way","Latitude":51.441333,"Longitude":-0.364791,"Action":0},{"StopId":4401,"StopCode":"26244","PointLetter":"H","StopName":"Heathfield Library","Latitude":51.443652,"Longitude":-0.365356,"Action":0},{"StopId":4441,"StopCode":"16184","PointLetter":"R","StopName":"Longford Road","Latitude":51.445416,"Longitude":-0.368646,"Action":0},{"StopId":4480,"StopCode":"16186","PointLetter":"J","StopName":"Cheyne Avenue","Latitude":51.447223,"Longitude":-0.373158,"Action":0},{"StopId":4554,"StopCode":"16188","PointLetter":"K","StopName":"Chester Avenue","Latitude":51.448974,"Longitude":-0.377528,"Action":0},{"StopId":4547,"StopCode":"14116","PointLetter":"L","StopName":"Godfrey Way","Latitude":51.450526,"Longitude":-0.379215,"Action":0},{"StopId":4406,"StopCode":"16192","PointLetter":"M","StopName":"Simpson Road","Latitude":51.453993,"Longitude":-0.375695,"Action":0},{"StopId":4556,"StopCode":"16193","PointLetter":"N","StopName":"Nelson Road","Latitude":51.457495,"Longitude":-0.372116,"Action":0},{"StopId":4477,"StopCode":"16195","PointLetter":"ST","StopName":"Cromwell Road","Latitude":51.459809,"Longitude":-0.369759,"Action":0},{"StopId":4475,"StopCode":"16197","PointLetter":"SU","StopName":"Hibernia Road","Latitude":51.462079,"Longitude":-0.367447,"Action":0},{"StopId":4474,"StopCode":"16199","PointLetter":"SW","StopName":"Bell Road","Latitude":51.464730,"Longitude":-0.364733,"Action":0},{"StopId":3859,"StopCode":"BP1365","PointLetter":"J","StopName":"Grove Road","Latitude":51.466513,"Longitude":-0.362984,"Action":0},{"StopId":3772,"StopCode":"15580","PointLetter":"O","StopName":"Treaty Centre","Latitude":51.467554,"Longitude":-0.362127,"Action":0},{"StopId":5266,"StopCode":"BP2285","PointLetter":"K","StopName":"Hounslow High Street","Latitude":51.469604,"Longitude":-0.357647,"Action":0},{"StopId":2988,"StopCode":"1341","PointLetter":"F","StopName":"Hounslow Bus Station","Latitude":51.471013,"Longitude":-0.353594,"Action":0},{"StopId":4400,"StopCode":"6205","PointLetter":"","StopName":"Bridge Road","Latitude":51.472015,"Longitude":-0.349368,"Action":0},{"StopId":4523,"StopCode":"BP4509","PointLetter":"J","StopName":"Star Road","Latitude":51.472958,"Longitude":-0.346728,"Action":0},{"StopId":4505,"StopCode":"6202","PointLetter":"K","StopName":"Thornbury Road","Latitude":51.474025,"Longitude":-0.344630,"Action":0},{"StopId":4507,"StopCode":"6200","PointLetter":"L","StopName":"West Thames College","Latitude":51.474961,"Longitude":-0.342134,"Action":0},{"StopId":6719,"StopCode":"6197","PointLetter":"N","StopName":"Isleworth Station","Latitude":51.475244,"Longitude":-0.337357,"Action":0},{"StopId":6744,"StopCode":"6195","PointLetter":"P","StopName":"Linkfield Road","Latitude":51.475362,"Longitude":-0.334905,"Action":0},{"StopId":6718,"StopCode":"6193","PointLetter":"Q","StopName":"Wood Lane","Latitude":51.475904,"Longitude":-0.332538,"Action":0},{"StopId":6692,"StopCode":"6191","PointLetter":"R","StopName":"Turnpike Way","Latitude":51.477177,"Longitude":-0.328430,"Action":0},{"StopId":6716,"StopCode":"6189","PointLetter":"P","StopName":"The Green School","Latitude":51.478256,"Longitude":-0.324704,"Action":0},{"StopId":5906,"StopCode":"6402","PointLetter":"TE","StopName":"Teesdale Gardens","Latitude":51.476367,"Longitude":-0.324658,"Action":0},{"StopId":8965,"StopCode":"BP4199","PointLetter":"HD","StopName":"West Middlesex Hospital","Latitude":51.473896,"Longitude":-0.325368,"Action":0}], "Routes" : [{"Id":4783,"Route":"110","From":"Arragon Road","Towards":"West Middlesex Hospital","Run":"1","IsDay":1,"encodedLevels":"P@D?AF?AA@@F?@D@@F@CBD?AC@?@F?@C??A@D@A?H@BAF@B@@C??B@@F@BK????@D?@F?B@@@@@@B???B@H?A@?B?EBC?@BAE@AAE@@@?B@AGBB@E?F?ACAP","encodedPoints":"op_yHn~~@yB`CM\\CV@PlA`Ev@g@~AkAnDaBl@]RWLGTFZBbA`@Hb@`@r@fB~E\\|Dh@rKe@zPF~JNxA~AjLbAlKHnAFhE`@jPFp@Jp@rBdK`BfHl@nBvBbGv@~BxD|LjDvLd@zCbBpPDl@?z@sC~Jq@nB]x@{@~@s@RiEz@{@f@CJa@NM?WKi@M_AHmC`@_ABu@fDeBrGk]zjAwPcQk[w[qSaTaIaIeSuS{F{FYEY?qA]Ms@Qs@Q_@G@KO?IWa@G@KOAQIKuDmLYaA}CyHs@qAq@kEcCwMOmABUi@yEwBgMk@yCeBeHqDeKa@aAa@s@aBsCqA}CMq@OmAQ{EgA}i@UiCuAkHqCiMkEuTGGCM?QwAsHq@uGPUvB@z@PPN`IbKdEtFHo@Li@hAsCT]p@O","Color":"993333","hasRunTwo":1,"startPoint":{"Latitude":51.448561,"Longitude":-0.327596},"endPoint":{"Latitude":51.473835,"Longitude":-0.325477}}]}


