{"Stops" : [{"StopId":4166,"StopCode":"R0791","PointLetter":"E","StopName":"Edgware Bus Station","Latitude":51.612734,"Longitude":-0.274174,"Action":0},{"StopId":9207,"StopCode":"25118","PointLetter":"B","StopName":"Edgware Station  / Station Road","Latitude":51.614548,"Longitude":-0.275824,"Action":0},{"StopId":11303,"StopCode":"15760","PointLetter":"P","StopName":"Purcells Avenue","Latitude":51.617899,"Longitude":-0.277430,"Action":0},{"StopId":11253,"StopCode":"20498","PointLetter":"Q","StopName":"Edgwarebury Lane / Edgware Way","Latitude":51.620824,"Longitude":-0.277623,"Action":0},{"StopId":12851,"StopCode":"15758","PointLetter":"T","StopName":"Broadfields Avenue","Latitude":51.621751,"Longitude":-0.273398,"Action":0},{"StopId":12854,"StopCode":"15756","PointLetter":"U","StopName":"Broadhurst Avenue","Latitude":51.622266,"Longitude":-0.269869,"Action":0},{"StopId":12852,"StopCode":"16105","PointLetter":"A","StopName":"Kenilworth Road","Latitude":51.622332,"Longitude":-0.265850,"Action":0},{"StopId":12855,"StopCode":"15754","PointLetter":"B","StopName":"Edgware Way","Latitude":51.621962,"Longitude":-0.262657,"Action":0},{"StopId":12823,"StopCode":"14702","PointLetter":"C","StopName":"Mount Grove","Latitude":51.621641,"Longitude":-0.258638,"Action":0},{"StopId":12100,"StopCode":"3195","PointLetter":"D","StopName":"Barnet Way / Apex Corner","Latitude":51.621010,"Longitude":-0.253028,"Action":0},{"StopId":12105,"StopCode":"15752","PointLetter":"S","StopName":"Mill Hill Circus","Latitude":51.617418,"Longitude":-0.246117,"Action":0},{"StopId":12844,"StopCode":"2664","PointLetter":"Q","StopName":"Daws Lane","Latitude":51.614681,"Longitude":-0.241643,"Action":0},{"StopId":12814,"StopCode":"14779","PointLetter":"","StopName":"Mill Hill Park","Latitude":51.611590,"Longitude":-0.241228,"Action":0},{"StopId":12845,"StopCode":"3439","PointLetter":"","StopName":"Bunns Lane Bridge","Latitude":51.607233,"Longitude":-0.240270,"Action":0},{"StopId":12808,"StopCode":"14777","PointLetter":"QY","StopName":"Tithe Walk","Latitude":51.603927,"Longitude":-0.238144,"Action":0},{"StopId":12842,"StopCode":"3437","PointLetter":"","StopName":"Five Ways Corner","Latitude":51.602337,"Longitude":-0.235852,"Action":0},{"StopId":12809,"StopCode":"14775","PointLetter":"","StopName":"Westside","Latitude":51.599232,"Longitude":-0.233243,"Action":0},{"StopId":12824,"StopCode":"14773","PointLetter":"","StopName":"Southfields","Latitude":51.595358,"Longitude":-0.233393,"Action":0},{"StopId":12816,"StopCode":"2795","PointLetter":"","StopName":"Greyhound Hill","Latitude":51.592187,"Longitude":-0.234181,"Action":0},{"StopId":12811,"StopCode":"14769","PointLetter":"M","StopName":"St Joseph's School","Latitude":51.586747,"Longitude":-0.231836,"Action":0},{"StopId":10686,"StopCode":"29581","PointLetter":"J","StopName":"Hendon War Memorial","Latitude":51.585786,"Longitude":-0.230141,"Action":0},{"StopId":10679,"StopCode":"3435","PointLetter":"G","StopName":"Hendon Central Station","Latitude":51.583664,"Longitude":-0.227756,"Action":0},{"StopId":10697,"StopCode":"15750","PointLetter":"","StopName":"Beaufort Gardens","Latitude":51.579894,"Longitude":-0.225247,"Action":0},{"StopId":10699,"StopCode":"15748","PointLetter":"H","StopName":"North Circular Road","Latitude":51.577505,"Longitude":-0.219466,"Action":0},{"StopId":12856,"StopCode":"15746","PointLetter":"P","StopName":"Highfield Avenue","Latitude":51.575961,"Longitude":-0.215515,"Action":0},{"StopId":12828,"StopCode":"15743","PointLetter":"U","StopName":"Woodville Gardens","Latitude":51.574536,"Longitude":-0.213493,"Action":0},{"StopId":12857,"StopCode":"15742","PointLetter":"V","StopName":"Wessex Gardens","Latitude":51.571224,"Longitude":-0.209741,"Action":0},{"StopId":1328,"StopCode":"25072","PointLetter":"W","StopName":"The Vale","Latitude":51.567781,"Longitude":-0.206889,"Action":0},{"StopId":12822,"StopCode":"26986","PointLetter":"","StopName":"Garth Road","Latitude":51.564381,"Longitude":-0.205047,"Action":0},{"StopId":12859,"StopCode":"15737","PointLetter":"S","StopName":"Cricklewood Lane","Latitude":51.561941,"Longitude":-0.203686,"Action":0},{"StopId":12837,"StopCode":"9358","PointLetter":"T","StopName":"Lyndale Avenue","Latitude":51.559759,"Longitude":-0.198664,"Action":0},{"StopId":10483,"StopCode":"1463","PointLetter":"G","StopName":"Fortune Green Road","Latitude":51.558660,"Longitude":-0.196140,"Action":0},{"StopId":10485,"StopCode":"12026","PointLetter":"CA","StopName":"Burrard Road","Latitude":51.555954,"Longitude":-0.193910,"Action":0},{"StopId":10494,"StopCode":"137","PointLetter":"CB","StopName":"Lyncroft Gardens","Latitude":51.554688,"Longitude":-0.191666,"Action":0},{"StopId":10496,"StopCode":"37634","PointLetter":"CC","StopName":"West End Lane","Latitude":51.553458,"Longitude":-0.189465,"Action":0},{"StopId":10490,"StopCode":"117","PointLetter":"FU","StopName":"Alvanley Court","Latitude":51.552680,"Longitude":-0.187433,"Action":0},{"StopId":10503,"StopCode":"12028","PointLetter":"FV","StopName":"Langland Gardens","Latitude":51.551779,"Longitude":-0.185002,"Action":0},{"StopId":10504,"StopCode":"1219","PointLetter":"FF","StopName":"Finchley Road & Frognal Station","Latitude":51.550110,"Longitude":-0.182314,"Action":0},{"StopId":3431,"StopCode":"12030","PointLetter":"FH","StopName":"O2 Centre","Latitude":51.547912,"Longitude":-0.180324,"Action":0},{"StopId":3460,"StopCode":"1331","PointLetter":"FJ","StopName":"Finchley Road Station","Latitude":51.546662,"Longitude":-0.179163,"Action":0},{"StopId":3468,"StopCode":"33798","PointLetter":"B","StopName":"Finchley Road / College Crescent","Latitude":51.544474,"Longitude":-0.175486,"Action":0},{"StopId":3287,"StopCode":"34615","PointLetter":"D","StopName":"Swiss Cottage Station /  Avenue Road","Latitude":51.542959,"Longitude":-0.174104,"Action":0},{"StopId":3397,"StopCode":"12037","PointLetter":"V","StopName":"Boundary Road","Latitude":51.539288,"Longitude":-0.175679,"Action":0},{"StopId":3575,"StopCode":"1027","PointLetter":"U","StopName":"Queens Grove","Latitude":51.536840,"Longitude":-0.176138,"Action":0},{"StopId":3582,"StopCode":"2193","PointLetter":"C","StopName":"St John's Wood Station","Latitude":51.533987,"Longitude":-0.173685,"Action":0},{"StopId":10487,"StopCode":"4804","PointLetter":"K","StopName":"Lord's Cricket Ground","Latitude":51.530659,"Longitude":-0.169623,"Action":0},{"StopId":9641,"StopCode":"2737","PointLetter":"P","StopName":"Park Road / Lord's Cricket Ground","Latitude":51.529421,"Longitude":-0.166890,"Action":0},{"StopId":9684,"StopCode":"11321","PointLetter":"LA","StopName":"Alpha Close","Latitude":51.527549,"Longitude":-0.164529,"Action":0},{"StopId":9773,"StopCode":"1052","PointLetter":"LB","StopName":"London Business School","Latitude":51.526169,"Longitude":-0.161960,"Action":0},{"StopId":9828,"StopCode":"4789","PointLetter":"A","StopName":"Baker Street Station","Latitude":51.523283,"Longitude":-0.157954,"Action":0},{"StopId":7031,"StopCode":"725","PointLetter":"F","StopName":"York Street","Latitude":51.521326,"Longitude":-0.157038,"Action":0},{"StopId":7218,"StopCode":"26597","PointLetter":"H","StopName":"Blandford Street","Latitude":51.518609,"Longitude":-0.155808,"Action":0},{"StopId":7045,"StopCode":"449","PointLetter":"BA","StopName":"Orchard Street / Selfridges","Latitude":51.514624,"Longitude":-0.154008,"Action":0},{"StopId":1661,"StopCode":"180","PointLetter":"P","StopName":"Marble Arch Station","Latitude":51.513457,"Longitude":-0.157587,"Action":0}], "Routes" : [{"Id":8255,"Route":"113","From":"Edgware Bus Station","Towards":"Marble Arch Station","Run":"1","IsDay":1,"encodedLevels":"PABF?BABAE?A@D?AEAB?@H?A@CA?AC@E@@B@DACA?G?ABBC@ACB@CAAAJ?AD?@@C?CB@G@B?D@@G?ACABC@E@B?DC?AI?A?C@A?CAF?AAD@?@BDB?F?@B@BA@A??B?D@G@@@C?BEAB??BBG?A?BC@@F@@CE?D@?AABEAADABCAAD?@CH@AAFBFA?AAAA?AAA@ACAA@B@A@AG?AB@E?B?A?BE@BCD?B?A?A?H@???@@?G@P","encodedPoints":"er_zHtnt@_BpE?j@_BpEWU]WCHgE{@qAK{@D@FETE?yAlCe@Zk@X}FnBqAHyEIkCPeFd@y@NFk@HaBDqDCmBYyEy@cH_@cEm@sISqFKqH@gCNaINaDp@kJt@oMNkSEiGe@uAEa@?SF_@FMrAsB`@kCtDaLx@uAtAqBtAoCvHmSdCuIAGb@aAPGnAgDlCeFt@q@h@]nBu@h@InBMjAAnHa@|AObVcDdGaAt@UpBcA`DoCfEcE^e@hBgCz@eBlCqGtDyHF@^XXB|Aq@~Be@hBG~NXtIH|C\\tAXpNpDtI`C~CR`@I\\Mx@m@`@c@NUJWf@wAZkAn@_EhAkEL]tB}EnAmBRO|CiDrCuDzFqGPCh@Ax@Dd@E|@YbGyDrCuCNUb@}@\\{@t@aCxDePRgAdCqHNgAl@}BJUd@y@Na@Jq@hBiHhAkB`CqEt@u@`C}CdHqIfF_GzEaFvAsAvEkDzDcCrEwBjB{@hGeC|JkEzGoDv@}@Va@^y@Vs@b@_BrEiTR{AFuAh@{Dd@U|GmEtGqErAoBz@eBnOw\\Fc@`@wAZuALcCx@}EhAmCTO~HyNbDeFLDhBaA|BgB|DmDHYvG_HVs@~@mDpBwFrA{Aj@c@p@Y~FkFlC{AZhH^t@~@ZdBVfEb@rCj@fEf@JKD@NNlANHMNBJNbAJN@BOP?FLPAHMJAHFdASRMn@i@nCiDrZk`@bA{AN{@Dk@?k@Ga@Qm@Mw@Pm@XCLDhAo@`K}MhCsEt@uA|AcE\\iAbDgHR]zDwJNYbCu@rK}DdIoCvAm@pKsDtIoC`DqAjE{Ar@pQV~D","Color":"993333","hasRunTwo":1,"startPoint":{"Latitude":51.612674,"Longitude":-0.273865},"endPoint":{"Latitude":51.513531,"Longitude":-0.157751}},{"Id":11302,"Route":"N113","From":"Edgware Bus Station","Towards":"Northumberland Avenue / Trafalgar Square","Run":"1","IsDay":0,"encodedLevels":"PABF?BABAE?A@D?AEAB?@H?A@CA?AC@E@@B@DACA?G?ABBC@ACB@CAAAJ?AD?@@C?CB@G@B?D@@G?ACABC@E@B?EC?B?I@?BACAF?AAD@?@BDB?F?@B@BA@A??B?D@G@@@C?BEAB??BBG?A?BC@@F@@CE?D@?AABEAADABCAAD?@CH@ABFACBF?AAA?AABA@ADAA@@AA@A@H@A@E?B?A?BE@BCD?B?A?A?G@???@@?I?@?A??G@CDAAG@B?C?@@BA@EAB@F@@C@AP","encodedPoints":"er_zHtnt@_BpE?j@_BpEWU]WCHgE{@qAK{@D@FETE?yAlCe@Zk@X}FnBqAHyEIkCPeFd@y@NFk@HaBDqDCmBYyEy@cH_@cEm@sISqFKqH@gCNaINaDp@kJt@oMNkSEiGe@uAEa@?SF_@FMrAsB`@kCtDaLx@uAtAqBtAoCvHmSdCuIAGb@aAPGnAgDlCeFt@q@h@]nBu@h@InBMjAAnHa@|AObVcDdGaAt@UpBcA`DoCfEcE^e@hBgCz@eBlCqGtDyHF@^XXB|Aq@~Be@hBG~NXtIH|C\\tAXpNpDtI`C~CR`@I\\Mx@m@`@c@Zm@f@wAZkAn@_EhAkEbC{FnAmBRO|CiDrCuDzFqGPCh@Ax@Dd@E|@YbGyDrCuCNUb@}@\\{@t@aCxDePRgAdCqHNgAl@}BJUd@y@Na@Jq@hBiHhAkB`CqEt@u@`C}CdHqIfF_GzEaFvAsAvEkDzDcCrEwBjB{@hGeC|JkEzGoDv@}@Va@^y@Vs@b@_BrEiTR{AFuAh@{Dd@U|GmEtGqErAoBz@eBnOw\\Fc@`@wAZuALcCx@}EhAmCTO~HyNbDeFLDhBaA|BgB|DmDHYvG_HVs@~@mDpBwFrA{Aj@c@p@Y~FkF~BkARp@TfF^t@~@ZdBVfEb@rCj@fEf@JKD@NNlANHMNBJNbAJN@BOP?FLPAHMJAHFdASRMn@i@nCiDrZk`@bA{AN{@Dk@?k@Ga@Qm@Mw@Pm@XCLDhAo@`K}MhCsEt@uA|AcE\\iAbDgHR]zDwJNYbCu@rK}DdIoCvAm@pKsDtIoC`DqAjE{A_AgRGaBy@cNQmDaAkOm@qIOkCp@OdEuA`EwCDS~ImH`FcFPk@^eCAe@F{BGc@MeBKWMeCJoB?gAKwAnAaBnDeDx@s@nD}BRiSCKJiCPi@b@oC^mD","Color":"663366","hasRunTwo":1,"startPoint":{"Latitude":51.612674,"Longitude":-0.273865},"endPoint":{"Latitude":51.507110,"Longitude":-0.125385}}]}


