{"Stops" : [{"StopId":16306,"StopCode":"36953","PointLetter":"D","StopName":"Bromley North Station","Latitude":51.408255,"Longitude":0.016411,"Action":0},{"StopId":13572,"StopCode":"BP055","PointLetter":"T","StopName":"Bromley Civic Centre","Latitude":51.405318,"Longitude":0.018841,"Action":0},{"StopId":16350,"StopCode":"40235","PointLetter":"W","StopName":"Bromley High Street / The Mall","Latitude":51.402031,"Longitude":0.015965,"Action":0},{"StopId":16248,"StopCode":"21558","PointLetter":"X","StopName":"Bromley South Station","Latitude":51.400636,"Longitude":0.017054,"Action":0},{"StopId":16276,"StopCode":"17787","PointLetter":"J","StopName":"St Mark's Church","Latitude":51.398725,"Longitude":0.016783,"Action":0},{"StopId":16036,"StopCode":"18371","PointLetter":"U","StopName":"Cameron Road","Latitude":51.396034,"Longitude":0.015371,"Action":0},{"StopId":16277,"StopCode":"17790","PointLetter":"V","StopName":"Hayes Road / Hayes Lane","Latitude":51.392490,"Longitude":0.017501,"Action":0},{"StopId":17311,"StopCode":"17791","PointLetter":"W","StopName":"Hayes Lane / Norman Park","Latitude":51.387470,"Longitude":0.017640,"Action":0},{"StopId":17426,"StopCode":"17793","PointLetter":"M","StopName":"Club Gardens Road","Latitude":51.383754,"Longitude":0.017203,"Action":0},{"StopId":17337,"StopCode":"11331","PointLetter":"N","StopName":"Hayes / George Lane","Latitude":51.379337,"Longitude":0.018331,"Action":0},{"StopId":17306,"StopCode":"17812","PointLetter":"W","StopName":"Hayes Library","Latitude":51.377569,"Longitude":0.016055,"Action":0},{"StopId":16142,"StopCode":"17711","PointLetter":"A","StopName":"Hayes / Station Approach","Latitude":51.377407,"Longitude":0.010832,"Action":0},{"StopId":16230,"StopCode":"9470","PointLetter":"B","StopName":"Hayes Station","Latitude":51.376109,"Longitude":0.011034,"Action":0},{"StopId":16061,"StopCode":"R0501","PointLetter":"","StopName":"Holland Way","Latitude":51.375261,"Longitude":0.005379,"Action":0},{"StopId":16267,"StopCode":"17712","PointLetter":"K","StopName":"Tiepigs Lane","Latitude":51.373692,"Longitude":0.001431,"Action":0},{"StopId":15879,"StopCode":"17714","PointLetter":"L","StopName":"Addington Road / Glebe Way","Latitude":51.370534,"Longitude":-0.002126,"Action":0},{"StopId":16145,"StopCode":"17815","PointLetter":"M","StopName":"Layhams Road","Latitude":51.368912,"Longitude":-0.004596,"Action":0},{"StopId":17469,"StopCode":"17816","PointLetter":"N","StopName":"Courtfield Rise","Latitude":51.369850,"Longitude":-0.007400,"Action":0},{"StopId":17305,"StopCode":"17818","PointLetter":"","StopName":"West Wickham Playing Fields","Latitude":51.371352,"Longitude":-0.010596,"Action":0},{"StopId":17367,"StopCode":"19025","PointLetter":"F","StopName":"Wickham Court Road","Latitude":51.373837,"Longitude":-0.013420,"Action":0},{"StopId":8841,"StopCode":"17433","PointLetter":"H","StopName":"High Street / Wickham Court Road","Latitude":51.375804,"Longitude":-0.015447,"Action":0},{"StopId":8658,"StopCode":"17435","PointLetter":"K","StopName":"Sherwood Way","Latitude":51.376557,"Longitude":-0.019021,"Action":0},{"StopId":8806,"StopCode":"17437","PointLetter":"M","StopName":"High Street / Manor Road","Latitude":51.377334,"Longitude":-0.022954,"Action":0},{"StopId":8776,"StopCode":"33012","PointLetter":"Q","StopName":"West Wickham and Shirley Baptist Church","Latitude":51.377212,"Longitude":-0.028017,"Action":0},{"StopId":8346,"StopCode":"17439","PointLetter":"","StopName":"Bethlem Royal Hospital","Latitude":51.377099,"Longitude":-0.030378,"Action":0},{"StopId":8347,"StopCode":"17441","PointLetter":"H","StopName":"Langland Gardens","Latitude":51.376786,"Longitude":-0.036355,"Action":0},{"StopId":8286,"StopCode":"17443","PointLetter":"J","StopName":"Cheston Avenue","Latitude":51.375855,"Longitude":-0.041999,"Action":0},{"StopId":8382,"StopCode":"1554","PointLetter":"K","StopName":"Shirley Library","Latitude":51.375194,"Longitude":-0.046597,"Action":0},{"StopId":8472,"StopCode":"12886","PointLetter":"L","StopName":"Shirley Oaks Road","Latitude":51.374263,"Longitude":-0.051148,"Action":0},{"StopId":8215,"StopCode":"17446","PointLetter":"M","StopName":"Upper Shirley Road","Latitude":51.373746,"Longitude":-0.055237,"Action":0},{"StopId":8487,"StopCode":"17448","PointLetter":"P","StopName":"Trinity School","Latitude":51.375956,"Longitude":-0.062112,"Action":0},{"StopId":8217,"StopCode":"19719","PointLetter":"R","StopName":"Birch Tree Way","Latitude":51.374908,"Longitude":-0.066180,"Action":0},{"StopId":8213,"StopCode":"17450","PointLetter":"S","StopName":"Mapledale Avenue","Latitude":51.374173,"Longitude":-0.070133,"Action":0},{"StopId":8471,"StopCode":"9400","PointLetter":"T","StopName":"Ashburton Road","Latitude":51.374491,"Longitude":-0.074186,"Action":0},{"StopId":8212,"StopCode":"17452","PointLetter":"U","StopName":"Sandilands Tram Stop","Latitude":51.375083,"Longitude":-0.077912,"Action":0},{"StopId":8381,"StopCode":"BP2359","PointLetter":"V","StopName":"Canning Road","Latitude":51.375016,"Longitude":-0.082010,"Action":0},{"StopId":8329,"StopCode":"BP2360","PointLetter":"W","StopName":"Lebanon Road Tram Stop","Latitude":51.375104,"Longitude":-0.084693,"Action":0},{"StopId":6959,"StopCode":"BP2333","PointLetter":"E7","StopName":"East Croydon Station","Latitude":51.374587,"Longitude":-0.093250,"Action":0},{"StopId":5660,"StopCode":"BP1585","PointLetter":"KJ","StopName":"Park Street","Latitude":51.373196,"Longitude":-0.100018,"Action":0},{"StopId":6858,"StopCode":"3430","PointLetter":"KN","StopName":"Croydon Flyover","Latitude":51.371320,"Longitude":-0.100268,"Action":0},{"StopId":6977,"StopCode":"10829","PointLetter":"W","StopName":"Coombe Road","Latitude":51.368209,"Longitude":-0.099175,"Action":0},{"StopId":7098,"StopCode":"25870","PointLetter":"S","StopName":"Aberdeen Road","Latitude":51.365894,"Longitude":-0.098940,"Action":0},{"StopId":9862,"StopCode":"17458","PointLetter":"L","StopName":"Warham Road / Brighton Road","Latitude":51.363544,"Longitude":-0.099311,"Action":0},{"StopId":9937,"StopCode":"BP764","PointLetter":"","StopName":"Croydon Bowling Club","Latitude":51.362707,"Longitude":-0.103166,"Action":0},{"StopId":9861,"StopCode":"17460","PointLetter":"","StopName":"Bramley Hill","Latitude":51.362357,"Longitude":-0.105407,"Action":0},{"StopId":17423,"StopCode":"17462","PointLetter":"","StopName":"Crowley Crescent","Latitude":51.362711,"Longitude":-0.110679,"Action":0},{"StopId":17424,"StopCode":"17464","PointLetter":"WD","StopName":"Waddon Leisure Centre, Fiveways","Latitude":51.364797,"Longitude":-0.117316,"Action":0},{"StopId":8650,"StopCode":"17466","PointLetter":"SF","StopName":"Coldharbour Road","Latitude":51.362333,"Longitude":-0.117891,"Action":0},{"StopId":8654,"StopCode":"25582","PointLetter":"","StopName":"Imperial Way","Latitude":51.359028,"Longitude":-0.117050,"Action":0},{"StopId":17462,"StopCode":"BP2469","PointLetter":"","StopName":"The Colonnades / Croydon Airport","Latitude":51.356167,"Longitude":-0.115300,"Action":0}], "Routes" : [{"Id":1750,"Route":"119","From":"Bromley North Station","Towards":"The Colonnades / Croydon Airport","Run":"1","IsDay":1,"encodedLevels":"P@@CAABE?A?AGAF@AB?AB?F?AC@C@F@ABE@B?G?A@DACFAD?AA@BD?ACE@A?B@?BAE@C?B?J?@B@B??G@BBAE@C?@F@EAB@AC?FC@@E?B?@BH@?@E?A@AD@B??AC@?A?E@BGABAB@H??CB??BAE?@C@B?B?CA@G@BDA?F??B?@@BFAD@?C@DA?A@BAB@AAIAD@D?CA?@A?C?H?DAADA?@CB??A?H?BDAAF?A@D@@B@D?@A@H@BABC@@@@E@ACE@@P","encodedPoints":"utwxHycBRy@CSHg@`@UNm@jB{C|C{Cl@OVCr@Bx@?nFc@hBLnE?@dANnBLZGHCL@|CDd@t@dFpBsAlBwArE}BlBPTEhAg@XUPd@nAbFEt@l@vBNI`@@LDzHlANENIvBaDVSbFmA|FmBxF}FhAbAxAn@t@?dGY`EDjAIfGCpGa@d@D`ANvFtAvDDVAfAYd@QfIiCPE~@BPAlAg@d@C^H`EvBjBOR@VDd@TI^CZk@hMGhG@dJAf@Iz@O~DLFNAtAoBfAcAn@M`@?`@LPLPVjAdBWvGOjJZvBz@lDnCdHj@hA|@bD?|@L~ClHlKVVpHbFNTDTFx@fAfBfB`DzDnHpC~GyEjEeGfFSLMRM\\AP?`@TnDMt@[fAQZUVcAt@{@v@i@x@Mn@?f@Gd@Mf@OToDhCcMdIc@Be@hHaAnI_CxL{@lHWfFw@lJRxBLn@\\jDFdOVnKd@`OT~JEdIJ~GH|@VbBbCxNf@pFtB|XBXbA|Eb@`F|@pIfAfNVrE^bKm@VaBpAwBpCgBbDcAlCqA~CDf@D~@^jF`ApGhDzSR`ChBhLDlCFzHO`I_@~BSr@yAlH[xHGbDClHRxFBHAbHFtCa@pJCfENxDLpLQlCF`D`A@TJAtCQfEr@tHbA~MNp@HJRJb@b@JRDXvAvQBb@nABpGZ~Bs@dHuAlIiCpBK|@FvABtCAdFg@b@UTQRKVAZIvCrRThBhB~SFbCG@I`Kk@tJ[tEWrCi@`EgAhDi@dAiCrHq@|Be@`CEd@At@@xAFLLdBTO^EJHpDFrAQrFy@fIuA@Ij@C|I_Bb@Qh@k@zBeA`GaACg@Qu@S_D","Color":"993333","hasRunTwo":1,"startPoint":{"Latitude":51.408273,"Longitude":0.016135},"endPoint":{"Latitude":51.356200,"Longitude":-0.114692}},{"Id":236,"Route":"119","From":"Bromley North Station","Towards":"The Colonnades / Croydon Airport","Run":"1","IsDay":0,"encodedLevels":"P@@CAABE?A?AGAF@AB?AB?F?AC@C@F@ABE@B?G?A@DACFAD?AA@BD?ACE@A?B@?BAE@C?B?J?@B@B??G@BBAE@C?@F@EAB@AC?FC@@E?B?@BH@?@E?A@AD@B??AC@?A?E@BGABAB@H??CB??BAE?@C@B?B?CA@G@BDA?F??B?@@BFAD@?C@DA?A@BAB@AAIAD@D?CA?@A?C?H?DAADA?@CB??A?H?BDAAF?A@D@@B@D?@A@H@BABC@@@@E@ACE@@P","encodedPoints":"utwxHycBRy@CSHg@`@UNm@jB{C|C{Cl@OVCr@Bx@?nFc@hBLnE?@dANnBLZGHCL@|CDd@t@dFpBsAlBwArE}BlBPTEhAg@XUPd@nAbFEt@l@vBNI`@@LDzHlANENIvBaDVSbFmA|FmBxF}FhAbAxAn@t@?dGY`EDjAIfGCpGa@d@D`ANvFtAvDDVAfAYd@QfIiCPE~@BPAlAg@d@C^H`EvBjBOR@VDd@TI^CZk@hMGhG@dJAf@Iz@O~DLFNAtAoBfAcAn@M`@?`@LPLPVjAdBWvGOjJZvBz@lDnCdHj@hA|@bD?|@L~ClHlKVVpHbFNTDTFx@fAfBfB`DzDnHpC~GyEjEeGfFSLMRM\\AP?`@TnDMt@[fAQZUVcAt@{@v@i@x@Mn@?f@Gd@Mf@OToDhCcMdIc@Be@hHaAnI_CxL{@lHWfFw@lJRxBLn@\\jDFdOVnKd@`OT~JEdIJ~GH|@VbBbCxNf@pFtB|XBXbA|Eb@`F|@pIfAfNVrE^bKm@VaBpAwBpCgBbDcAlCqA~CDf@D~@^jF`ApGhDzSR`ChBhLDlCFzHO`I_@~BSr@yAlH[xHGbDClHRxFBHAbHFtCa@pJCfENxDLpLQlCF`D`A@TJAtCQfEr@tHbA~MNp@HJRJb@b@JRDXvAvQBb@nABpGZ~Bs@dHuAlIiCpBK|@FvABtCAdFg@b@UTQRKVAZIvCrRThBhB~SFbCG@I`Kk@tJ[tEWrCi@`EgAhDi@dAiCrHq@|Be@`CEd@At@@xAFLLdBTO^EJHpDFrAQrFy@fIuA@Ij@C|I_Bb@Qh@k@zBeA`GaACg@Qu@S_D","Color":"663366","hasRunTwo":1,"startPoint":{"Latitude":51.408273,"Longitude":0.016135},"endPoint":{"Latitude":51.356200,"Longitude":-0.114692}}]}


