{"Stops" : [{"StopId":12872,"StopCode":"BP5085","PointLetter":"B","StopName":"Hounslow Bus Station","Latitude":51.470967,"Longitude":-0.354791,"Action":0},{"StopId":5893,"StopCode":"BP2173","PointLetter":"L","StopName":"Fairfields Road","Latitude":51.468973,"Longitude":-0.358808,"Action":0},{"StopId":5930,"StopCode":"BP1364","PointLetter":"T","StopName":"Treaty Centre","Latitude":51.467036,"Longitude":-0.363671,"Action":0},{"StopId":5780,"StopCode":"BP5009","PointLetter":"R","StopName":"Bell Corner","Latitude":51.468539,"Longitude":-0.366353,"Action":0},{"StopId":5805,"StopCode":"16286","PointLetter":"RR","StopName":"Hounslow Central Station","Latitude":51.471788,"Longitude":-0.367216,"Action":0},{"StopId":5863,"StopCode":"16280","PointLetter":"","StopName":"Lampton Road / Hounslow Civic Centre","Latitude":51.473741,"Longitude":-0.366052,"Action":0},{"StopId":5939,"StopCode":"R0494","PointLetter":"HA","StopName":"Great West Road","Latitude":51.478433,"Longitude":-0.363983,"Action":0},{"StopId":5703,"StopCode":"26854","PointLetter":"HB","StopName":"Sutton Road","Latitude":51.480238,"Longitude":-0.365042,"Action":0},{"StopId":5943,"StopCode":"16212","PointLetter":"HC","StopName":"Hogarth Gardens","Latitude":51.482588,"Longitude":-0.367824,"Action":0},{"StopId":5865,"StopCode":"16277","PointLetter":"HD","StopName":"St Leonard's Church","Latitude":51.484251,"Longitude":-0.372345,"Action":0},{"StopId":5804,"StopCode":"16275","PointLetter":"HE","StopName":"Fern Lane","Latitude":51.489674,"Longitude":-0.371720,"Action":0},{"StopId":5866,"StopCode":"16273","PointLetter":"","StopName":"Norwood Green","Latitude":51.493152,"Longitude":-0.370285,"Action":0},{"StopId":5868,"StopCode":"16271","PointLetter":"","StopName":"Harewood Terrace","Latitude":51.496260,"Longitude":-0.374554,"Action":0},{"StopId":5963,"StopCode":"16269","PointLetter":"A","StopName":"Norwood Gardens","Latitude":51.498576,"Longitude":-0.378865,"Action":0},{"StopId":5846,"StopCode":"8412","PointLetter":"C","StopName":"Adelaide Road","Latitude":51.499280,"Longitude":-0.382284,"Action":0},{"StopId":5299,"StopCode":"8749","PointLetter":"E","StopName":"King Street","Latitude":51.501613,"Longitude":-0.382533,"Action":0},{"StopId":5371,"StopCode":"19033","PointLetter":"L","StopName":"The Green","Latitude":51.502967,"Longitude":-0.380957,"Action":0},{"StopId":5318,"StopCode":"15963","PointLetter":"N","StopName":"Southall Station","Latitude":51.506030,"Longitude":-0.378788,"Action":0},{"StopId":5483,"StopCode":"15961","PointLetter":"P","StopName":"Park Avenue","Latitude":51.507579,"Longitude":-0.378286,"Action":0},{"StopId":5879,"StopCode":"7700","PointLetter":"O","StopName":"Southall Broadway","Latitude":51.510390,"Longitude":-0.376111,"Action":0},{"StopId":4644,"StopCode":"CW58","PointLetter":"E","StopName":"Southall Town Hall","Latitude":51.512173,"Longitude":-0.375616,"Action":0},{"StopId":4684,"StopCode":"15310","PointLetter":"C","StopName":"North Avenue","Latitude":51.514430,"Longitude":-0.375607,"Action":0},{"StopId":5681,"StopCode":"25206","PointLetter":"SC","StopName":"Carlyle Avenue","Latitude":51.516777,"Longitude":-0.375596,"Action":0},{"StopId":5683,"StopCode":"25204","PointLetter":"A","StopName":"Denbigh Road","Latitude":51.519649,"Longitude":-0.375177,"Action":0},{"StopId":5685,"StopCode":"25202","PointLetter":"B","StopName":"Ascot Gardens","Latitude":51.522386,"Longitude":-0.374776,"Action":0},{"StopId":5687,"StopCode":"25200","PointLetter":"C","StopName":"Windermere Road","Latitude":51.525056,"Longitude":-0.374133,"Action":0},{"StopId":5688,"StopCode":"25199","PointLetter":"WG","StopName":"Lawson Road","Latitude":51.528290,"Longitude":-0.373211,"Action":0},{"StopId":5840,"StopCode":"25196","PointLetter":"WH","StopName":"Kenilworth Gardens","Latitude":51.530304,"Longitude":-0.372548,"Action":0},{"StopId":5364,"StopCode":"15788","PointLetter":"WS","StopName":"Adrienne Avenue","Latitude":51.532654,"Longitude":-0.372752,"Action":0},{"StopId":5503,"StopCode":"20495","PointLetter":"WT","StopName":"Broadmead Road","Latitude":51.532681,"Longitude":-0.379874,"Action":0},{"StopId":5341,"StopCode":"14890","PointLetter":"","StopName":"Wayfarer Road","Latitude":51.533509,"Longitude":-0.386478,"Action":0},{"StopId":5374,"StopCode":"33016","PointLetter":"V","StopName":"Yeading / White Hart","Latitude":51.537304,"Longitude":-0.389155,"Action":0},{"StopId":5311,"StopCode":"16149","PointLetter":"TD","StopName":"Bengarth Road / Northolt Library","Latitude":51.539203,"Longitude":-0.385973,"Action":0},{"StopId":5330,"StopCode":"37429","PointLetter":"TE","StopName":"Sycamore Close","Latitude":51.540892,"Longitude":-0.381991,"Action":0},{"StopId":5405,"StopCode":"16147","PointLetter":"TF","StopName":"Target Roundabout","Latitude":51.542523,"Longitude":-0.378919,"Action":0},{"StopId":5342,"StopCode":"37195","PointLetter":"TH","StopName":"Kingston Close","Latitude":51.543948,"Longitude":-0.375364,"Action":0},{"StopId":5327,"StopCode":"16145","PointLetter":"TJ","StopName":"Alderney Gardens","Latitude":51.544930,"Longitude":-0.372863,"Action":0},{"StopId":5524,"StopCode":"37262","PointLetter":"C","StopName":"Moat Farm Road","Latitude":51.546461,"Longitude":-0.370472,"Action":0},{"StopId":5408,"StopCode":"14908","PointLetter":"A","StopName":"Northolt Station","Latitude":51.548199,"Longitude":-0.368059,"Action":0}], "Routes" : [{"Id":5152,"Route":"120","From":"Hounslow Bus Station","Towards":"Northolt Station","Run":"1","IsDay":1,"encodedLevels":"PA@C?A?CC?AA@AD@?IC?DBC@G?@A@D@AB??H@DA@@@@BAAD@BEB@DABGC?AD?EA@E@@@D?AB@H?A?DAAC@CAB?FB@@BI@BAD?B@EBACAAC?AB@G?D@?EA?B?AA?I@A?C@CA??CB?F?AD?ABC@B?@A?C?AJ@AC@B?@BBD@??CAA@@DA?B@?E?@@B@DAEAP","encodedPoints":"{|cyH|fdAJlANHBJHDTD\\ILGjAvGzAlEXn@bErN~BzFJNxBdH@r@D^n@dJ}FlE{Cx@qCp@{Dv@mEZe@@mDUMEQK]Yy@gAaFoFwCuAeFsCu@o@yCiAmBo@[Oi@xAcB`DU@YPCLKFGCg@ZmB\\uABe@PY`@qB`EiJxLoA~GGtAc@pE_B~C}BjDk@P_CNk@M{@UcD}Ak@s@kEoEs@?iDx@iHlAOQq@wAqCsEk@u@US[OWCU?q@TOHoFjFqCxCsDfE}@`Ci@pCq@jBOReEnIi@V[COXcBfEOzDYrB[pAiAtIa@jJs@Au@MyEcBcF_Cq@uBMSm@{@cDoDyD_BmBsAUk@SDwIkCuCiAsBsAoBiAsBkBcGoDaBy@MCi`@CsF]oYaCcDS_G{@}@S{IaBeKuBcK{B{LwCM?IDOHQ^IRE`@AzCa@tO?bIBhBVtJ@v@GlJ[pGM|AW|By@xGwAtHk@zAi@dAqBjDoChDUf@O`ADFHb@@d@?LIf@GRQVe@NOA]UO_@Kq@Do@MUMe@Sa@sJ_P}AoDi@{Ac@_Bm@qC]kA_I{SuD}Ha@gAQs@g@kAIIg@NI?WMSWIQGWAO@yAUeCc@eBmBwKw@iCcEsJiSuZIY","Color":"993333","hasRunTwo":1,"startPoint":{"Latitude":51.471027,"Longitude":-0.354549},"endPoint":{"Latitude":51.548692,"Longitude":-0.367282}}]}


