{"Stops" : [{"StopId":13324,"StopCode":"36510","PointLetter":"WM","StopName":"Plumstead Road / Plumstead Station","Latitude":51.490346,"Longitude":0.083574,"Action":0},{"StopId":11605,"StopCode":"34579","PointLetter":"WP","StopName":"Greenwich Community College","Latitude":51.490883,"Longitude":0.080141,"Action":0},{"StopId":11812,"StopCode":"8931","PointLetter":"","StopName":"Maxey Road","Latitude":51.490869,"Longitude":0.076899,"Action":0},{"StopId":11371,"StopCode":"BP4396","PointLetter":"Z","StopName":"Plumstead Road / Woolwich Public Market","Latitude":51.491193,"Longitude":0.070748,"Action":0},{"StopId":12420,"StopCode":"35483","PointLetter":"J","StopName":"Woolwich Arsenal Station","Latitude":51.489648,"Longitude":0.068143,"Action":0},{"StopId":12298,"StopCode":"26642","PointLetter":"E","StopName":"Claydown Mews","Latitude":51.486135,"Longitude":0.064901,"Action":0},{"StopId":12414,"StopCode":"44027","PointLetter":"F","StopName":"Gunner Lane","Latitude":51.484257,"Longitude":0.062728,"Action":0},{"StopId":13751,"StopCode":"26646","PointLetter":"G","StopName":"Nightingale Place","Latitude":51.481662,"Longitude":0.061516,"Action":0},{"StopId":15157,"StopCode":"26650","PointLetter":"H","StopName":"Woolwich Common","Latitude":51.477975,"Longitude":0.058412,"Action":0},{"StopId":15155,"StopCode":"26652","PointLetter":"J","StopName":"Royal Garrison Church","Latitude":51.474691,"Longitude":0.056450,"Action":0},{"StopId":15154,"StopCode":"26653","PointLetter":"WR","StopName":"Well Hall Road / Shooters Hill Road","Latitude":51.470563,"Longitude":0.054954,"Action":0},{"StopId":15233,"StopCode":"26656","PointLetter":"WS","StopName":"Well Hall Road / Broad Walk","Latitude":51.468586,"Longitude":0.053843,"Action":0},{"StopId":15234,"StopCode":"26658","PointLetter":"L","StopName":"Well Hall Road / Dunblane Road","Latitude":51.466906,"Longitude":0.052716,"Action":0},{"StopId":15150,"StopCode":"26660","PointLetter":"M","StopName":"Arbroath Road","Latitude":51.463647,"Longitude":0.050900,"Action":0},{"StopId":15148,"StopCode":"26662","PointLetter":"N","StopName":"Well Hall Road / Well Hall Roundabout","Latitude":51.461355,"Longitude":0.049804,"Action":0},{"StopId":10710,"StopCode":"26670","PointLetter":"P","StopName":"Elmbrook Gardens","Latitude":51.459598,"Longitude":0.047897,"Action":0},{"StopId":10709,"StopCode":"26672","PointLetter":"R","StopName":"Westhorne Avenue / Briset Road","Latitude":51.457939,"Longitude":0.044022,"Action":0},{"StopId":10707,"StopCode":"26676","PointLetter":"WA","StopName":"Haimo Road","Latitude":51.455323,"Longitude":0.039875,"Action":0},{"StopId":10705,"StopCode":"26678","PointLetter":"WB","StopName":"Green Way","Latitude":51.453657,"Longitude":0.037411,"Action":0},{"StopId":10888,"StopCode":"20134","PointLetter":"WP","StopName":"Eltham Road / Westhorne Avenue","Latitude":51.452857,"Longitude":0.034296,"Action":0},{"StopId":10725,"StopCode":"19655","PointLetter":"WR","StopName":"Cedarhurst Drive","Latitude":51.452876,"Longitude":0.029575,"Action":0},{"StopId":10862,"StopCode":"19653","PointLetter":"WS","StopName":"Eltham Road / Kidbrooke Park Road","Latitude":51.453524,"Longitude":0.025372,"Action":0},{"StopId":10861,"StopCode":"19652","PointLetter":"WT","StopName":"Courtlands Avenue","Latitude":51.454116,"Longitude":0.021786,"Action":0},{"StopId":10726,"StopCode":"19650","PointLetter":"WU","StopName":"Weigall Road","Latitude":51.454548,"Longitude":0.019703,"Action":0},{"StopId":10759,"StopCode":"BP4667","PointLetter":"X","StopName":"Cambridge Drive","Latitude":51.455068,"Longitude":0.017164,"Action":0},{"StopId":10781,"StopCode":"18188","PointLetter":"J","StopName":"Lee Green","Latitude":51.456174,"Longitude":0.012448,"Action":0},{"StopId":10779,"StopCode":"19646","PointLetter":"N","StopName":"Lampmead Road","Latitude":51.457226,"Longitude":0.008781,"Action":0},{"StopId":10778,"StopCode":"19644","PointLetter":"T","StopName":"Dacre Park","Latitude":51.458631,"Longitude":0.005546,"Action":0},{"StopId":10859,"StopCode":"19640","PointLetter":"U","StopName":"Brandram Road","Latitude":51.458515,"Longitude":0.001251,"Action":0},{"StopId":10941,"StopCode":"3383","PointLetter":"V","StopName":"Belmont Park","Latitude":51.459243,"Longitude":-0.003468,"Action":0},{"StopId":10730,"StopCode":"19638","PointLetter":"W","StopName":"Marischal Road","Latitude":51.460806,"Longitude":-0.005444,"Action":0},{"StopId":10904,"StopCode":"29292","PointLetter":"M","StopName":"Belmont Hill","Latitude":51.462036,"Longitude":-0.007981,"Action":0},{"StopId":10800,"StopCode":"BP1115","PointLetter":"X","StopName":"Lewisham Centre","Latitude":51.460644,"Longitude":-0.010791,"Action":0},{"StopId":10795,"StopCode":"26286","PointLetter":"Y","StopName":"Morley Road","Latitude":51.458863,"Longitude":-0.012294,"Action":0},{"StopId":10711,"StopCode":"27767","PointLetter":"HD","StopName":"Wearside Road","Latitude":51.456626,"Longitude":-0.016724,"Action":0},{"StopId":15315,"StopCode":"13892","PointLetter":"HC","StopName":"Ladywell Station","Latitude":51.456458,"Longitude":-0.021121,"Action":0},{"StopId":15321,"StopCode":"13886","PointLetter":"H","StopName":"Prendergast School","Latitude":51.458035,"Longitude":-0.026653,"Action":0},{"StopId":15316,"StopCode":"13884","PointLetter":"J","StopName":"Adelaide Avenue / St Margaret's Road","Latitude":51.459037,"Longitude":-0.031159,"Action":0},{"StopId":10270,"StopCode":"26076","PointLetter":"K","StopName":"Braxfield Road","Latitude":51.458669,"Longitude":-0.033881,"Action":0},{"StopId":10316,"StopCode":"26074","PointLetter":"L","StopName":"Dalrymple Road","Latitude":51.456944,"Longitude":-0.035581,"Action":0},{"StopId":10213,"StopCode":"13875","PointLetter":"M","StopName":"Crofton Park Station","Latitude":51.454634,"Longitude":-0.037249,"Action":0},{"StopId":10374,"StopCode":"13873","PointLetter":"N","StopName":"Brockley Jack","Latitude":51.453408,"Longitude":-0.038151,"Action":0},{"StopId":10218,"StopCode":"26072","PointLetter":"HP","StopName":"Maclean Road","Latitude":51.451034,"Longitude":-0.039779,"Action":0},{"StopId":10373,"StopCode":"13869","PointLetter":"HH","StopName":"Brockley Rise / Chandos","Latitude":51.448235,"Longitude":-0.041280,"Action":0},{"StopId":10230,"StopCode":"26415","PointLetter":"HK","StopName":"Duncombe Hill","Latitude":51.447192,"Longitude":-0.041814,"Action":0},{"StopId":10367,"StopCode":"13865","PointLetter":"B","StopName":"Brockley Park","Latitude":51.445028,"Longitude":-0.042568,"Action":0},{"StopId":10368,"StopCode":"13863","PointLetter":"C","StopName":"Brockley Rise / Cranston Road","Latitude":51.442848,"Longitude":-0.042345,"Action":0},{"StopId":15326,"StopCode":"26030","PointLetter":"N","StopName":"Forest Hill Fire Station","Latitude":51.442228,"Longitude":-0.045062,"Action":0},{"StopId":15318,"StopCode":"13856","PointLetter":"J","StopName":"Waldram Park Road","Latitude":51.440984,"Longitude":-0.048109,"Action":0},{"StopId":15222,"StopCode":"35750","PointLetter":"K","StopName":"Forest Hill Station  / Waldram Crescent","Latitude":51.440069,"Longitude":-0.052018,"Action":0},{"StopId":15276,"StopCode":"29309","PointLetter":"F","StopName":"Forest Hill Station  / Devonshire Road","Latitude":51.439593,"Longitude":-0.053679,"Action":0},{"StopId":7069,"StopCode":"17308","PointLetter":"M","StopName":"Dartmouth Road / Thorpewood Avenue","Latitude":51.435685,"Longitude":-0.055528,"Action":0},{"StopId":6890,"StopCode":"17310","PointLetter":"","StopName":"Sydenham Police Station","Latitude":51.432966,"Longitude":-0.059169,"Action":0},{"StopId":6843,"StopCode":"17312","PointLetter":"","StopName":"Sydenham / The Woodman","Latitude":51.431561,"Longitude":-0.060120,"Action":0},{"StopId":6986,"StopCode":"17315","PointLetter":"Z","StopName":"Peak Hill","Latitude":51.429527,"Longitude":-0.058379,"Action":0},{"StopId":6886,"StopCode":"17317","PointLetter":"F","StopName":"Sydenham Station  / Kirkdale","Latitude":51.427496,"Longitude":-0.056279,"Action":0},{"StopId":8315,"StopCode":"R0083","PointLetter":"C","StopName":"Sydenham Station / Westwood Hill","Latitude":51.427325,"Longitude":-0.057394,"Action":0},{"StopId":8350,"StopCode":"17831","PointLetter":"UJ","StopName":"Sydenham High School","Latitude":51.427238,"Longitude":-0.063525,"Action":0},{"StopId":8555,"StopCode":"17832","PointLetter":"UK","StopName":"Charleville Circus","Latitude":51.426600,"Longitude":-0.065739,"Action":0},{"StopId":8556,"StopCode":"17834","PointLetter":"UL","StopName":"Crystal Palace Park Road","Latitude":51.426307,"Longitude":-0.069218,"Action":0},{"StopId":10916,"StopCode":"19020","PointLetter":"T","StopName":"Crystal Palace Parade / Fountain Drive","Latitude":51.425252,"Longitude":-0.075103,"Action":0},{"StopId":8582,"StopCode":"13379","PointLetter":"S","StopName":"Crystal Palace Parade / College Road","Latitude":51.423171,"Longitude":-0.076499,"Action":0},{"StopId":8324,"StopCode":"BP2419","PointLetter":"A","StopName":"Crystal Palace Parade","Latitude":51.420822,"Longitude":-0.078036,"Action":0}], "Routes" : [{"Id":7354,"Route":"122","From":"Plumstead Road / Plumstead Station","Towards":"Crystal Palace Parade","Run":"1","IsDay":1,"encodedLevels":"P@B@DAC@?AD?@F?B?@C?HBD?BD?D?BAB?D?B@B@FABAD?@A?DAB@DAD@CHC?D?ABC?E@AA@ACCBAJ?C@AACABD@?AFCA@@DEA@AC?@E?A@?B@F@C?B@D@B?HC@@B?BAC??@A@CA@HCB@AAEA?C@AD?B?E@A?I@BC@AC?@D?A?C?D?F?B?H@E@EE@C@G?@B@A?C?AF@B@ACB@?H@A@@AAH??BA?F@B?BAE@B@BG@B@D??@P","encodedPoints":"ysgyHapOUh@[lAoB|PIrAUfG@pINbG`@rHD~@CbDE~@WfC{A|MRbADLLLTHpA~@xApCdEjHfAx@tFzHb@HbFzAr@h@p@z@fFnHfAx@XNlDjAz@JzDbBtBdAlAx@bKpHvApAtDdEtB|AbAj@rDbBrD`AtFvC~ChAjARxC^`BLrGdAXHjAf@nHlFdHbEbEtBhOdGlKpD`@q@NGrAZm@tBXjABPTHVPz@fAfAhCbD~JxDhL`@p@bArAfB|CPp@pEdIdKzPnAfB`@W\\b@Hd@VfBFn@CROPWLKf@InKNhO[vGkB`U]`DeAzLmBvPiFhc@wAnGw@bCEf@Ud@EhJ{@`BcCpCQJyBzCUp@a@pBKv@GxA?l@DxSD|A@hOUtHI|@Kj@w@vB}AvB}EnGuAfCmAdCy@xBi@nBQbA{@bGdDbBRRZp@|AjB@?bD~BtAtAJ^NFB?hBlAlB|ArE|B^ZlApAh@p@P`@y@dIb@rJ@hAK`FT|H?pHi@JQHWXGTQvFU`BK^eElLc@tAeCfJGl@CdBNxNLhH~@FXHpBnAzAfBfA`BzAnAzAfAtGnErRfM|G`D`Bx@tHxCXNl@MNKh@b@hFzEpABpJBbAG|HQMnK?tP|AAfBFfGrVBRgApIHlBH`@FFLHVF\\?hAIl@JdAZt@\\dJbDrErBjAhCt@fA`AnAvFlI|@t@xBxDh@nAZjAHd@b@YpDqDdF_Ez@k@dCwB~CoDbGeF?FUfAyCnN}@nGGz@?x@NbCJj@XpA~AhFxA|Gz@|Fl@nNb@hNIfF@rAVlHT`@d@jBZd@xApAxDvBD?`TrLbAp@","Color":"993333","hasRunTwo":1,"startPoint":{"Latitude":51.490057,"Longitude":0.084659},"endPoint":{"Latitude":51.420613,"Longitude":-0.078342}}]}


