{"Stops" : [{"StopId":16612,"StopCode":"BP2275","PointLetter":"C","StopName":"North Greenwich Station","Latitude":51.499654,"Longitude":0.004076,"Action":0},{"StopId":12440,"StopCode":"BP2463","PointLetter":"MC","StopName":"Millennium Village / Oval Square","Latitude":51.494030,"Longitude":0.013741,"Action":0},{"StopId":12441,"StopCode":"BP2461","PointLetter":"MD","StopName":"Millennium Village South","Latitude":51.491801,"Longitude":0.013657,"Action":0},{"StopId":12408,"StopCode":"BP2782","PointLetter":"ME","StopName":"Odeon Cinema","Latitude":51.490068,"Longitude":0.013033,"Action":0},{"StopId":12396,"StopCode":"BP2401","PointLetter":"MF","StopName":"Sainsbury's At Greenwich Peninsula","Latitude":51.489253,"Longitude":0.015950,"Action":0},{"StopId":13339,"StopCode":"34401","PointLetter":"D","StopName":"East Greenwich Library","Latitude":51.486270,"Longitude":0.016337,"Action":0},{"StopId":13355,"StopCode":"18821","PointLetter":"Q","StopName":"Marlton Street","Latitude":51.486084,"Longitude":0.012987,"Action":0},{"StopId":13335,"StopCode":"19620","PointLetter":"","StopName":"Calvert Road","Latitude":51.486174,"Longitude":0.010874,"Action":0},{"StopId":13319,"StopCode":"20627","PointLetter":"A","StopName":"Vanbrugh Hill","Latitude":51.486210,"Longitude":0.008801,"Action":0},{"StopId":14797,"StopCode":"13829","PointLetter":"L","StopName":"Tyler Street","Latitude":51.485284,"Longitude":0.005621,"Action":0},{"StopId":13890,"StopCode":"13827","PointLetter":"G","StopName":"Trafalgar Road / Maze Hill","Latitude":51.483633,"Longitude":0.000133,"Action":0},{"StopId":14651,"StopCode":"13825","PointLetter":"T","StopName":"Trafalgar Estate","Latitude":51.482927,"Longitude":-0.002721,"Action":0},{"StopId":14275,"StopCode":"26707","PointLetter":"G","StopName":"National Maritime Museum","Latitude":51.481557,"Longitude":-0.006785,"Action":0},{"StopId":13739,"StopCode":"29439","PointLetter":"C","StopName":"Greenwich Town Centre / Cutty Sark","Latitude":51.481901,"Longitude":-0.008498,"Action":0}], "Routes" : [{"Id":6259,"Route":"129","From":"North Greenwich Station","Towards":"Greenwich Town Centre / Cutty Sark","Run":"1","IsDay":1,"encodedLevels":"P@AC?@DADE@AAEA@CBG?C@D@CC?G?AAC@F?AD?AI?A?C@@@C@BFA@BB?@B@@B?E?AB@FCDP","encodedPoints":"iriyHkQ`@i@Xq@RmA@u@A{@OcBRc@hCsCmAcDTUpD_Cz@[hGoDhBoEhCoIhB}EhB}D|EqGh@e@b@W^@XN`@j@`FxIzC~DJATIJKPa@|@mGvCqOH{@?cFrC\\v@FxDDRa@RU|BgB@^ALITOz@JbA@pBNxAn@hMSdFUbOFbJTzAfBjGZzApApJdA`FnBhIl@vB`BnILfAvBbMdFjTzCxMAXI\\s@bA}@n@M@k@AqAwFbBqA","Color":"993333","hasRunTwo":1,"startPoint":{"Latitude":51.500051,"Longitude":0.002945},"endPoint":{"Latitude":51.481666,"Longitude":-0.008446}}]}


