{"Stops" : [{"StopId":4099,"StopCode":"28900","PointLetter":"E","StopName":"North Finchley Bus Station","Latitude":51.613262,"Longitude":-0.175834,"Action":0},{"StopId":4163,"StopCode":"9934","PointLetter":"J","StopName":"North Finchley High Road","Latitude":51.612429,"Longitude":-0.174828,"Action":0},{"StopId":4162,"StopCode":"9936","PointLetter":"F","StopName":"Grove Road","Latitude":51.611361,"Longitude":-0.170350,"Action":0},{"StopId":4115,"StopCode":"9938","PointLetter":"FU","StopName":"Woodhouse College","Latitude":51.611418,"Longitude":-0.167127,"Action":0},{"StopId":4118,"StopCode":"9940","PointLetter":"FV","StopName":"Lewes Road","Latitude":51.611605,"Longitude":-0.164101,"Action":0},{"StopId":1692,"StopCode":"9944","PointLetter":"FW","StopName":"Colney Hatch Lane","Latitude":51.612436,"Longitude":-0.159763,"Action":0},{"StopId":9272,"StopCode":"19610","PointLetter":"FD","StopName":"Friern Barnet Road","Latitude":51.612102,"Longitude":-0.157422,"Action":0},{"StopId":9462,"StopCode":"20146","PointLetter":"FE","StopName":"Hillside Avenue","Latitude":51.611238,"Longitude":-0.155016,"Action":0},{"StopId":9403,"StopCode":"19541","PointLetter":"CK","StopName":"North Circular Road","Latitude":51.607428,"Longitude":-0.152369,"Action":0},{"StopId":9438,"StopCode":"7520","PointLetter":"CL","StopName":"Cromwell Road","Latitude":51.605427,"Longitude":-0.149215,"Action":0},{"StopId":9274,"StopCode":"19607","PointLetter":"CM","StopName":"Pembroke Road / St Peters Church","Latitude":51.602051,"Longitude":-0.147851,"Action":0},{"StopId":9449,"StopCode":"1307","PointLetter":"CN","StopName":"Wilton Road","Latitude":51.599977,"Longitude":-0.147459,"Action":0},{"StopId":9450,"StopCode":"BP083","PointLetter":"CQ","StopName":"Alexandra Park Road","Latitude":51.596146,"Longitude":-0.145203,"Action":0},{"StopId":1380,"StopCode":"1145","PointLetter":"B","StopName":"Muswell Hill","Latitude":51.591638,"Longitude":-0.142716,"Action":0},{"StopId":9406,"StopCode":"1148","PointLetter":"E","StopName":"Queens Avenue","Latitude":51.590705,"Longitude":-0.142870,"Action":0},{"StopId":9329,"StopCode":"19605","PointLetter":"N","StopName":"Fortis Green Road","Latitude":51.588909,"Longitude":-0.145902,"Action":0},{"StopId":9444,"StopCode":"9443","PointLetter":"","StopName":"Woodside Avenue","Latitude":51.587324,"Longitude":-0.146876,"Action":0},{"StopId":9563,"StopCode":"BP2597","PointLetter":"","StopName":"Cranley Gardens","Latitude":51.585816,"Longitude":-0.147024,"Action":0},{"StopId":9276,"StopCode":"19604","PointLetter":"B","StopName":"Onslow Gardens","Latitude":51.583624,"Longitude":-0.146608,"Action":0},{"StopId":9570,"StopCode":"BP3116","PointLetter":"W","StopName":"Highgate Wood","Latitude":51.581324,"Longitude":-0.146702,"Action":0},{"StopId":9300,"StopCode":"1143","PointLetter":"V","StopName":"Wood Lane / Highgate Station","Latitude":51.578592,"Longitude":-0.147390,"Action":0},{"StopId":9330,"StopCode":"9431","PointLetter":"T","StopName":"Highgate Station","Latitude":51.577239,"Longitude":-0.146002,"Action":0},{"StopId":9321,"StopCode":"10860","PointLetter":"U","StopName":"Southwood Avenue","Latitude":51.575581,"Longitude":-0.142952,"Action":0},{"StopId":9284,"StopCode":"1909","PointLetter":"","StopName":"Northwood Road","Latitude":51.573427,"Longitude":-0.140918,"Action":0},{"StopId":9376,"StopCode":"9863","PointLetter":"HW","StopName":"Langdon Park Road","Latitude":51.571619,"Longitude":-0.139217,"Action":0},{"StopId":9377,"StopCode":"9861","PointLetter":"Q","StopName":"Waterlow Road","Latitude":51.568769,"Longitude":-0.136433,"Action":0},{"StopId":9476,"StopCode":"67","PointLetter":"K","StopName":"Whittington Hospital","Latitude":51.567285,"Longitude":-0.135253,"Action":0},{"StopId":9397,"StopCode":"33985","PointLetter":"W","StopName":"Archway Station","Latitude":51.564831,"Longitude":-0.134776,"Action":0},{"StopId":9303,"StopCode":"11419","PointLetter":"TL","StopName":"Pemberton Gardens","Latitude":51.562041,"Longitude":-0.136333,"Action":0},{"StopId":9441,"StopCode":"11417","PointLetter":"TM","StopName":"Monnery Road","Latitude":51.559756,"Longitude":-0.137408,"Action":0},{"StopId":9394,"StopCode":"4717","PointLetter":"TN","StopName":"Tufnell Park Station","Latitude":51.557778,"Longitude":-0.137950,"Action":0},{"StopId":9440,"StopCode":"11413","PointLetter":"TQ","StopName":"Lady Somerset Road","Latitude":51.554742,"Longitude":-0.139877,"Action":0},{"StopId":9405,"StopCode":"11409","PointLetter":"KA","StopName":"Fortess Walk","Latitude":51.552519,"Longitude":-0.140949,"Action":0},{"StopId":6644,"StopCode":"1078","PointLetter":"KB","StopName":"Kentish Town Station","Latitude":51.550213,"Longitude":-0.140682,"Action":0},{"StopId":6643,"StopCode":"11392","PointLetter":"KC","StopName":"Kentish Town Post Office","Latitude":51.548215,"Longitude":-0.141124,"Action":0},{"StopId":9477,"StopCode":"669","PointLetter":"KD","StopName":"Kentish Town Road / Prince Of Wales Road","Latitude":51.545930,"Longitude":-0.141636,"Action":0},{"StopId":9283,"StopCode":"2675","PointLetter":"KL","StopName":"Royal College Street","Latitude":51.544236,"Longitude":-0.141416,"Action":0},{"StopId":9439,"StopCode":"33096","PointLetter":"D","StopName":"Camden Gardens","Latitude":51.541963,"Longitude":-0.141019,"Action":0},{"StopId":935,"StopCode":"324","PointLetter":"S","StopName":"Camden Town Station","Latitude":51.539801,"Longitude":-0.141323,"Action":0},{"StopId":1210,"StopCode":"33260","PointLetter":"V","StopName":"Pratt Street","Latitude":51.537164,"Longitude":-0.139498,"Action":0},{"StopId":1209,"StopCode":"33291","PointLetter":"C","StopName":"Mornington Crescent Station","Latitude":51.533445,"Longitude":-0.138598,"Action":0},{"StopId":1157,"StopCode":"1277","PointLetter":"W","StopName":"Silverdale","Latitude":51.530747,"Longitude":-0.138578,"Action":0},{"StopId":1229,"StopCode":"1275","PointLetter":"","StopName":"Robert Street","Latitude":51.528795,"Longitude":-0.138542,"Action":0},{"StopId":1206,"StopCode":"33549","PointLetter":"R","StopName":"Warren Street Station / Euston Road","Latitude":51.525708,"Longitude":-0.138409,"Action":0},{"StopId":254,"StopCode":"29674","PointLetter":"N","StopName":"University College Hospital","Latitude":51.524105,"Longitude":-0.134308,"Action":0},{"StopId":150,"StopCode":"BP2167","PointLetter":"C","StopName":"Torrington Place","Latitude":51.522916,"Longitude":-0.133016,"Action":0},{"StopId":76,"StopCode":"29676","PointLetter":"D","StopName":"Chenies Street","Latitude":51.521213,"Longitude":-0.131168,"Action":0},{"StopId":181,"StopCode":"29735","PointLetter":"R","StopName":"Great Russell Street","Latitude":51.518395,"Longitude":-0.128098,"Action":0},{"StopId":18067,"StopCode":"BP1722","PointLetter":"H","StopName":"New Oxford Street","Latitude":51.516644,"Longitude":-0.126570,"Action":0},{"StopId":18027,"StopCode":"BP5283","PointLetter":"S","StopName":"Tottenham Court Road Station","Latitude":51.515550,"Longitude":-0.128460,"Action":0}], "Routes" : [{"Id":8735,"Route":"134","From":"North Finchley Bus Station","Towards":"Tottenham Court Road Station","Run":"1","IsDay":1,"encodedLevels":"PAE@B@F?BADB??FABC@?@H@AACAA?A??B?EB@@AF?BD?AD?B?BD@B@EB@B@ADB@?A@J@B?@C@D?GABAD??E?BBB?DA?H?BE@?@?@C@?AD@HA@C??DBD@BG@@@C@D@B?D@BAC???FAFAB@H???AG?B@@C?F?B@EAB?E?DA@B?G@C@@D@F?CA?G?B?P","encodedPoints":"cx_zHtka@jAYbDaBH}Bn@mGxByMfBoM?_@wAqPg@gPi@mHqAuH[_AcAgC[eA`@I\\m@bDaHTm@XuAjCyKJOPWfAy@p@IBKTEFFPCNIP@RAVFVGhGgBlGaJv@{ALg@fCyFROvF_CpBw@lEcATCtEMpFo@zAm@v@c@`@YtE}DfE}B~@IrE{@BElI}B`CoAz@gAdA{@h@[~CiAxA}@^{@Aa@@c@DSFMLGRHDFBP?j@VpB~BrEpExJ~@dAbD`DxEVnHJv@KhC?tA[l@ShH_BRDpCnApCn@tAClElAfAVhADj@IrBQb@mAtDkLtCyGjCmCFCvP{OhGgGdAkAvGmGlAaA~@k@nDeCfEuDNYlA}DTBv@bAnBvBlLlFlGvCvGtClLbB~ExAt@^bPrKxDxApDXX@VEl@Bd@UbDw@tEd@pFx@rAVtH`Bt@D~@GlBc@PSb@@lGf@TDpDVLYnLiJbAdDhBhEHDNAhA_A`HwGr@k@tFgFrGqFF?HH^`CDv@XzBNDr@F^@HA^c@`EaDLNXjDPJNBTAnJmBz@LfEGjN@\\A|Da@Z[d@QDe@\\aA@UA_@uAyHlHcIt`@sc@xEgEpGgFp@e@Ff@j@dIArCCV","Color":"993333","hasRunTwo":1,"startPoint":{"Latitude":51.613624,"Longitude":-0.176103},"endPoint":{"Latitude":51.515626,"Longitude":-0.128754}},{"Id":8631,"Route":"134","From":"North Finchley Bus Station","Towards":"Tottenham Court Road Station","Run":"1","IsDay":0,"encodedLevels":"PAE@B@F?BADB??FABC@?@H@AACAA?A??B?EB@@AF?BD?AD?B?BD@B@EB@B@ADB@?A@J@B?@C@D?GABAD??E?BBB?DA?H?BE@?@?@C@?AD@HA@C??DBD@BG@@@C@D@B?D@BAC???FAFAB@H???AG?B@@C?F?B@EAB?E?DA@B?G@C@@D@F?CA?G?B?P","encodedPoints":"cx_zHtka@jAYbDaBH}Bn@mGxByMfBoM?_@wAqPg@gPi@mHqAuH[_AcAgC[eA`@I\\m@bDaHTm@XuAjCyKJOPWfAy@p@IBKTEFFPCNIP@RAVFVGhGgBlGaJv@{ALg@fCyFROvF_CpBw@lEcATCtEMpFo@zAm@v@c@`@YtE}DfE}B~@IrE{@BElI}B`CoAz@gAdA{@h@[~CiAxA}@^{@Aa@@c@DSFMLGRHDFBP?j@VpB~BrEpExJ~@dAbD`DxEVnHJv@KhC?tA[l@ShH_BRDpCnApCn@tAClElAfAVhADj@IrBQb@mAtDkLtCyGjCmCFCvP{OhGgGdAkAvGmGlAaA~@k@nDeCfEuDNYlA}DTBv@bAnBvBlLlFlGvCvGtClLbB~ExAt@^bPrKxDxApDXX@VEl@Bd@UbDw@tEd@pFx@rAVtH`Bt@D~@GlBc@PSb@@lGf@TDpDVLYnLiJbAdDhBhEHDNAhA_A`HwGr@k@tFgFrGqFF?HH^`CDv@XzBNDr@F^@HA^c@`EaDLNXjDPJNBTAnJmBz@LfEGjN@\\A|Da@Z[d@QDe@\\aA@UA_@uAyHlHcIt`@sc@xEgEpGgFp@e@Ff@j@dIArCCV","Color":"663366","hasRunTwo":1,"startPoint":{"Latitude":51.613624,"Longitude":-0.176103},"endPoint":{"Latitude":51.515626,"Longitude":-0.128754}}]}


