{"Stops" : [{"StopId":5140,"StopCode":"12044","PointLetter":"T","StopName":"West End Green","Latitude":51.551470,"Longitude":-0.191751,"Action":0},{"StopId":5123,"StopCode":"12046","PointLetter":"V","StopName":"Dennington Park Road","Latitude":51.549837,"Longitude":-0.191426,"Action":0},{"StopId":11199,"StopCode":"BP4987","PointLetter":"W","StopName":"West Hampstead Station","Latitude":51.547133,"Longitude":-0.191014,"Action":0},{"StopId":5053,"StopCode":"114","PointLetter":"B","StopName":"Broadhurst Gardens","Latitude":51.545351,"Longitude":-0.191488,"Action":0},{"StopId":5058,"StopCode":"33332","PointLetter":"D","StopName":"Woodchurch Road","Latitude":51.543444,"Longitude":-0.192660,"Action":0},{"StopId":9335,"StopCode":"2191","PointLetter":"G","StopName":"Priory Road","Latitude":51.541132,"Longitude":-0.190834,"Action":0},{"StopId":9567,"StopCode":"1635","PointLetter":"P","StopName":"Belsize Road","Latitude":51.540205,"Longitude":-0.187871,"Action":0},{"StopId":9501,"StopCode":"3023","PointLetter":"R","StopName":"Boundary Road","Latitude":51.538200,"Longitude":-0.184980,"Action":0},{"StopId":9408,"StopCode":"11957","PointLetter":"S","StopName":"Carlton Hill","Latitude":51.536002,"Longitude":-0.181838,"Action":0},{"StopId":9419,"StopCode":"3184","PointLetter":"T","StopName":"Marlborough Place","Latitude":51.534297,"Longitude":-0.179757,"Action":0},{"StopId":9500,"StopCode":"3182","PointLetter":"S","StopName":"Hall Road","Latitude":51.531264,"Longitude":-0.176706,"Action":0},{"StopId":9562,"StopCode":"1593","PointLetter":"H","StopName":"St John's Wood Rd / Lord's Cricket Grd","Latitude":51.528467,"Longitude":-0.174958,"Action":0},{"StopId":9331,"StopCode":"34383","PointLetter":"LH","StopName":"Frampton Street","Latitude":51.525927,"Longitude":-0.170620,"Action":0},{"StopId":9512,"StopCode":"29321","PointLetter":"LJ","StopName":"Church Street","Latitude":51.525247,"Longitude":-0.169148,"Action":0},{"StopId":9473,"StopCode":"35464","PointLetter":"LK","StopName":"Rossmore Road / Lisson Grove","Latitude":51.524646,"Longitude":-0.166318,"Action":0},{"StopId":9513,"StopCode":"29318","PointLetter":"LL","StopName":"Park Road / London Business School","Latitude":51.525571,"Longitude":-0.162215,"Action":0},{"StopId":9407,"StopCode":"14635","PointLetter":"B","StopName":"Baker Street Station","Latitude":51.522784,"Longitude":-0.157714,"Action":0},{"StopId":9529,"StopCode":"29807","PointLetter":"G","StopName":"York Street","Latitude":51.521064,"Longitude":-0.156934,"Action":0},{"StopId":9323,"StopCode":"1588","PointLetter":"J","StopName":"George Street","Latitude":51.517803,"Longitude":-0.155451,"Action":0},{"StopId":9271,"StopCode":"27706","PointLetter":"BZ","StopName":"Orchard Street / Selfridges","Latitude":51.514379,"Longitude":-0.153889,"Action":0},{"StopId":1562,"StopCode":"829","PointLetter":"OE","StopName":"Old Cavendish Street","Latitude":51.514814,"Longitude":-0.146117,"Action":0},{"StopId":4234,"StopCode":"16575","PointLetter":"RG","StopName":"Oxford Circus Station","Latitude":51.514590,"Longitude":-0.141644,"Action":0},{"StopId":3223,"StopCode":"7849","PointLetter":"V","StopName":"Conduit Street / Hamleys Toy Store","Latitude":51.511903,"Longitude":-0.139447,"Action":0},{"StopId":1618,"StopCode":"149","PointLetter":"G","StopName":"Piccadilly Circus","Latitude":51.510060,"Longitude":-0.135545,"Action":0},{"StopId":2261,"StopCode":"29867","PointLetter":"R","StopName":"Haymarket","Latitude":51.508313,"Longitude":-0.131423,"Action":0},{"StopId":2150,"StopCode":"BP3509","PointLetter":"B","StopName":"Trafalgar Square","Latitude":51.507593,"Longitude":-0.129132,"Action":0},{"StopId":6812,"StopCode":"148","PointLetter":"G","StopName":"Trafalgar Square / Charing Cross Stn","Latitude":51.508643,"Longitude":-0.126207,"Action":0},{"StopId":2233,"StopCode":"7853","PointLetter":"A","StopName":"Southampton Street / Covent Garden","Latitude":51.510366,"Longitude":-0.122043,"Action":0},{"StopId":166,"StopCode":"1835","PointLetter":"N","StopName":"Waterloo Bridge / South Bank","Latitude":51.507076,"Longitude":-0.115377,"Action":0},{"StopId":10056,"StopCode":"2593","PointLetter":"E","StopName":"Waterloo Station / Waterloo Road","Latitude":51.503531,"Longitude":-0.111316,"Action":0}], "Routes" : [{"Id":27,"Route":"139","From":"West End Green","Towards":"Waterloo Station / Waterloo Road","Run":"1","IsDay":0,"encodedLevels":"P?AD@BC?B@E?DA?C?@ADAB@@E?A?BHBCA?D?F@CB?C@A?EAC@?AEF@B?C?G@DFB??H@???@@?I?@?A??G@CDAAF@B?C?@@BA@EAAE?G?@CA??DE?D@@@C?AH?A?@A@CA?C@AD?A?ABP","encodedPoints":"{tsyHxod@JOn@q@bAq@zAU^ArDNr@Y^UdBa@z@IbABlIZpBh@n@VtBhAP\\Vv@V^f@\\z@PrAGb@J`@VlD`ARGHGJSlAyAvAg@t@{@Hw@QyH@SDq@DOlFiNtBeBT]tIeP~BuD`B_CbHmJfFuGv@_AvEkFfAgAzBsAx@WxAUrAM`DcAlKiNh@w@bA{B`H{R|BoGz@sArAiBu@mB_CaIiCoVFaA|EgLh@sANYbCu@rK}DdIoCvAm@pKsDtIoC`DqAjE{A_AgRGaBy@cNQmDaAkOm@qIOkCp@OdEuA`EwCDS~ImH`FcFPk@^eCAe@F{BGc@MeBKWMeCJoB?gAKwAnAaBhFyEhD}DLiDTeEC_@@o@JqBSWEYAMc@yB}CPAaCGaESs@_BwDmDkJ}@uC{BkIw@}C?c@DUDG|AiAjFeE~F_FvLkKtDkDPeADQNMRIr@@RMHITk@Fk@La@b@{@bCaD","Color":"993333","hasRunTwo":1,"startPoint":{"Latitude":51.551663,"Longitude":-0.192127},"endPoint":{"Latitude":51.503423,"Longitude":-0.111358}},{"Id":486,"Route":"139","From":"West End Green","Towards":"Waterloo Station / Waterloo Road","Run":"1","IsDay":1,"encodedLevels":"P?AD@BC?B@E?DA?C?@ADAB@@E?A?BHBCA?D?F@CB?C@A?EAC@?AEF@B?C?G@DFB??H@???@@?I?@?A??G@CDAAF@B?C?@@BA@EAAE?G?@CA??DE?D@@@C?AH?A?@A@CA?C@AD?A?ABP","encodedPoints":"{tsyHxod@JOn@q@bAq@zAU^ArDNr@Y^UdBa@z@IbABlIZpBh@n@VtBhAP\\Vv@V^f@\\z@PrAGb@J`@VlD`ARGHGJSlAyAvAg@t@{@Hw@QyH@SDq@DOlFiNtBeBT]tIeP~BuD`B_CbHmJfFuGv@_AvEkFfAgAzBsAx@WxAUrAM`DcAlKiNh@w@bA{B`H{R|BoGz@sArAiBu@mB_CaIiCoVFaA|EgLh@sANYbCu@rK}DdIoCvAm@pKsDtIoC`DqAjE{A_AgRGaBy@cNQmDaAkOm@qIOkCp@OdEuA`EwCDS~ImH`FcFPk@^eCAe@F{BGc@MeBKWMeCJoB?gAKwAnAaBhFyEhD}DLiDTeEC_@@o@JqBSWEYAMc@yB}CPAaCGaESs@_BwDmDkJ}@uC{BkIw@}C?c@DUDG|AiAjFeE~F_FvLkKtDkDPeADQNMRIr@@RMHITk@Fk@La@b@{@bCaD","Color":"663366","hasRunTwo":1,"startPoint":{"Latitude":51.551663,"Longitude":-0.192127},"endPoint":{"Latitude":51.503423,"Longitude":-0.111358}}]}


