{"Stops" : [{"StopId":16069,"StopCode":"LE195","PointLetter":"D","StopName":"Dagenham Asda","Latitude":51.530199,"Longitude":0.143614,"Action":0},{"StopId":3457,"StopCode":"1709","PointLetter":"C","StopName":"Chequers Lane / Merrilands Retail Park","Latitude":51.531615,"Longitude":0.146362,"Action":0},{"StopId":15065,"StopCode":"27950","PointLetter":"D","StopName":"Ballards Road / Princess Parade","Latitude":51.529824,"Longitude":0.153804,"Action":0},{"StopId":15970,"StopCode":"29241","PointLetter":"G","StopName":"Oval Road South","Latitude":51.530412,"Longitude":0.155591,"Action":0},{"StopId":16244,"StopCode":"29239","PointLetter":"H","StopName":"Oval Road North","Latitude":51.533176,"Longitude":0.156413,"Action":0},{"StopId":16467,"StopCode":"29237","PointLetter":"J","StopName":"Ridgewell Close","Latitude":51.535004,"Longitude":0.159211,"Action":0},{"StopId":15974,"StopCode":"29235","PointLetter":"W","StopName":"Farm Close","Latitude":51.536341,"Longitude":0.161321,"Action":0},{"StopId":15964,"StopCode":"37184","PointLetter":"X","StopName":"St Giles Avenue","Latitude":51.538467,"Longitude":0.161091,"Action":0},{"StopId":16254,"StopCode":"37186","PointLetter":"Y","StopName":"Vicarage Road","Latitude":51.539838,"Longitude":0.155993,"Action":0},{"StopId":16442,"StopCode":"37188","PointLetter":"","StopName":"Ford Road","Latitude":51.540061,"Longitude":0.152672,"Action":0},{"StopId":16441,"StopCode":"37189","PointLetter":"K","StopName":"Heathway","Latitude":51.540180,"Longitude":0.149115,"Action":0},{"StopId":16285,"StopCode":"20541","PointLetter":"","StopName":"Talbot Road / Goresbrook Park","Latitude":51.539848,"Longitude":0.143187,"Action":0},{"StopId":16253,"StopCode":"15466","PointLetter":"","StopName":"Hatfield Road","Latitude":51.539569,"Longitude":0.138775,"Action":0},{"StopId":16589,"StopCode":"15464","PointLetter":"","StopName":"Lullington Road","Latitude":51.539287,"Longitude":0.134479,"Action":0},{"StopId":16533,"StopCode":"15463","PointLetter":"WN","StopName":"Gale Street","Latitude":51.538884,"Longitude":0.128951,"Action":0},{"StopId":16532,"StopCode":"15460","PointLetter":"NC","StopName":"Becontree Station","Latitude":51.540475,"Longitude":0.127497,"Action":0},{"StopId":16592,"StopCode":"15458","PointLetter":"ND","StopName":"Rusper Road","Latitude":51.543098,"Longitude":0.126696,"Action":0},{"StopId":16531,"StopCode":"15456","PointLetter":"NE","StopName":"Ilchester Road","Latitude":51.546286,"Longitude":0.124436,"Action":0},{"StopId":15980,"StopCode":"15454","PointLetter":"NG","StopName":"Marlborough Road","Latitude":51.548435,"Longitude":0.126902,"Action":0},{"StopId":16381,"StopCode":"34866","PointLetter":"NH","StopName":"Parsloes Avenue","Latitude":51.551061,"Longitude":0.129895,"Action":0},{"StopId":15922,"StopCode":"14954","PointLetter":"WT","StopName":"Martins Corner / Valence Avenue","Latitude":51.551640,"Longitude":0.129215,"Action":0},{"StopId":16586,"StopCode":"15515","PointLetter":"WU","StopName":"Bennetts Castle Lane","Latitude":51.551117,"Longitude":0.122844,"Action":0},{"StopId":16587,"StopCode":"15514","PointLetter":"UA","StopName":"Lindsey Road","Latitude":51.551123,"Longitude":0.119007,"Action":0},{"StopId":16307,"StopCode":"34361","PointLetter":"UB","StopName":"Lodge Avenue","Latitude":51.551729,"Longitude":0.112356,"Action":0},{"StopId":15092,"StopCode":"7770","PointLetter":"UC","StopName":"Goodmayes Lane","Latitude":51.551273,"Longitude":0.106695,"Action":0},{"StopId":15023,"StopCode":"15510","PointLetter":"UD","StopName":"Sandhurst Drive","Latitude":51.549683,"Longitude":0.104126,"Action":0},{"StopId":15022,"StopCode":"15508","PointLetter":"UG","StopName":"Thurlestone Avenue","Latitude":51.548288,"Longitude":0.099663,"Action":0},{"StopId":15025,"StopCode":"26367","PointLetter":"BK","StopName":"Barking Bus Garage / Fair Cross","Latitude":51.546507,"Longitude":0.095658,"Action":0},{"StopId":16509,"StopCode":"36559","PointLetter":"BQ","StopName":"Longbridge Road","Latitude":51.546308,"Longitude":0.093183,"Action":0},{"StopId":15962,"StopCode":"BP181","PointLetter":"BS","StopName":"Ashburton Avenue","Latitude":51.548436,"Longitude":0.092371,"Action":0},{"StopId":15767,"StopCode":"33350","PointLetter":"BT","StopName":"Loxford Lane","Latitude":51.551060,"Longitude":0.092477,"Action":0},{"StopId":16193,"StopCode":"33348","PointLetter":"","StopName":"Eton Road","Latitude":51.553920,"Longitude":0.094469,"Action":0},{"StopId":16353,"StopCode":"33363","PointLetter":"G","StopName":"Frimley Road","Latitude":51.556569,"Longitude":0.094173,"Action":0},{"StopId":16355,"StopCode":"33361","PointLetter":"H","StopName":"South Park Crescent","Latitude":51.558730,"Longitude":0.093551,"Action":0},{"StopId":3152,"StopCode":"4331","PointLetter":"D","StopName":"South Park Drive","Latitude":51.559211,"Longitude":0.091769,"Action":0},{"StopId":3211,"StopCode":"15441","PointLetter":"","StopName":"Gordon Road","Latitude":51.558954,"Longitude":0.086016,"Action":0},{"StopId":3184,"StopCode":"FC53","PointLetter":"Z","StopName":"Winston Way Primary School","Latitude":51.559829,"Longitude":0.081280,"Action":0},{"StopId":405,"StopCode":"FC04","PointLetter":"W","StopName":"Hainault Street","Latitude":51.559672,"Longitude":0.076988,"Action":0},{"StopId":282,"StopCode":"BP3460","PointLetter":"Q","StopName":"Ilford Central Library","Latitude":51.557853,"Longitude":0.074078,"Action":0},{"StopId":297,"StopCode":"FC40","PointLetter":"M","StopName":"High Road Ilford","Latitude":51.558199,"Longitude":0.071756,"Action":0},{"StopId":310,"StopCode":"FC39","PointLetter":"G","StopName":"Ilford Station","Latitude":51.558815,"Longitude":0.070010,"Action":0},{"StopId":332,"StopCode":"LE126","PointLetter":"VL","StopName":"Beal Road","Latitude":51.562297,"Longitude":0.067874,"Action":0},{"StopId":352,"StopCode":"15438","PointLetter":"VM","StopName":"Northbrook Road","Latitude":51.564062,"Longitude":0.066699,"Action":0},{"StopId":15348,"StopCode":"19332","PointLetter":"VQ","StopName":"De Vere Gardens","Latitude":51.566200,"Longitude":0.062712,"Action":0},{"StopId":15512,"StopCode":"19334","PointLetter":"VS","StopName":"Seymour Gardens","Latitude":51.567756,"Longitude":0.059623,"Action":0},{"StopId":15750,"StopCode":"13426","PointLetter":"VT","StopName":"St Andrew's Church","Latitude":51.570214,"Longitude":0.056891,"Action":0},{"StopId":15346,"StopCode":"19336","PointLetter":"","StopName":"Cranbrook Primary School","Latitude":51.571768,"Longitude":0.055460,"Action":0},{"StopId":15515,"StopCode":"19338","PointLetter":"","StopName":"Wanstead Lane","Latitude":51.573257,"Longitude":0.054142,"Action":0},{"StopId":15471,"StopCode":"BP678","PointLetter":"RL","StopName":"Castleview Gardens","Latitude":51.574886,"Longitude":0.053046,"Action":0},{"StopId":15488,"StopCode":"1648","PointLetter":"RN","StopName":"The Drive","Latitude":51.576102,"Longitude":0.051874,"Action":0},{"StopId":15770,"StopCode":"1323","PointLetter":"RC","StopName":"Redbridge Stn  / Redbridge Roundabout","Latitude":51.575851,"Longitude":0.045686,"Action":0},{"StopId":15957,"StopCode":"LE146","PointLetter":"RD","StopName":"Redbridge Lane West","Latitude":51.575866,"Longitude":0.041227,"Action":0},{"StopId":16534,"StopCode":"15471","PointLetter":"S","StopName":"Wigram Road","Latitude":51.576394,"Longitude":0.032548,"Action":0},{"StopId":16577,"StopCode":"20907","PointLetter":"A","StopName":"Wanstead Station","Latitude":51.575856,"Longitude":0.028844,"Action":0},{"StopId":2592,"StopCode":"2998","PointLetter":"C","StopName":"Wanstead Station  / George Green","Latitude":51.574951,"Longitude":0.026567,"Action":0},{"StopId":14634,"StopCode":"9319","PointLetter":"T","StopName":"Felstead Road","Latitude":51.572420,"Longitude":0.023669,"Action":0},{"StopId":14160,"StopCode":"9317","PointLetter":"U","StopName":"Bush Road","Latitude":51.570416,"Longitude":0.023580,"Action":0},{"StopId":15137,"StopCode":"R0027","PointLetter":"R","StopName":"Bush Road / Green Man Roundabout","Latitude":51.570501,"Longitude":0.017639,"Action":0},{"StopId":2672,"StopCode":"R0024","PointLetter":"P","StopName":"Green Man Roundabout","Latitude":51.570769,"Longitude":0.015140,"Action":0},{"StopId":13859,"StopCode":"BP1542","PointLetter":"X","StopName":"Leytonstone Station","Latitude":51.569212,"Longitude":0.009414,"Action":0}], "Routes" : [{"Id":3998,"Route":"145","From":"Dagenham Asda","Towards":"Leytonstone Station","Run":"1","IsDay":1,"encodedLevels":"PB?B@ED?B@FBAF?B@?G??BDA@DA?FBAJ@ADAD?B?CEA?A?AFAAD?@?I??B?D@AAF?@BGAD?H?@B?@B?EB??G@ABAB??D@@AC@?B@I?AB@F?CAAE@AD?BE@?IBE?AAEDAE?BA?ADA@A?C@DFEAC@D??BAHA@AE@BAE?AACEC@@A?CAA?CFB?@AB?F?A@?D@@I@D@B??@B?A?F?@CACAD@A?G@C?A@@D??AAG@D??GAD@C?AFEEA@CP","encodedPoints":"upoyHi_[pAW\\LJ@LEJOwAqCQ?WIe@RoCv@{@ePKuEDwAFu@VaB|EeRnDeMZsAMKOU_BoBq@UeAK}D@iAEuA_@qBmAOOcBmBgVgd@_D_FSTc@|@a@rAI`WOvAMVIFg@DmCb@a@~AK`AEfE?`AQ~BOdAUlGHzBUxOAvN^tM`Er{APrE\\tLSBc@AaHJ_@DmFr@_ATaBp@y@h@mF`BOFi@b@UVoFhKu`@ke@I]QCoACBt@JnMJnDJ`DZvEn@dNFhDFpIaAxOQ`F]hNuAdc@Hr@JX|@`BFAtF|HTb@bAbCTn@^zAL|@dDpPdAfEhAdD~B|Fn@jBrCrJzBlIk@j@SLeA^}KzCm@HeBk@_AWkAIkBLoFYuAwAs@eA_CyBuAc@eCq@eCKuQdDmFjAeCb@vCvQFjCA`BYhKHlIOxM]xD}Ab@_Ar@TjBRhAbB~FXXFP@p@Ih@URI@M\\CRARVvBkBv@rAbKlBy@f@GZNNVHX\\pCR~@x@xBhB`IINsDzAu@TKN?`@h@tDBt@MXGDM@WKaCIwHzCiD~BMTAXM`@IVW^c@Tm@Bg@TcEvBoE|EmAbBCP]`AoAfDcBzGiCvGcHbQm@j@iF`EsJ|IuGrFyBpBkJ|EsCtAO@^tW\\lPFj@P^FHb@LPJNRTt@DR@T?^Ml@u@xCs@bEOjD_BfOyAhE}@fEOnBClADlBDl@TbBbCzMR`CbAbKAr@DnALx@Lj@jArDfAtDpBzIdCzI`@g@|@g@d@BnOP|C@MlSYxGk@rAaCbHKbBSvBS`@xFrN_DnF~@`BxBjFvAxDxCxB","Color":"993333","hasRunTwo":1,"startPoint":{"Latitude":51.530518,"Longitude":0.143415},"endPoint":{"Latitude":51.568485,"Longitude":0.008722}}]}


