{"Stops" : [{"StopId":15142,"StopCode":"FC41","PointLetter":"V","StopName":"Hainault Street","Latitude":51.559431,"Longitude":0.075852,"Action":0},{"StopId":282,"StopCode":"BP3460","PointLetter":"Q","StopName":"Ilford Central Library","Latitude":51.557853,"Longitude":0.074078,"Action":0},{"StopId":15105,"StopCode":"37219","PointLetter":"L","StopName":"Ilford Broadway","Latitude":51.558397,"Longitude":0.070712,"Action":0},{"StopId":15110,"StopCode":"BP1379","PointLetter":"Y","StopName":"Chapel Road","Latitude":51.557304,"Longitude":0.067965,"Action":0},{"StopId":15120,"StopCode":"14535","PointLetter":"A","StopName":"Dersingham Avenue","Latitude":51.555378,"Longitude":0.061919,"Action":0},{"StopId":16389,"StopCode":"BP2734","PointLetter":"S","StopName":"Wolferton Road","Latitude":51.552879,"Longitude":0.061359,"Action":0},{"StopId":15905,"StopCode":"BP2735","PointLetter":"T","StopName":"Church Road","Latitude":51.549671,"Longitude":0.061719,"Action":0},{"StopId":16065,"StopCode":"R0363","PointLetter":"U","StopName":"Little Ilford School","Latitude":51.548348,"Longitude":0.057693,"Action":0},{"StopId":16158,"StopCode":"27636","PointLetter":"V","StopName":"Ruskin Avenue","Latitude":51.545438,"Longitude":0.056466,"Action":0},{"StopId":15860,"StopCode":"27638","PointLetter":"H","StopName":"St Barnabas Church","Latitude":51.543524,"Longitude":0.054836,"Action":0},{"StopId":15858,"StopCode":"27640","PointLetter":"J","StopName":"Browning Road","Latitude":51.541524,"Longitude":0.054515,"Action":0},{"StopId":15857,"StopCode":"27641","PointLetter":"K","StopName":"High Street North","Latitude":51.541045,"Longitude":0.051076,"Action":0},{"StopId":14768,"StopCode":"2899","PointLetter":"A","StopName":"East Ham Station","Latitude":51.539659,"Longitude":0.051115,"Action":0},{"StopId":14071,"StopCode":"BP132","PointLetter":"N","StopName":"Bendish Road","Latitude":51.537562,"Longitude":0.051727,"Action":0},{"StopId":14259,"StopCode":"BP759","PointLetter":"M","StopName":"Ron Leighton Way","Latitude":51.535136,"Longitude":0.051604,"Action":0},{"StopId":15212,"StopCode":"1894","PointLetter":"Q","StopName":"Bartle Avenue","Latitude":51.532454,"Longitude":0.051238,"Action":0},{"StopId":15185,"StopCode":"1892","PointLetter":"","StopName":"Aintree Avenue","Latitude":51.532013,"Longitude":0.048695,"Action":0},{"StopId":15232,"StopCode":"1890","PointLetter":"","StopName":"Dickens Road","Latitude":51.531120,"Longitude":0.043681,"Action":0},{"StopId":15187,"StopCode":"1888","PointLetter":"Y","StopName":"Upton Park / Priory Road","Latitude":51.530721,"Longitude":0.041298,"Action":0},{"StopId":15269,"StopCode":"28111","PointLetter":"P","StopName":"Upton Park / Green Street","Latitude":51.530305,"Longitude":0.038857,"Action":0},{"StopId":15413,"StopCode":"1884","PointLetter":"S","StopName":"New City Road","Latitude":51.528598,"Longitude":0.033591,"Action":0},{"StopId":15615,"StopCode":"8104","PointLetter":"GS","StopName":"Beaumont Road","Latitude":51.524765,"Longitude":0.030076,"Action":0},{"StopId":15613,"StopCode":"8108","PointLetter":"HD","StopName":"Newham University Hospital","Latitude":51.522508,"Longitude":0.031114,"Action":0},{"StopId":15707,"StopCode":"8110","PointLetter":"A","StopName":"Bennett Road","Latitude":51.519548,"Longitude":0.032236,"Action":0},{"StopId":20259,"StopCode":"BP5263","PointLetter":"","StopName":"Newham Leisure Centre","Latitude":51.518441,"Longitude":0.032245,"Action":0},{"StopId":16491,"StopCode":"8116","PointLetter":"C","StopName":"Newham Way","Latitude":51.516374,"Longitude":0.032182,"Action":0},{"StopId":16211,"StopCode":"8118","PointLetter":"D","StopName":"Mortlake Road","Latitude":51.514537,"Longitude":0.031783,"Action":0},{"StopId":16037,"StopCode":"35039","PointLetter":"E","StopName":"Tree Road","Latitude":51.513024,"Longitude":0.031903,"Action":0},{"StopId":16503,"StopCode":"8122","PointLetter":"M","StopName":"Victoria Dock Road","Latitude":51.510335,"Longitude":0.034002,"Action":0},{"StopId":16471,"StopCode":"BP086","PointLetter":"J","StopName":"Munday Road / Royal Victoria","Latitude":51.510118,"Longitude":0.018458,"Action":0},{"StopId":16312,"StopCode":"35914","PointLetter":"","StopName":"Hallsville Primary School","Latitude":51.512223,"Longitude":0.016879,"Action":0},{"StopId":16390,"StopCode":"BP2723","PointLetter":"","StopName":"St Lukes Square","Latitude":51.511613,"Longitude":0.012572,"Action":0},{"StopId":14322,"StopCode":"9498","PointLetter":"","StopName":"Brunel Street","Latitude":51.511949,"Longitude":0.010828,"Action":0},{"StopId":14825,"StopCode":"BP2284","PointLetter":"A","StopName":"Canning Town Station","Latitude":51.514576,"Longitude":0.008133,"Action":0}], "Routes" : [{"Id":3717,"Route":"147","From":"Hainault Street","Towards":"Canning Town Station","Run":"1","IsDay":1,"encodedLevels":"P?DAC@E??BAEA@CAFAD@C?@D?C@?E@DBB@HAC@@G@@AG@AAE@B@E@F??G?B@B@AE@B@A@D?@C?C?AH???BAF@@?A@I@A@@CBF@C@A@D?@@AD?C@F@BBAIA?BC??@?GABBBF?@E?AC@A@EAC@F@A@CB@A@CEAP","encodedPoints":"sfuyHm|MRdBP~@lBy@f@GZNNVHX\\pCR~@x@xBhB`IINsDzAu@TKN?`@h@tDZdAHDlB?D@Zf@Rf@p@~C@NAp@Op@k@rEr@fBvE|Jp@|DApAvBvLb@lB|@m@p@O`M{@rFStJm@Dn@dAtHjAlKRfEfFi@ZKzAMTHrAp@b@ZpKrKNHT?jKeBn@bJ`AdMJpBn@?v@Gz@U`Cw@lF{@tBe@tC[\\fB^bA?IP@?FTBXIt@c@|DyA`ADzBBd@Oz@]|EcAlBfSjBlQlAfNdDd]ZpId@vE\\x@`BbDtEpIxEbJtElHf@fANMtJaEZEjHkCl@]nHaC~Fy@nFFt@EDQZO`AYRARBb@JXRpEnAhBT~EZ^@p@ChCe@jAe@z@o@fEyDrEuCbBw@Y~EGvDE`JJp_@DnBH~GRpIXpLJzBy@PiDHUOwD\\OXO`@Mh@aDbR^h@x@tAj@f@ZPf@LXBXC[`DQ|E`@bATz@GR]\\eEtCuEnDIn@K?SLuBvBaCxCFl@VAhBgB","Color":"993333","hasRunTwo":1,"startPoint":{"Latitude":51.559628,"Longitude":0.076399},"endPoint":{"Latitude":51.514468,"Longitude":0.008118}}]}


