{"Stops" : [{"StopId":6954,"StopCode":"BP2418","PointLetter":"D","StopName":"Crystal Palace Bus Station","Latitude":51.420426,"Longitude":-0.077995,"Action":0},{"StopId":7043,"StopCode":"6915","PointLetter":"E","StopName":"Crystal Palace Park","Latitude":51.419772,"Longitude":-0.077073,"Action":0},{"StopId":6930,"StopCode":"27519","PointLetter":"M","StopName":"Crystal Palace Station","Latitude":51.417886,"Longitude":-0.073931,"Action":0},{"StopId":7325,"StopCode":"20813","PointLetter":"A","StopName":"Hamlet Road","Latitude":51.415712,"Longitude":-0.071879,"Action":0},{"StopId":7252,"StopCode":"6589","PointLetter":"B","StopName":"Thicket Road","Latitude":51.414204,"Longitude":-0.069843,"Action":0},{"StopId":6898,"StopCode":"20750","PointLetter":"C","StopName":"Anerley Road / Anerley Station","Latitude":51.412077,"Longitude":-0.066869,"Action":0},{"StopId":17448,"StopCode":"6587","PointLetter":"D","StopName":"Seymour Villas","Latitude":51.410955,"Longitude":-0.065335,"Action":0},{"StopId":17446,"StopCode":"6601","PointLetter":"U","StopName":"Betts Way","Latitude":51.409691,"Longitude":-0.062872,"Action":0},{"StopId":17449,"StopCode":"6602","PointLetter":"V","StopName":"Anerley Road / Croydon Road","Latitude":51.409195,"Longitude":-0.060060,"Action":0},{"StopId":7018,"StopCode":"27556","PointLetter":"L","StopName":"Anerley Road / Worbeck Road","Latitude":51.408088,"Longitude":-0.060581,"Action":0},{"StopId":7224,"StopCode":"6561","PointLetter":"M","StopName":"Anerley / The Mitre","Latitude":51.406750,"Longitude":-0.063399,"Action":0},{"StopId":7086,"StopCode":"6560","PointLetter":"N","StopName":"Derwent Road","Latitude":51.405434,"Longitude":-0.065913,"Action":0},{"StopId":6789,"StopCode":"6559","PointLetter":"P","StopName":"Selby Road","Latitude":51.403663,"Longitude":-0.068705,"Action":0},{"StopId":6950,"StopCode":"R0506","PointLetter":"","StopName":"Sunnybank","Latitude":51.401790,"Longitude":-0.071271,"Action":0},{"StopId":17201,"StopCode":"6554","PointLetter":"M","StopName":"Portland Road","Latitude":51.400218,"Longitude":-0.073523,"Action":0},{"StopId":10003,"StopCode":"6553","PointLetter":"A","StopName":"South Norwood Clock Tower","Latitude":51.397780,"Longitude":-0.077866,"Action":0},{"StopId":9876,"StopCode":"6551","PointLetter":"","StopName":"Park Road","Latitude":51.396961,"Longitude":-0.080560,"Action":0},{"StopId":17183,"StopCode":"6556","PointLetter":"","StopName":"Clifton Road","Latitude":51.395944,"Longitude":-0.083277,"Action":0},{"StopId":16859,"StopCode":"6549","PointLetter":"A","StopName":"Heavers Farm Centre","Latitude":51.394094,"Longitude":-0.086157,"Action":0},{"StopId":17184,"StopCode":"6548","PointLetter":"B","StopName":"Selhurst Station","Latitude":51.391631,"Longitude":-0.087827,"Action":0},{"StopId":17063,"StopCode":"6547","PointLetter":"C","StopName":"Selhurst New Road","Latitude":51.389505,"Longitude":-0.088749,"Action":0},{"StopId":17185,"StopCode":"6546","PointLetter":"D","StopName":"Beaconsfield Road","Latitude":51.388284,"Longitude":-0.092709,"Action":0},{"StopId":17044,"StopCode":"26277","PointLetter":"E","StopName":"Windmill Road","Latitude":51.387515,"Longitude":-0.095213,"Action":0},{"StopId":5546,"StopCode":"6544","PointLetter":"H","StopName":"Cromwell Road","Latitude":51.384988,"Longitude":-0.097431,"Action":0},{"StopId":5637,"StopCode":"6543","PointLetter":"R","StopName":"Hogarth Crescent","Latitude":51.383052,"Longitude":-0.098359,"Action":0},{"StopId":8264,"StopCode":"6542","PointLetter":"T","StopName":"Bedford Hall","Latitude":51.381035,"Longitude":-0.099319,"Action":0},{"StopId":8399,"StopCode":"R0851","PointLetter":"B3","StopName":"West Croydon Bus Station","Latitude":51.379064,"Longitude":-0.101442,"Action":0},{"StopId":8413,"StopCode":"8752","PointLetter":"CJ","StopName":"Ruskin Road","Latitude":51.376779,"Longitude":-0.103074,"Action":0},{"StopId":8456,"StopCode":"BP1506","PointLetter":"CL","StopName":"Church Street Tram Stop","Latitude":51.374269,"Longitude":-0.104629,"Action":0},{"StopId":8581,"StopCode":"35230","PointLetter":"","StopName":"Rectory Grove","Latitude":51.374545,"Longitude":-0.107850,"Action":0},{"StopId":8470,"StopCode":"6512","PointLetter":"D","StopName":"Waddon New Road / Waddon Road","Latitude":51.372251,"Longitude":-0.109999,"Action":0},{"StopId":17325,"StopCode":"6511","PointLetter":"","StopName":"Epsom Road","Latitude":51.369175,"Longitude":-0.113904,"Action":0},{"StopId":12708,"StopCode":"6510","PointLetter":"WA","StopName":"Waddon Station","Latitude":51.367330,"Longitude":-0.116006,"Action":0},{"StopId":12709,"StopCode":"6509","PointLetter":"WB","StopName":"Waddon Leisure Centre, Fiveways","Latitude":51.365206,"Longitude":-0.117616,"Action":0},{"StopId":12704,"StopCode":"37065","PointLetter":"WJ","StopName":"Stafford Gardens","Latitude":51.363707,"Longitude":-0.119473,"Action":0},{"StopId":12710,"StopCode":"6506","PointLetter":"WK","StopName":"The Chase","Latitude":51.361831,"Longitude":-0.122466,"Action":0},{"StopId":12778,"StopCode":"20649","PointLetter":"","StopName":"Hannibal Way","Latitude":51.360715,"Longitude":-0.126361,"Action":0},{"StopId":17534,"StopCode":"6505","PointLetter":"V","StopName":"Plough Lane","Latitude":51.360178,"Longitude":-0.131051,"Action":0},{"StopId":17355,"StopCode":"6504","PointLetter":"W","StopName":"Mellows Park","Latitude":51.359853,"Longitude":-0.134296,"Action":0},{"StopId":9961,"StopCode":"6503","PointLetter":"U","StopName":"Stafford Road / Sandy Lane South","Latitude":51.359462,"Longitude":-0.138578,"Action":0},{"StopId":10005,"StopCode":"6501","PointLetter":"","StopName":"Milton Road","Latitude":51.358903,"Longitude":-0.142493,"Action":0},{"StopId":10006,"StopCode":"6500","PointLetter":"","StopName":"Elgin Road","Latitude":51.358064,"Longitude":-0.146276,"Action":0},{"StopId":9869,"StopCode":"27555","PointLetter":"N","StopName":"Stafford Road / Woodcote Road","Latitude":51.357562,"Longitude":-0.148077,"Action":0},{"StopId":10019,"StopCode":"16623","PointLetter":"K","StopName":"Wallington Town Centre","Latitude":51.358956,"Longitude":-0.149773,"Action":0},{"StopId":8254,"StopCode":"36653","PointLetter":"C","StopName":"Wallington Station","Latitude":51.360785,"Longitude":-0.150590,"Action":0},{"StopId":9991,"StopCode":"29355","PointLetter":"GE","StopName":"Parkgate Road","Latitude":51.363626,"Longitude":-0.152860,"Action":0},{"StopId":9909,"StopCode":"29358","PointLetter":"GF","StopName":"Park Lane","Latitude":51.365398,"Longitude":-0.157429,"Action":0},{"StopId":8344,"StopCode":"14179","PointLetter":"E","StopName":"Carshalton High Street","Latitude":51.365584,"Longitude":-0.159534,"Action":0},{"StopId":17315,"StopCode":"19132","PointLetter":"G","StopName":"Carshalton Pond","Latitude":51.365896,"Longitude":-0.163960,"Action":0},{"StopId":17316,"StopCode":"19130","PointLetter":"A","StopName":"Carshalton Station","Latitude":51.368586,"Longitude":-0.165160,"Action":0},{"StopId":13188,"StopCode":"19128","PointLetter":"D","StopName":"Wrythe Green","Latitude":51.371949,"Longitude":-0.166879,"Action":0},{"StopId":17458,"StopCode":"19119","PointLetter":"N","StopName":"Wrythe Recreation Ground","Latitude":51.371399,"Longitude":-0.170794,"Action":0},{"StopId":17320,"StopCode":"19117","PointLetter":"P","StopName":"Poulton Avenue","Latitude":51.372595,"Longitude":-0.174841,"Action":0},{"StopId":17322,"StopCode":"19115","PointLetter":"R","StopName":"Muschamp Road","Latitude":51.374795,"Longitude":-0.176981,"Action":0},{"StopId":17324,"StopCode":"19113","PointLetter":"","StopName":"Welbeck Road","Latitude":51.378072,"Longitude":-0.178360,"Action":0},{"StopId":13196,"StopCode":"19111","PointLetter":"HA","StopName":"St Helier Hospital","Latitude":51.380791,"Longitude":-0.183784,"Action":0},{"StopId":13215,"StopCode":"2243","PointLetter":"RL","StopName":"Wrythe Lane / Rosehill Roundabout","Latitude":51.383766,"Longitude":-0.189501,"Action":0},{"StopId":13472,"StopCode":"2239","PointLetter":"RE","StopName":"St Helier Avenue / Rose Hill Roundabout","Latitude":51.385374,"Longitude":-0.189984,"Action":0},{"StopId":13463,"StopCode":"3009","PointLetter":"","StopName":"Dore Gardens","Latitude":51.387049,"Longitude":-0.189516,"Action":0},{"StopId":13464,"StopCode":"3007","PointLetter":"V","StopName":"St Helier Avenue / Middleton Road","Latitude":51.390515,"Longitude":-0.188588,"Action":0},{"StopId":13465,"StopCode":"3005","PointLetter":"U","StopName":"Chester Gardens","Latitude":51.391902,"Longitude":-0.188174,"Action":0},{"StopId":13445,"StopCode":"3003","PointLetter":"T","StopName":"Langdon Walk","Latitude":51.394132,"Longitude":-0.187597,"Action":0},{"StopId":13444,"StopCode":"3001","PointLetter":"S","StopName":"Connaught Gardens","Latitude":51.397106,"Longitude":-0.186833,"Action":0},{"StopId":13449,"StopCode":"R0299","PointLetter":"R","StopName":"Morden Hall Road / Central Road","Latitude":51.399759,"Longitude":-0.188007,"Action":0},{"StopId":13148,"StopCode":"BP2257","PointLetter":"N","StopName":"Morden Station","Latitude":51.401997,"Longitude":-0.194892,"Action":0}], "Routes" : [{"Id":2437,"Route":"157","From":"Crystal Palace Bus Station","Towards":"Morden Station","Run":"1","IsDay":1,"encodedLevels":"PAB@DAE?ACA@E?BA?ADAF?@B@AD@AJ?BEA?@BC?@C?AAE?AB??D@FB?D@AABF@BG?AE?BBE?DA?A@DA@E@?@?D?CBFCAEG@BAF?B@C@C@@D@F?@BD?CED@B@?EB@@?BAD@AFA?DACAK?A??E?BAHA@A??BAEA@C?@C?A@D?@CD@?@G@BA?E?F?ABD?B?@IABCBBDAB@G?B@DF?AAGB?D@B@AD?@AF@B@@C@A@C?B@??A?H@B?CA@@CBH@AC@?C@B?@CADE?BB@BBAE?A@P","encodedPoints":"gbzxH|dNXNJVDx@C`@\\JlA@@c@b@_Ef@eCp@gCZ{@t@wATU|B}CrAqAvBcBpA}@fCiCtJuN`Ykc@Ri@Nm@RqAl@qFb@sGXyAXq@PW`Aq@~GbRtCvHdHfPlDbG`E~F^f@tFvIxCvCDPJx@f@bBPJVVz@pAtHjM^z@p@rB~BpJl@pCdCxMp@xC~BxE`GxK~DdGl@b@bAl@x@XtARbGtBnD~@dCxAhEhUnC~MvBlHzLtEjG|BvBbANOR_@TqBb@W`Ad@ZRJh@?^InAFf@Lf@jAb@tEbAbC^Lj@BZn@xELf@FJ`Ab@pCvA`@nAzBdB~Er@bAx@x@lAvBgDl@bBpCdGb@XhAdBUb@ML]Cq@DSl@W\\OHYDiBv@Ad@RtBNTf@f@`HxItCdC`@BjB?De@p@lGtCtD|DnEbB~BhEtGP\\^IBRRd@Zn@FDzHtDdAt@x@t@l@v@pIdLrEjHh@bAtAxCrBtHt@vDb@dCp@nHdBz\\pArXPjFp@dPNjCt@~GdChStBfMrA|JIJ[BQIIDkJbAkAPkB\\aC~@?XNf@LHL?t@KHDFJ@LAPIHI?q@SSMc@uAa@Ni@LuEhA{Br@Fj@CXgEpQiC~MCZ]RiF~DLd@J~@xBnHv@`GNzADdAAz@Et@C|CeBx@aGdBw@BkElBiFlDwHpCe@B}@Sm@Ok@]CRG`DJ~@Nd@~EzDSn@c@jBmH|_@a@dA}AjCqBjBkA`AqC|As@VmAZgDn@}GrBk@^aAv@m@j@mA|A_@p@sAjDaCvHwDpNcAvCu@fB_AxAsE|IWr@wAnEu@vBKb@Af@DXALGXGJQBUG[[uAaAe@AyBg@yFaAct@cM{IuAyC?w@P{@^y@f@An@Id@A@]NOAGEIU?OaAh@eCxBaHfKDRHr@MjK_@tFKh@CtAXt@Kp@SMSW}AyCCM","Color":"993333","hasRunTwo":1,"startPoint":{"Latitude":51.420684,"Longitude":-0.077749},"endPoint":{"Latitude":51.402444,"Longitude":-0.194035}}]}


