{"Stops" : [{"StopId":21733,"StopCode":"BP5725","PointLetter":"SF","StopName":"Streatham Station","Latitude":51.425476,"Longitude":-0.131092,"Action":0},{"StopId":5574,"StopCode":"SL37","PointLetter":"SK","StopName":"St Leonard's Church","Latitude":51.428542,"Longitude":-0.131111,"Action":0},{"StopId":5646,"StopCode":"4865","PointLetter":"OA","StopName":"Becmead Avenue","Latitude":51.432816,"Longitude":-0.128951,"Action":0},{"StopId":2846,"StopCode":"2403","PointLetter":"M","StopName":"Kingscourt Road","Latitude":51.434489,"Longitude":-0.128422,"Action":0},{"StopId":2833,"StopCode":"36915","PointLetter":"K","StopName":"Mount Ephraim Road","Latitude":51.435941,"Longitude":-0.128161,"Action":0},{"StopId":2807,"StopCode":"25856","PointLetter":"A","StopName":"Streatham Hill Stn  / Streatham Hill","Latitude":51.439382,"Longitude":-0.126251,"Action":0},{"StopId":2768,"StopCode":"1764","PointLetter":"S","StopName":"Barrhill Road","Latitude":51.440782,"Longitude":-0.125546,"Action":0},{"StopId":5603,"StopCode":"25666","PointLetter":"T","StopName":"Telford Avenue","Latitude":51.442849,"Longitude":-0.124871,"Action":0},{"StopId":2873,"StopCode":"43","PointLetter":"BS","StopName":"Christchurch Road","Latitude":51.444592,"Longitude":-0.124757,"Action":0},{"StopId":5540,"StopCode":"2397","PointLetter":"BT","StopName":"Holmewood Road","Latitude":51.446951,"Longitude":-0.124358,"Action":0},{"StopId":5670,"StopCode":"706","PointLetter":"BU","StopName":"New Park Road","Latitude":51.448858,"Longitude":-0.123819,"Action":0},{"StopId":5671,"StopCode":"707","PointLetter":"BV","StopName":"Jebb Avenue / Brixton Prison","Latitude":51.451078,"Longitude":-0.122116,"Action":0},{"StopId":5672,"StopCode":"710","PointLetter":"BW","StopName":"Blenheim Gardens","Latitude":51.454319,"Longitude":-0.120040,"Action":0},{"StopId":5658,"StopCode":"2395","PointLetter":"BY","StopName":"Rush Common","Latitude":51.457105,"Longitude":-0.118285,"Action":0},{"StopId":5537,"StopCode":"24458","PointLetter":"X","StopName":"Lambeth Town Hall","Latitude":51.459912,"Longitude":-0.116658,"Action":0},{"StopId":5556,"StopCode":"14622","PointLetter":"R","StopName":"Brixton Station","Latitude":51.462417,"Longitude":-0.115302,"Action":0},{"StopId":5542,"StopCode":"236","PointLetter":"D","StopName":"Brixton Road / Brixton Police Station","Latitude":51.465613,"Longitude":-0.113861,"Action":0},{"StopId":5611,"StopCode":"2393","PointLetter":"RA","StopName":"Villa Road","Latitude":51.467423,"Longitude":-0.112893,"Action":0},{"StopId":5643,"StopCode":"4726","PointLetter":"RB","StopName":"Loughborough Road","Latitude":51.469586,"Longitude":-0.112588,"Action":0},{"StopId":5657,"StopCode":"2391","PointLetter":"RC","StopName":"Groveway","Latitude":51.472693,"Longitude":-0.112863,"Action":0},{"StopId":5578,"StopCode":"BP2394","PointLetter":"RD","StopName":"Hillyard Street","Latitude":51.474714,"Longitude":-0.112737,"Action":0},{"StopId":5616,"StopCode":"451","PointLetter":"RE","StopName":"Vassall Road","Latitude":51.477308,"Longitude":-0.112414,"Action":0},{"StopId":5629,"StopCode":"517","PointLetter":"H","StopName":"Kennington Church","Latitude":51.480712,"Longitude":-0.111063,"Action":0},{"StopId":5545,"StopCode":"26761","PointLetter":"U","StopName":"Kennington Park Post Office","Latitude":51.485061,"Longitude":-0.110869,"Action":0},{"StopId":5655,"StopCode":"384","PointLetter":"KP","StopName":"Windmill Row","Latitude":51.487705,"Longitude":-0.111423,"Action":0},{"StopId":5589,"StopCode":"2650","PointLetter":"KH","StopName":"Kennington Lane","Latitude":51.489924,"Longitude":-0.111259,"Action":0},{"StopId":5610,"StopCode":"26764","PointLetter":"KG","StopName":"Fitzalan Street","Latitude":51.492807,"Longitude":-0.111068,"Action":0},{"StopId":5564,"StopCode":"25654","PointLetter":"E","StopName":"Kennington Road / Imperial War Museum","Latitude":51.495695,"Longitude":-0.111164,"Action":0},{"StopId":5602,"StopCode":"25652","PointLetter":"G","StopName":"Lambeth North Station","Latitude":51.498087,"Longitude":-0.112261,"Action":0},{"StopId":1639,"StopCode":"4741","PointLetter":"A","StopName":"Lower Marsh","Latitude":51.499573,"Longitude":-0.114073,"Action":0},{"StopId":1557,"StopCode":"26487","PointLetter":"D","StopName":"Westminster Bridge / County Hall","Latitude":51.500689,"Longitude":-0.119199,"Action":0},{"StopId":5647,"StopCode":"996","PointLetter":"A","StopName":"Parliament Square","Latitude":51.501874,"Longitude":-0.126341,"Action":0},{"StopId":5675,"StopCode":"7867","PointLetter":"","StopName":"Horse Guards Parade","Latitude":51.504051,"Longitude":-0.126381,"Action":0},{"StopId":3221,"StopCode":"BP3503","PointLetter":"T","StopName":"Trafalgar Square","Latitude":51.507523,"Longitude":-0.129812,"Action":0},{"StopId":2143,"StopCode":"17683","PointLetter":"Z","StopName":"Regent Street / Charles I I Street","Latitude":51.508249,"Longitude":-0.133601,"Action":0},{"StopId":1563,"StopCode":"156","PointLetter":"D","StopName":"Piccadilly Circus","Latitude":51.509822,"Longitude":-0.136967,"Action":0},{"StopId":1660,"StopCode":"16573","PointLetter":"M","StopName":"Conduit Street / Hamleys Toy Store","Latitude":51.512363,"Longitude":-0.140135,"Action":0},{"StopId":1646,"StopCode":"BP1698","PointLetter":"RC","StopName":"Oxford Circus Station","Latitude":51.514486,"Longitude":-0.141893,"Action":0},{"StopId":3215,"StopCode":"33926","PointLetter":"OQ","StopName":"Oxford Circus Station  / Harewood Place","Latitude":51.515002,"Longitude":-0.143774,"Action":0},{"StopId":3198,"StopCode":"29104","PointLetter":"BW","StopName":"Bond Street Station","Latitude":51.514252,"Longitude":-0.149829,"Action":0},{"StopId":3235,"StopCode":"179","PointLetter":"O","StopName":"Marble Arch Station","Latitude":51.513562,"Longitude":-0.156833,"Action":0},{"StopId":3248,"StopCode":"14","PointLetter":"E","StopName":"Marble Arch / Edgware Road","Latitude":51.513874,"Longitude":-0.161274,"Action":0},{"StopId":3098,"StopCode":"35420","PointLetter":"EK","StopName":"Burwood Place","Latitude":51.516987,"Longitude":-0.165934,"Action":0},{"StopId":2702,"StopCode":"33283","PointLetter":"ES","StopName":"Sussex Gardens","Latitude":51.516994,"Longitude":-0.169292,"Action":0},{"StopId":2692,"StopCode":"33284","PointLetter":"G","StopName":"St Mary's Hospital","Latitude":51.516702,"Longitude":-0.172431,"Action":0},{"StopId":2681,"StopCode":"11666","PointLetter":"F","StopName":"Paddington Station","Latitude":51.515493,"Longitude":-0.175679,"Action":0},{"StopId":10084,"StopCode":"BP4857","PointLetter":"T","StopName":"Bishop's Bridge","Latitude":51.519338,"Longitude":-0.178307,"Action":0},{"StopId":16191,"StopCode":"BP4856","PointLetter":"A","StopName":"Paddington Basin","Latitude":51.518905,"Longitude":-0.175298,"Action":0}], "Routes" : [{"Id":3311,"Route":"159","From":"Streatham Station","Towards":"Paddington Basin","Run":"1","IsDay":1,"encodedLevels":"PEBD?ABA@EAE@@ACBC@CEB@@B?A?AF@?D@C?BF@B?AC@?BEA?ABH?A?BDA?E?CA@EB?B?E?@FA@BEB?BAKA@BE?ABG@A@C?A?CG?@BBCAE@ABG?AB@D@F?A@AAAAAB?F??CA@E@@@?@CAH@@?@?@?B???DD@?BC?AD?G@AD@AA?C?A?E??@@GA?F?EG?H?ACE?B?C@@CA?FB@?E?@C@DAC?@EB?P","encodedPoints":"a`{xH~uXIcDuC`AaCVQGqBOQM{GMSFa@?eFqGq@g@UG_CQ[@eCa@eC}A}EqAe@DaFUyEkAqFoB_@WU[y@g@{FgC]MoEiCu@e@sEsBu@?SDoHh@uDu@gFy@gGEo@CoCe@eBy@}@m@iDwCy@k@_GgD{RqK_Am@wHaEeXyMwF_CmKwDmK{DiH_DkEaAe@Ec@AeB@sHJsKj@iGIsO{@qDWuEcAeBc@eC}@{CaBiAc@_AP]VgBfAsAPoAJ[]y@s@mF{Ds@^a@h@cDxCs@F{HAaBIod@sAaCA}CTyD`B{Bv@kF|AaDlBaBnEmAzCkA|AcApCAl@DVd@`AJh@AXGXYl@e@rAs@fu@GHIDQ@eDg@eEIOJaFb@KFsB\\cLxDq@t@ALe@lBU`CUdEEtE|AbGHr@EFiIbGAPQNGIWRAPQNIGaAz@}A`B?RFx@NpHOlAo@jCOTK@UXuCdCKBmHnG_HrFuB~@yAZFFJxAEB?Dl@pI`AjOPlDx@bNF`B~@fRh@vNHxAp@dHNJH@HA|@a@TJNLFXJ~Af@zKS\\_AjAUAKESa@KaBMYKMQEG@MDWPkFxJm@`A}DlHsDhG}EdJ?\\xG|NxBtEeBvC}BjDnOv\\yL|RoDtF_@_C[cB}@qCoFkLQSKEI@KFM^k@`AKDM?OUO[?_DHm@HUHIHEJAVBj@|APPn@OnAs@PSL]D[@mBy@{Iq@mG","Color":"993333","hasRunTwo":1,"startPoint":{"Latitude":51.425459,"Longitude":-0.131678},"endPoint":{"Latitude":51.519221,"Longitude":-0.173261}},{"Id":2729,"Route":"159","From":"Streatham Station","Towards":"Paddington Basin","Run":"1","IsDay":0,"encodedLevels":"PEBD?ABA@EAE@@ACBC@CEB@@B?A?AF@?D@C?BF@B?AC@?BEA?ABH?A?BDA?E?CA@EB?B?E?@FA@BEB?BAKA@BE?ABG@A@C?A?CG?@BBCAE@ABG?AB@D@F?A@AAAAAB?F??CA@E@@@?@CAH@@?@?@?B???DD@?BC?AD?G@AD@AA?C?A?E??@@GA?F?EG?H?ACE?B?C@@CA?FB@?E?@C@DAC?@EB?P","encodedPoints":"a`{xH~uXIcDuC`AaCVQGqBOQM{GMSFa@?eFqGq@g@UG_CQ[@eCa@eC}A}EqAe@DaFUyEkAqFoB_@WU[y@g@{FgC]MoEiCu@e@sEsBu@?SDoHh@uDu@gFy@gGEo@CoCe@eBy@}@m@iDwCy@k@_GgD{RqK_Am@wHaEeXyMwF_CmKwDmK{DiH_DkEaAe@Ec@AeB@sHJsKj@iGIsO{@qDWuEcAeBc@eC}@{CaBiAc@_AP]VgBfAsAPoAJ[]y@s@mF{Ds@^a@h@cDxCs@F{HAaBIod@sAaCA}CTyD`B{Bv@kF|AaDlBaBnEmAzCkA|AcApCAl@DVd@`AJh@AXGXYl@e@rAs@fu@GHIDQ@eDg@eEIOJaFb@KFsB\\cLxDq@t@ALe@lBU`CUdEEtE|AbGHr@EFiIbGAPQNGIWRAPQNIGaAz@}A`B?RFx@NpHOlAo@jCOTK@UXuCdCKBmHnG_HrFuB~@yAZFFJxAEB?Dl@pI`AjOPlDx@bNF`B~@fRh@vNHxAp@dHNJH@HA|@a@TJNLFXJ~Af@zKS\\_AjAUAKESa@KaBMYKMQEG@MDWPkFxJm@`A}DlHsDhG}EdJ?\\xG|NxBtEeBvC}BjDnOv\\yL|RoDtF_@_C[cB}@qCoFkLQSKEI@KFM^k@`AKDM?OUO[?_DHm@HUHIHEJAVBj@|APPn@OnAs@PSL]D[@mBy@{Iq@mG","Color":"663366","hasRunTwo":1,"startPoint":{"Latitude":51.425459,"Longitude":-0.131678},"endPoint":{"Latitude":51.519221,"Longitude":-0.173261}}]}


