{"Stops" : [{"StopId":14176,"StopCode":"BP2994","PointLetter":"O","StopName":"The Brewery","Latitude":51.575652,"Longitude":0.178671,"Action":0},{"StopId":3224,"StopCode":"R0332","PointLetter":"A","StopName":"Mawney Road","Latitude":51.577393,"Longitude":0.176936,"Action":0},{"StopId":3194,"StopCode":"34113","PointLetter":"C","StopName":"North Street","Latitude":51.579494,"Longitude":0.177584,"Action":0},{"StopId":3623,"StopCode":"34094","PointLetter":"G","StopName":"Romford Market","Latitude":51.580582,"Longitude":0.182905,"Action":0},{"StopId":14257,"StopCode":"LE135","PointLetter":"M","StopName":"Mercury Gardens","Latitude":51.579349,"Longitude":0.184939,"Action":0},{"StopId":3191,"StopCode":"34119","PointLetter":"QQ","StopName":"Western Road","Latitude":51.577502,"Longitude":0.185095,"Action":0},{"StopId":3627,"StopCode":"R0591","PointLetter":"Y","StopName":"Romford Station","Latitude":51.573654,"Longitude":0.184103,"Action":0},{"StopId":14058,"StopCode":"18028","PointLetter":"","StopName":"Thurloe Gardens","Latitude":51.571420,"Longitude":0.184789,"Action":0},{"StopId":14080,"StopCode":"18482","PointLetter":"","StopName":"South Street","Latitude":51.571063,"Longitude":0.187053,"Action":0},{"StopId":13766,"StopCode":"18484","PointLetter":"","StopName":"Albert Road","Latitude":51.572277,"Longitude":0.191844,"Action":0},{"StopId":14541,"StopCode":"18486","PointLetter":"","StopName":"Princes Road","Latitude":51.573611,"Longitude":0.196007,"Action":0},{"StopId":14047,"StopCode":"18488","PointLetter":"","StopName":"Frances Bardsley School","Latitude":51.574319,"Longitude":0.199966,"Action":0},{"StopId":14268,"StopCode":"18490","PointLetter":"AL","StopName":"Cranham Road","Latitude":51.574717,"Longitude":0.204142,"Action":0},{"StopId":14243,"StopCode":"18492","PointLetter":"AM","StopName":"Salisbury Road","Latitude":51.575726,"Longitude":0.205966,"Action":0},{"StopId":14308,"StopCode":"20084","PointLetter":"AC","StopName":"The Drill Roundabout","Latitude":51.577528,"Longitude":0.208680,"Action":0},{"StopId":14444,"StopCode":"18256","PointLetter":"AD","StopName":"Brooklands Gardens","Latitude":51.575034,"Longitude":0.212181,"Action":0},{"StopId":14601,"StopCode":"18257","PointLetter":"ES","StopName":"Walden Way","Latitude":51.573623,"Longitude":0.216904,"Action":0},{"StopId":14909,"StopCode":"18260","PointLetter":"EK","StopName":"Burntwood Avenue","Latitude":51.572492,"Longitude":0.218668,"Action":0},{"StopId":14442,"StopCode":"18261","PointLetter":"EL","StopName":"Emerson Park Station","Latitude":51.569657,"Longitude":0.219756,"Action":0},{"StopId":13843,"StopCode":"18264","PointLetter":"EM","StopName":"Burnway","Latitude":51.567104,"Longitude":0.220166,"Action":0},{"StopId":14303,"StopCode":"18266","PointLetter":"D","StopName":"Queens Theatre","Latitude":51.564197,"Longitude":0.220255,"Action":0},{"StopId":14899,"StopCode":"8527","PointLetter":"F","StopName":"Hornchurch Town Centre","Latitude":51.561694,"Longitude":0.221403,"Action":0},{"StopId":13869,"StopCode":"8528","PointLetter":"G","StopName":"Hornchurch Town Centre","Latitude":51.561610,"Longitude":0.220605,"Action":0},{"StopId":13862,"StopCode":"9768","PointLetter":"B","StopName":"Billet Lane","Latitude":51.562907,"Longitude":0.216224,"Action":0},{"StopId":14831,"StopCode":"14696","PointLetter":"P","StopName":"Abbs Cross Gardens","Latitude":51.562375,"Longitude":0.212476,"Action":0},{"StopId":14380,"StopCode":"18423","PointLetter":"Q","StopName":"Stanley Road","Latitude":51.558934,"Longitude":0.209467,"Action":0},{"StopId":14346,"StopCode":"18425","PointLetter":"R","StopName":"Suttons Avenue","Latitude":51.556017,"Longitude":0.208186,"Action":0},{"StopId":14212,"StopCode":"18428","PointLetter":"","StopName":"Abbs Cross School","Latitude":51.553419,"Longitude":0.206229,"Action":0},{"StopId":14147,"StopCode":"25708","PointLetter":"","StopName":"Brian Close","Latitude":51.552081,"Longitude":0.202298,"Action":0},{"StopId":14693,"StopCode":"26547","PointLetter":"L","StopName":"Elm Parade","Latitude":51.551194,"Longitude":0.199717,"Action":0},{"StopId":14097,"StopCode":"18380","PointLetter":"M","StopName":"Elm Park Station","Latitude":51.549514,"Longitude":0.199607,"Action":0},{"StopId":14533,"StopCode":"26549","PointLetter":"S","StopName":"Ambleside Avenue","Latitude":51.547364,"Longitude":0.198724,"Action":0},{"StopId":14083,"StopCode":"26551","PointLetter":"T","StopName":"Aldingham Gardens","Latitude":51.544830,"Longitude":0.195718,"Action":0},{"StopId":13780,"StopCode":"R0074","PointLetter":"P","StopName":"Wood Lane","Latitude":51.543498,"Longitude":0.194817,"Action":0},{"StopId":13871,"StopCode":"29332","PointLetter":"R","StopName":"Freeborne Gardens","Latitude":51.541058,"Longitude":0.193056,"Action":0},{"StopId":14677,"StopCode":"29336","PointLetter":"S","StopName":"Kingaby Gardens","Latitude":51.537898,"Longitude":0.195615,"Action":0},{"StopId":14007,"StopCode":"29408","PointLetter":"T","StopName":"Albyns Close","Latitude":51.536029,"Longitude":0.197458,"Action":0},{"StopId":14783,"StopCode":"29338","PointLetter":"P","StopName":"Ford Lane","Latitude":51.533720,"Longitude":0.192040,"Action":0},{"StopId":14174,"StopCode":"29340","PointLetter":"Q","StopName":"Alexandra Road","Latitude":51.530208,"Longitude":0.190862,"Action":0},{"StopId":14735,"StopCode":"26555","PointLetter":"R","StopName":"Rainham Road","Latitude":51.528352,"Longitude":0.188654,"Action":0},{"StopId":13761,"StopCode":"26556","PointLetter":"X","StopName":"Stanley Road South","Latitude":51.525549,"Longitude":0.185579,"Action":0},{"StopId":14811,"StopCode":"26559","PointLetter":"Y","StopName":"Dunedin Road","Latitude":51.523823,"Longitude":0.182209,"Action":0},{"StopId":14736,"StopCode":"26560","PointLetter":"Z","StopName":"Manor Way","Latitude":51.522889,"Longitude":0.182121,"Action":0},{"StopId":14578,"StopCode":"18384","PointLetter":"H","StopName":"Dovers Corner","Latitude":51.522037,"Longitude":0.186319,"Action":0},{"StopId":13941,"StopCode":"BP776","PointLetter":"F","StopName":"Rainham Tesco","Latitude":51.519479,"Longitude":0.190910,"Action":0},{"StopId":14542,"StopCode":"18447","PointLetter":"E","StopName":"Rainham Village School","Latitude":51.519539,"Longitude":0.196808,"Action":0},{"StopId":14700,"StopCode":"18449","PointLetter":"","StopName":"Brights Avenue","Latitude":51.519955,"Longitude":0.201513,"Action":0},{"StopId":14316,"StopCode":"9755","PointLetter":"","StopName":"New Road","Latitude":51.520468,"Longitude":0.204824,"Action":0},{"StopId":14866,"StopCode":"20806","PointLetter":"","StopName":"Allen Road","Latitude":51.521378,"Longitude":0.210000,"Action":0},{"StopId":14935,"StopCode":"9757","PointLetter":"","StopName":"King Edward Avenue","Latitude":51.522231,"Longitude":0.213861,"Action":0},{"StopId":14403,"StopCode":"18451","PointLetter":"","StopName":"Acer Avenue","Latitude":51.522830,"Longitude":0.217854,"Action":0},{"StopId":14148,"StopCode":"33791","PointLetter":"","StopName":"Lake Avenue","Latitude":51.525727,"Longitude":0.217318,"Action":0},{"StopId":13935,"StopCode":"33793","PointLetter":"","StopName":"King Edward Avenue","Latitude":51.525768,"Longitude":0.213716,"Action":0},{"StopId":14904,"StopCode":"33794","PointLetter":"","StopName":"Briscoe Road","Latitude":51.526367,"Longitude":0.211553,"Action":0},{"StopId":13870,"StopCode":"33795","PointLetter":"","StopName":"Abbey Wood Lane","Latitude":51.529369,"Longitude":0.213501,"Action":0}], "Routes" : [{"Id":7228,"Route":"165","From":"The Brewery","Towards":"Abbey Wood Lane","Run":"1","IsDay":1,"encodedLevels":"PCB@AEDAC@B@E?@@A?AC@CA?@G@B@A?CD?@BHA?C@?@B?@DA@??@F@A@B??AB?AEDAAE?AB?BEF@C@B??E@BHACA??A?C?AAE?C?BF?ACDAC?A?B@?HA?B?A@BC@@BF@@C@B@CJ@@AB@EA??C?AC@B@E@@B@HAD@AACADEABAG@AAACBEA?@B@G?A?BAHBA?FA@BCAAC@?CCB?CEAD@?C@BH?A?C?@D?C?AAHD@?DAF@BD@?D?AF@@D@A@EA@@A?D?ABJ@AC?D@C@@@@F@?A?D?@CB@AAFA?AB@BD?B@?B@G@BA@D@@C@@HA@G@AGA?AF@AB?P","encodedPoints":"{kxyHcxa@v@YOqADSFENFZxCoBz@cAx@@`@Gb@WXMDOCGEW@QEwBIw@?gFi@cCwAq@g@_@IWJQ@]IEKEo@DSb@w@F[@a@{BoO?k@P_DL}FUoABa@P[FEPBXNLNPDPBTAXIxFyF\\c@Zm@?EV]D?LDLV?f@EHFRl@jA\\~@B^FAHBXp@rAaBp@hBbAnE@l@H?TIlAoANu@FG\\Cp@hC^YjC_AZ?lFy@T?R@tD?\\Sf@k@rDiIqCuJmBoIq@aGC_@@o@K{BGk@Q}@gCkLk@_CmC_JiAqF@kBLcNWiGKyA{@_HUw@aAmCq@kAiDeD{EkD_CqAGLIFQFO?IEEOAK?UJOLKFEN@NDFNZ[bBqBhBaCfHiIt@{AHk@L_BdA}HdAuBp@oB\\uAt@}DLyHXSNAvEoCnD}ArAc@pCo@dAIvCAdBDf@AzAY\\M|Fo@~GCfJMnA@jBN\\i@`C{EDYPKL@j@bBC^ILmAb@a@CYJ{@`Ak@jAkAtJU|CQdHC~KNpDPFTPbEtEbA|A|ClCrA\\rHfFrChAjAVlHlBtIdCh@R~A|@EZ?P@RPv@nLff@dBzFhMmED_@LID?PPBREP~H|JpDdDNCZZBZ^hADVjDfEn@f@L@ZGHpAlAB|En@b@X|BxCl@n@bBlAj@XrCz@\\@LAbA[PKZULOj@_AJS|CiJ^g@nDoG\\kAfB_DfGbKRlAFlA|@|Ib@dAnCrE~AbBx@l@`C`A|@NdABfI`@XHb@ThB~A^d@b@jAzGrMzBfBrDhDzGtERVPp@@v@GnABlBFn@H`@\\v@LPvAvAzBpADGLeAh@aAxAeO|@_KXiHDiEE}@O_AGGSwABMHWDINKFCP@FBNLz@pAvBXzB~@DJf@JHGXo@B]JaA`@oBFBHPVw@De@B}@Ea@EIIKRqCZmI_@}BkA{LkBo_@u@eKy@kNwBcQwA}JmCcTYmC]gFe@iImE|@wK|Cm@JZpFj@jMz@rJiAZeDj@uJzAcAAMUMaAm@oGCgA?eB","Color":"993333","hasRunTwo":1,"startPoint":{"Latitude":51.575823,"Longitude":0.178106},"endPoint":{"Latitude":51.529311,"Longitude":0.213703}}]}


