{"Stops" : [{"StopId":18711,"StopCode":"35457","PointLetter":"FA","StopName":"Clayhall / The Glade","Latitude":51.596249,"Longitude":0.060969,"Action":0},{"StopId":18775,"StopCode":"34769","PointLetter":"FB","StopName":"Owen Waters House","Latitude":51.597702,"Longitude":0.063201,"Action":0},{"StopId":18768,"StopCode":"33404","PointLetter":"FC","StopName":"Copper Beech Close","Latitude":51.597460,"Longitude":0.065731,"Action":0},{"StopId":18859,"StopCode":"35403","PointLetter":"FD","StopName":"Caterham Avenue","Latitude":51.596926,"Longitude":0.068479,"Action":0},{"StopId":18767,"StopCode":"33415","PointLetter":"FE","StopName":"Calne Avenue","Latitude":51.596381,"Longitude":0.071313,"Action":0},{"StopId":18833,"StopCode":"33401","PointLetter":"","StopName":"Ravensbourne Gardens","Latitude":51.595744,"Longitude":0.074288,"Action":0},{"StopId":18832,"StopCode":"33399","PointLetter":"H","StopName":"Mossford Lane","Latitude":51.594927,"Longitude":0.078308,"Action":0},{"StopId":18772,"StopCode":"33397","PointLetter":"F","StopName":"Aintree Crescent","Latitude":51.594320,"Longitude":0.081615,"Action":0},{"StopId":3678,"StopCode":"20198","PointLetter":"D","StopName":"Fullwell Cross","Latitude":51.592565,"Longitude":0.084206,"Action":0},{"StopId":3516,"StopCode":"9613","PointLetter":"G","StopName":"Waverley Gardens","Latitude":51.591033,"Longitude":0.082879,"Action":0},{"StopId":3199,"StopCode":"29018","PointLetter":"N","StopName":"Barkingside Police Station","Latitude":51.588860,"Longitude":0.081178,"Action":0},{"StopId":18807,"StopCode":"9609","PointLetter":"T","StopName":"Barnardo House","Latitude":51.588037,"Longitude":0.083421,"Action":0},{"StopId":18737,"StopCode":"9605","PointLetter":"U","StopName":"Barkingside Station","Latitude":51.587331,"Longitude":0.085251,"Action":0},{"StopId":18736,"StopCode":"9603","PointLetter":"","StopName":"Princes Road","Latitude":51.583312,"Longitude":0.084691,"Action":0},{"StopId":18809,"StopCode":"9599","PointLetter":"","StopName":"Aldwych Avenue","Latitude":51.580876,"Longitude":0.084104,"Action":0},{"StopId":18811,"StopCode":"9597","PointLetter":"NP","StopName":"Hamilton Avenue","Latitude":51.578268,"Longitude":0.083580,"Action":0},{"StopId":18664,"StopCode":"9595","PointLetter":"NR","StopName":"Artillery Close","Latitude":51.576307,"Longitude":0.083606,"Action":0},{"StopId":18812,"StopCode":"9591","PointLetter":"NE","StopName":"Eastern Avenue","Latitude":51.574198,"Longitude":0.083899,"Action":0},{"StopId":18735,"StopCode":"9589","PointLetter":"NH","StopName":"Clifton Road","Latitude":51.572853,"Longitude":0.083679,"Action":0},{"StopId":18815,"StopCode":"9585","PointLetter":"NS","StopName":"Parklands Close","Latitude":51.571371,"Longitude":0.083553,"Action":0},{"StopId":18662,"StopCode":"9583","PointLetter":"","StopName":"Perth Road","Latitude":51.568251,"Longitude":0.084060,"Action":0},{"StopId":18823,"StopCode":"9581","PointLetter":"","StopName":"Benton Road","Latitude":51.566473,"Longitude":0.083907,"Action":0},{"StopId":18816,"StopCode":"9577","PointLetter":"","StopName":"Jaffe Road","Latitude":51.564027,"Longitude":0.082915,"Action":0},{"StopId":18682,"StopCode":"9575","PointLetter":"","StopName":"Griggs Approach","Latitude":51.562379,"Longitude":0.078468,"Action":0},{"StopId":15142,"StopCode":"FC41","PointLetter":"V","StopName":"Hainault Street","Latitude":51.559431,"Longitude":0.075852,"Action":0},{"StopId":282,"StopCode":"BP3460","PointLetter":"Q","StopName":"Ilford Central Library","Latitude":51.557853,"Longitude":0.074078,"Action":0},{"StopId":370,"StopCode":"FC44","PointLetter":"P","StopName":"Chapel Road","Latitude":51.557696,"Longitude":0.070233,"Action":0},{"StopId":16864,"StopCode":"9560","PointLetter":"D","StopName":"Dudley Road","Latitude":51.554043,"Longitude":0.072895,"Action":0},{"StopId":17052,"StopCode":"9556","PointLetter":"E","StopName":"Kingston Road","Latitude":51.551591,"Longitude":0.074211,"Action":0},{"StopId":17165,"StopCode":"9554","PointLetter":"F","StopName":"Wingate Road","Latitude":51.548614,"Longitude":0.075778,"Action":0},{"StopId":15683,"StopCode":"9550","PointLetter":"H","StopName":"Loxford Polyclinic","Latitude":51.545444,"Longitude":0.077076,"Action":0},{"StopId":15684,"StopCode":"9548","PointLetter":"","StopName":"Park Avenue","Latitude":51.543525,"Longitude":0.078791,"Action":0},{"StopId":15554,"StopCode":"9544","PointLetter":"R","StopName":"Longbridge Road","Latitude":51.541682,"Longitude":0.082284,"Action":0},{"StopId":21811,"StopCode":"BP5755","PointLetter":"N","StopName":"Barking Station","Latitude":51.539850,"Longitude":0.082157,"Action":0},{"StopId":16815,"StopCode":"BP428","PointLetter":"M","StopName":"Barking Town Centre","Latitude":51.538015,"Longitude":0.078108,"Action":0}], "Routes" : [{"Id":6153,"Route":"169","From":"Clayhall / The Glade","Towards":"Barking Town Centre","Run":"1","IsDay":1,"encodedLevels":"P?CA?D?BBA?A@E?B?F?@B@C@BA?AJ?AC@?A?DB?@G@@A@D@@AB@DCB?G@A@?AC?EB@?BC?BD?B@?D@@HCAEAC?C@@C?B@FAC?D?DAC@F??BAEA@AE@B@H@C@D?B@A@DA?AD?BD@@AC@?CF@CBB@H@AAE@C@EA?CAE???P","encodedPoints":"ol|yHi{J\\?b@BJRAVELKFODi@kAiByBUQg@Uk@o@GUIk@W}D?mAFuDPwBfBuOlEs_@`CoPtAaLB}@jDq\\b@aIA_@?kDNKJATBNPLd@@d@Fj@Pj@DDfQlN|F|DjBtATHPAFIVCDHVA?QIG?k@P{LHqAVyAx@aC~AqBPId@I\\@zJzBvFx@tB`@`JpApGnA~ADfG\\|EJf@GpG[tCSvFAdCd@r@HhDBh@ErEo@xFQXCbHY|@BlIjAl@P|DfBn@j@`@x@tA`FdBtIpC~IJVRVLBl@\\?P`@jDZ~@NTTLnB@lBo@`Bg@T|BHd@vAm@hAORJNVHX\\pCR~@x@xBhB`IINsDzAu@TKN?`@h@tDZdAHDlB?`@Ij@QnAy@NORa@T_BEOJm@HGNALNDL~AZXSxGcF`FoCfA]dQwHfA_@hHmD|DiA`ASlHkBlCeBbCkBR[rEcJ~EeMbCkEHGNJ`@|@dIpKr@xAk@zAkBrGFh@Nd@NPHBNCZe@jDwBDTBl@VtDJhA","Color":"993333","hasRunTwo":1,"startPoint":{"Latitude":51.596403,"Longitude":0.060850},"endPoint":{"Latitude":51.537974,"Longitude":0.077360}}]}


