{"Stops" : [{"StopId":12623,"StopCode":"35995","PointLetter":"","StopName":"Danebury Avenue / Minstead Gardens","Latitude":51.452238,"Longitude":-0.248151,"Action":0},{"StopId":12696,"StopCode":"29788","PointLetter":"","StopName":"Mount Angelus Road","Latitude":51.451068,"Longitude":-0.246886,"Action":0},{"StopId":12619,"StopCode":"29790","PointLetter":"B","StopName":"Roehampton Library","Latitude":51.449769,"Longitude":-0.242460,"Action":0},{"StopId":15824,"StopCode":"37446","PointLetter":"E","StopName":"Medfield Street","Latitude":51.449766,"Longitude":-0.239870,"Action":0},{"StopId":12483,"StopCode":"19560","PointLetter":"H","StopName":"Dover Park Drive","Latitude":51.451842,"Longitude":-0.233774,"Action":0},{"StopId":12761,"StopCode":"2369","PointLetter":"J","StopName":"Exeter House","Latitude":51.452541,"Longitude":-0.229458,"Action":0},{"StopId":12628,"StopCode":"36785","PointLetter":"K","StopName":"Hayward Gardens","Latitude":51.453234,"Longitude":-0.224724,"Action":0},{"StopId":11789,"StopCode":"BP4691","PointLetter":"L","StopName":"Putney Heath / Green Man","Latitude":51.453513,"Longitude":-0.221144,"Action":0},{"StopId":12480,"StopCode":"1749","PointLetter":"R","StopName":"Tibbet's Ride / Green Man","Latitude":51.451701,"Longitude":-0.221474,"Action":0},{"StopId":12511,"StopCode":"34083","PointLetter":"PC","StopName":"Tibbet's Corner","Latitude":51.449174,"Longitude":-0.221456,"Action":0},{"StopId":12550,"StopCode":"26150","PointLetter":"PG","StopName":"Beaumont Road","Latitude":51.451076,"Longitude":-0.217612,"Action":0},{"StopId":12597,"StopCode":"26148","PointLetter":"EL","StopName":"Lytton Grove","Latitude":51.453294,"Longitude":-0.212689,"Action":0},{"StopId":12552,"StopCode":"26146","PointLetter":"EJ","StopName":"West Hill Road","Latitude":51.454776,"Longitude":-0.209019,"Action":0},{"StopId":12554,"StopCode":"26144","PointLetter":"EG","StopName":"Upper Richmond Road","Latitude":51.456497,"Longitude":-0.203366,"Action":0},{"StopId":11821,"StopCode":"2365","PointLetter":"A","StopName":"Wandsworth Museum","Latitude":51.456959,"Longitude":-0.199476,"Action":0},{"StopId":11784,"StopCode":"BP252","PointLetter":"E","StopName":"Armoury Way","Latitude":51.458479,"Longitude":-0.195990,"Action":0},{"StopId":11504,"StopCode":"33272","PointLetter":"N","StopName":"Wandsworth Town Hall","Latitude":51.457639,"Longitude":-0.189891,"Action":0},{"StopId":11360,"StopCode":"597","PointLetter":"A","StopName":"East Hill / Alma Road","Latitude":51.457706,"Longitude":-0.185498,"Action":0},{"StopId":11741,"StopCode":"8966","PointLetter":"B","StopName":"Marcilly Road","Latitude":51.459571,"Longitude":-0.180472,"Action":0},{"StopId":11358,"StopCode":"8970","PointLetter":"C","StopName":"Plough Road","Latitude":51.461336,"Longitude":-0.174298,"Action":0},{"StopId":21357,"StopCode":"BP5645","PointLetter":"C","StopName":"Clapham Junction Station","Latitude":51.463038,"Longitude":-0.170415,"Action":0},{"StopId":1793,"StopCode":"25569","PointLetter":"E","StopName":"Clapham Junction Station / Falcon Road","Latitude":51.464315,"Longitude":-0.168104,"Action":0},{"StopId":15792,"StopCode":"LG37","PointLetter":"A","StopName":"Clapham Junction Station  / Grant Road","Latitude":51.465286,"Longitude":-0.171002,"Action":0},{"StopId":6493,"StopCode":"34968","PointLetter":"A","StopName":"Wayland Road Estate","Latitude":51.464554,"Longitude":-0.177121,"Action":0},{"StopId":6492,"StopCode":"34970","PointLetter":"B","StopName":"Wallis Close","Latitude":51.465343,"Longitude":-0.177550,"Action":0},{"StopId":11989,"StopCode":"25522","PointLetter":"D","StopName":"York Gardens","Latitude":51.468585,"Longitude":-0.177810,"Action":0},{"StopId":15805,"StopCode":"LG38","PointLetter":"E","StopName":"Lombard Road","Latitude":51.470639,"Longitude":-0.177498,"Action":0},{"StopId":15803,"StopCode":"LG61","PointLetter":"F","StopName":"Battersea High Street","Latitude":51.474391,"Longitude":-0.176470,"Action":0},{"StopId":15826,"StopCode":"LG41","PointLetter":"G","StopName":"Granfield Street","Latitude":51.475631,"Longitude":-0.173469,"Action":0},{"StopId":15819,"StopCode":"LG43","PointLetter":"BP","StopName":"Parkgate Road","Latitude":51.477652,"Longitude":-0.170464,"Action":0},{"StopId":1871,"StopCode":"12871","PointLetter":"BL","StopName":"Battersea Bridge / Hester Road","Latitude":51.479771,"Longitude":-0.171445,"Action":0},{"StopId":15807,"StopCode":"2661","PointLetter":"BB","StopName":"Beaufort Street","Latitude":51.482635,"Longitude":-0.171677,"Action":0},{"StopId":15821,"StopCode":"11288","PointLetter":"QE","StopName":" Albert Bridge/Cadogan Pier","Latitude":51.483163,"Longitude":-0.168660,"Action":0},{"StopId":15816,"StopCode":"11325","PointLetter":"","StopName":"Chelsea Physic Garden","Latitude":51.484610,"Longitude":-0.163446,"Action":0},{"StopId":15793,"StopCode":"11286","PointLetter":"","StopName":"National Army Museum","Latitude":51.486741,"Longitude":-0.160508,"Action":0},{"StopId":15804,"StopCode":"11283","PointLetter":"N","StopName":"Royal Hospital Chelsea / Lower Sloane St","Latitude":51.488925,"Longitude":-0.157021,"Action":0},{"StopId":11940,"StopCode":"9418","PointLetter":"P","StopName":"Chelsea Bridge Road","Latitude":51.490023,"Longitude":-0.155334,"Action":0},{"StopId":11949,"StopCode":"35311","PointLetter":"R","StopName":"Ebury Bridge Road","Latitude":51.490891,"Longitude":-0.151093,"Action":0},{"StopId":10327,"StopCode":"7820","PointLetter":"W","StopName":"Victoria Coach Station","Latitude":51.492108,"Longitude":-0.148407,"Action":0},{"StopId":10351,"StopCode":"35312","PointLetter":"T","StopName":"Eccleston Bridge","Latitude":51.493492,"Longitude":-0.147242,"Action":0},{"StopId":11040,"StopCode":"31","PointLetter":"A","StopName":"Victoria Bus Station","Latitude":51.495958,"Longitude":-0.143929,"Action":0}], "Routes" : [{"Id":6813,"Route":"170","From":"Danebury Avenue / Minstead Gardens","Towards":"Victoria Bus Station","Run":"1","IsDay":1,"encodedLevels":"P@A?C@E@BG?@C@DBE@AEE@?C?AAC@G@BA@?EAC@H?AB?@B@DB??BA?F@A?D?B@BE@?CB?BFD?BAF?A?FAA?D?@AD@@D?AJ@?@?AB@F?ACABB?BF??BH?@BDE@C@DBCABG@B?AD?B?E??GIAB??D?@AFB@@B@ADAF?B?CB@EA@ACAE??A@C@?P","encodedPoints":"yi`yH`ro@Ti@r@}@^YzDcE`AiCdBkDVoAnAmM`@uHCGU[c@c@Rw@XkBs@}J{AyJIEM@}BvAsBsOcBeQoBaVaAiKOmECmBJ}FMaE]oAYoBFMLGz@n@pGdCzGxCnFxBZAXURsAAQEc@Og@yBiGyEqLiAiCcDyIsDiKgGiRqCuJ]wA}AyH{D{R]{Am@}AIO@c@W}JKeCo@aMSQME_@NeALWSo@eD_BsKK_Aw@gJDw@@gEe@eB@eB~@QrD_AvBu@hAo@BO?Ym@iFeBqPk@kCoCyHg@eBuAmF]_B_A_G_DgTqAmGsCkGmDuI_@mAg@_C}BcM{@}CKHYFQ?QHWJmFjCaAn@_A~@Tv@Th@lAzBdAtGLrBtEzS@VCbA\\dB}K`F}Av@q@Xa@x@QKwC_AcASaCuAkBeDq@~@k@b@YHsBTcD@oFkA}CEONcC][[gCcEo@mBM[]SMq@gAyHYqAwA}FkA_AuEiDyByAcW`UkBaNgBaQMg@MYi@_BD[?y@IsJQiCO_@SK]CYMSW[y@eJ}LyCgGmRw]IU_BiLUoC}@sJZqB[e@G]u@aAQ?]UqEeFcRsLmB}AF[FKHi@XcC?[SqAOq@MY","Color":"993333","hasRunTwo":1,"startPoint":{"Latitude":51.452617,"Longitude":-0.248806},"endPoint":{"Latitude":51.496198,"Longitude":-0.143222}}]}


