{"Stops" : [{"StopId":5472,"StopCode":"R0798","PointLetter":"GH","StopName":"Golders Green Station","Latitude":51.571918,"Longitude":-0.194028,"Action":0},{"StopId":5310,"StopCode":"14462","PointLetter":"GN","StopName":"Finchley Road","Latitude":51.571908,"Longitude":-0.196308,"Action":0},{"StopId":5525,"StopCode":"15914","PointLetter":"A","StopName":"Hoop Lane","Latitude":51.573786,"Longitude":-0.200852,"Action":0},{"StopId":5389,"StopCode":"15917","PointLetter":"B","StopName":"Woodstock Avenue","Latitude":51.575384,"Longitude":-0.203646,"Action":0},{"StopId":5435,"StopCode":"15918","PointLetter":"C","StopName":"Limes Avenue","Latitude":51.577373,"Longitude":-0.206671,"Action":0},{"StopId":5336,"StopCode":"15920","PointLetter":"D","StopName":"Golders Manor Drive","Latitude":51.580009,"Longitude":-0.209727,"Action":0},{"StopId":5474,"StopCode":"4690","PointLetter":"E","StopName":"North Circular Road","Latitude":51.581627,"Longitude":-0.213200,"Action":0},{"StopId":5365,"StopCode":"15921","PointLetter":"F","StopName":"Brent Street / Green Lane","Latitude":51.583429,"Longitude":-0.216377,"Action":0},{"StopId":9254,"StopCode":"15924","PointLetter":"X","StopName":"Bell Lane","Latitude":51.585732,"Longitude":-0.219981,"Action":0},{"StopId":9253,"StopCode":"15925","PointLetter":"V","StopName":"The Quadrant","Latitude":51.589002,"Longitude":-0.221586,"Action":0},{"StopId":8845,"StopCode":"15927","PointLetter":"R","StopName":"Church End","Latitude":51.589947,"Longitude":-0.225158,"Action":0},{"StopId":8857,"StopCode":"15929","PointLetter":"P","StopName":"Hendon Town Hall","Latitude":51.588191,"Longitude":-0.228604,"Action":0},{"StopId":8863,"StopCode":"15951","PointLetter":"N","StopName":"Watford Way","Latitude":51.586541,"Longitude":-0.230069,"Action":0},{"StopId":8861,"StopCode":"34454","PointLetter":"K","StopName":"Edgeworth Avenue","Latitude":51.585554,"Longitude":-0.231435,"Action":0},{"StopId":8866,"StopCode":"15933","PointLetter":"","StopName":"Audley Road","Latitude":51.583124,"Longitude":-0.233651,"Action":0},{"StopId":2337,"StopCode":"17580","PointLetter":"HE","StopName":"Hendon Station","Latitude":51.579996,"Longitude":-0.237987,"Action":0},{"StopId":5511,"StopCode":"BP1693","PointLetter":"HL","StopName":"West Hendon Broadway","Latitude":51.578226,"Longitude":-0.240437,"Action":0},{"StopId":5312,"StopCode":"6052","PointLetter":"HM","StopName":"West Hendon Broadway / Herbert Road","Latitude":51.579250,"Longitude":-0.241581,"Action":0},{"StopId":5305,"StopCode":"6056","PointLetter":"HP","StopName":"Hendon Magistrates Court","Latitude":51.581986,"Longitude":-0.245344,"Action":0},{"StopId":5390,"StopCode":"11136","PointLetter":"HS","StopName":"Edgware Road / The Hyde","Latitude":51.584104,"Longitude":-0.248698,"Action":0},{"StopId":5386,"StopCode":"34606","PointLetter":"E","StopName":"Springfield Gardens","Latitude":51.582611,"Longitude":-0.252927,"Action":0},{"StopId":5428,"StopCode":"15936","PointLetter":"F","StopName":"Townsend Lane","Latitude":51.582213,"Longitude":-0.257590,"Action":0},{"StopId":8849,"StopCode":"17170","PointLetter":"H","StopName":"Church Lane","Latitude":51.583031,"Longitude":-0.263015,"Action":0},{"StopId":2336,"StopCode":"17171","PointLetter":"J","StopName":"Slough Lane","Latitude":51.584412,"Longitude":-0.267033,"Action":0},{"StopId":8858,"StopCode":"17173","PointLetter":"M","StopName":"Valley Drive","Latitude":51.585936,"Longitude":-0.274683,"Action":0},{"StopId":2376,"StopCode":"14853","PointLetter":"B","StopName":"Kingsbury Station","Latitude":51.584844,"Longitude":-0.279301,"Action":0},{"StopId":9116,"StopCode":"17176","PointLetter":"U","StopName":"Preston Hill","Latitude":51.585459,"Longitude":-0.285687,"Action":0},{"StopId":9113,"StopCode":"18454","PointLetter":"V","StopName":"Clifton Road","Latitude":51.585888,"Longitude":-0.289221,"Action":0},{"StopId":9139,"StopCode":"17178","PointLetter":"","StopName":"Shrewsbury Avenue","Latitude":51.586470,"Longitude":-0.293978,"Action":0},{"StopId":9146,"StopCode":"18456","PointLetter":"","StopName":"Charlton Road","Latitude":51.586746,"Longitude":-0.298789,"Action":0},{"StopId":9171,"StopCode":"17180","PointLetter":"W","StopName":"Kenton Park Avenue","Latitude":51.587200,"Longitude":-0.302828,"Action":0},{"StopId":7996,"StopCode":"16125","PointLetter":"H","StopName":"Woodcock Hill / Kenton Lane","Latitude":51.586206,"Longitude":-0.307441,"Action":0},{"StopId":4715,"StopCode":"25066","PointLetter":"L","StopName":"St Leonard's Avenue","Latitude":51.584998,"Longitude":-0.310965,"Action":0},{"StopId":4858,"StopCode":"16126","PointLetter":"LL","StopName":"Upton Gardens","Latitude":51.583340,"Longitude":-0.314505,"Action":0},{"StopId":4614,"StopCode":"1757","PointLetter":"II","StopName":"Kenton Station","Latitude":51.581096,"Longitude":-0.318557,"Action":0},{"StopId":4804,"StopCode":"20040","PointLetter":"FF","StopName":"Northwick Avenue","Latitude":51.579604,"Longitude":-0.322379,"Action":0},{"StopId":7886,"StopCode":"16128","PointLetter":"CC","StopName":"Harrow High School","Latitude":51.579446,"Longitude":-0.327697,"Action":0},{"StopId":21813,"StopCode":"BP5742","PointLetter":"Q","StopName":"Gayton Road","Latitude":51.581047,"Longitude":-0.329629,"Action":0},{"StopId":21289,"StopCode":"BP5591","PointLetter":"H","StopName":"Harrow Town Centre / St John's Road","Latitude":51.582282,"Longitude":-0.332327,"Action":0},{"StopId":21290,"StopCode":"BP5592","PointLetter":"J","StopName":"Harrow Town Centre","Latitude":51.580712,"Longitude":-0.333885,"Action":0},{"StopId":9150,"StopCode":"R0840","PointLetter":"D","StopName":"Harrow Bus Station","Latitude":51.580068,"Longitude":-0.337936,"Action":0},{"StopId":9137,"StopCode":"17183","PointLetter":"WH","StopName":"Neptune Road","Latitude":51.581267,"Longitude":-0.345123,"Action":0},{"StopId":9136,"StopCode":"17184","PointLetter":"WJ","StopName":"Oxford Road","Latitude":51.581254,"Longitude":-0.349324,"Action":0},{"StopId":9134,"StopCode":"17186","PointLetter":"WK","StopName":"The Gardens","Latitude":51.582886,"Longitude":-0.354086,"Action":0},{"StopId":9145,"StopCode":"18460","PointLetter":"NJ","StopName":"Durham Road","Latitude":51.584207,"Longitude":-0.357921,"Action":0},{"StopId":9196,"StopCode":"4547","PointLetter":"NB","StopName":"North Harrow Post Office","Latitude":51.586627,"Longitude":-0.361861,"Action":0},{"StopId":9132,"StopCode":"17188","PointLetter":"","StopName":"Southfield Park","Latitude":51.589064,"Longitude":-0.363159,"Action":0},{"StopId":9265,"StopCode":"17191","PointLetter":"","StopName":"Betjeman Close","Latitude":51.590568,"Longitude":-0.367797,"Action":0},{"StopId":9248,"StopCode":"4550","PointLetter":"","StopName":"Pinner Cemetery","Latitude":51.590717,"Longitude":-0.372050,"Action":0},{"StopId":9175,"StopCode":"7500","PointLetter":"F","StopName":"Eastcote Road","Latitude":51.589871,"Longitude":-0.379154,"Action":0},{"StopId":9100,"StopCode":"17474","PointLetter":"B","StopName":"Pinner Station","Latitude":51.592402,"Longitude":-0.382067,"Action":0},{"StopId":9242,"StopCode":"34523","PointLetter":"Z1","StopName":"Pinner Station  / Bridge Street","Latitude":51.594420,"Longitude":-0.382991,"Action":0}], "Routes" : [{"Id":1614,"Route":"183","From":"Golders Green Station","Towards":"Pinner Station  / Bridge Street","Run":"1","IsDay":1,"encodedLevels":"PD?E@BABDA?C?@A@FAADB@@AE?@C?@C@?B@@F?B?@CAEI?BF?A?BB@D@D?ABADC?AD?C@CHC?BA?H@??CBEAG@B@B?ACDAF?A?C?AAC?@BA@F?B@?CDBA@BAAH@B@D?E@B?@@?AD?AAADA?A?DA?I?ACC??AA?GA@DB@GA@@E@?BEB?E??@@AB?D@AGAF?B@D@BD??G?@AB@?AE??EA@D?G@?C@DA?@DA?P","encodedPoints":"ktwyH|`e@h@eET@l@HU|BC~@BZd@`@Gr@e@DSRELIZa@zCiBpJOx@e@pA_DbGeIfQuEpIaGvJgC|Ci@d@wHfJo@jAWt@o@hCuC~IYf@m@z@eDfGEX}CfHa@fAsAbEc@fBqAxDcA`AyAhAcErBe@ZqHjDkDl@cDbAe@pGGzAE~Dh@tQNVXVdAf@lAd@zDnC\\`@pGfFd@t@xFnKVRJN|EtB|AdArCnCtDfEfAfCzDlIl@z@~CnDNJ`@HfDrAt@|AmItJqDpF}H|LiFtG_D|EgA|ANf@v@lEJ~@lBfK~CvHPnANjCX`UInDIdAYtBs@zDK|@Q`D{@nHiE|N_H|g@}@|IElACtB@h@N|Bh@tDLj@dBtFh@~CHzAJxC?x@JvAPZN|@IbAI\\INe@VODuApPsE~t@[hGQdHEzGg@lHYjBe@zKDhD`@|H\\nDb@rCdIr\\v@vCvAtEnAdDdChFtEbKF\\hCpFdBhDrBpFV|@xB|JzA|HZpCf@fB`@RDCp@CJBLHRd@PfAJdAAZERS`@mCjA{@jAuHzJiJrLo@j@EFCRD\\zAtA`GtGhB|@b@HhACO~PB~HHxBArFcBFC@{@HyAf@Dr@PTpClEAHMPCBQl@i@~@_ApCUlBEl@A~BLdNRpHqU~`A{@~B{@dA_FjFgAbA}C~B}Cr@qFzAoB`AEZUz@Kr@G`AGrEYfKO|SGvBWlEIf@AbCDJ\\XvEnFf@lFHrCChAEl@iAbHs@xAqAzBa@n@wApAuGvGo@Ta@@_@CkDRa@|@kAjAMH","Color":"993333","hasRunTwo":1,"startPoint":{"Latitude":51.572064,"Longitude":-0.194868},"endPoint":{"Latitude":51.594545,"Longitude":-0.383007}}]}


