{"Stops" : [{"StopId":18755,"StopCode":"33642","PointLetter":"A","StopName":"Romney Road","Latitude":51.536001,"Longitude":-0.433641,"Action":0},{"StopId":18757,"StopCode":"33640","PointLetter":"B","StopName":"Charville School","Latitude":51.536730,"Longitude":-0.429045,"Action":0},{"StopId":18754,"StopCode":"33643","PointLetter":"C","StopName":"Charville Library","Latitude":51.535551,"Longitude":-0.426245,"Action":0},{"StopId":18798,"StopCode":"29434","PointLetter":"D","StopName":"Weymouth Road","Latitude":51.535447,"Longitude":-0.423206,"Action":0},{"StopId":18799,"StopCode":"29433","PointLetter":"E","StopName":"Adelphi Crescent","Latitude":51.533385,"Longitude":-0.425007,"Action":0},{"StopId":18690,"StopCode":"R0490","PointLetter":"F","StopName":"Adelphi Way","Latitude":51.532032,"Longitude":-0.422026,"Action":0},{"StopId":6076,"StopCode":"17226","PointLetter":"K","StopName":"The Brook House","Latitude":51.531358,"Longitude":-0.418705,"Action":0},{"StopId":6075,"StopCode":"17228","PointLetter":"L","StopName":"Fairholme Crescent","Latitude":51.529983,"Longitude":-0.417397,"Action":0},{"StopId":6051,"StopCode":"17229","PointLetter":"M","StopName":"Fredora Avenue","Latitude":51.528243,"Longitude":-0.417111,"Action":0},{"StopId":6073,"StopCode":"17231","PointLetter":"D","StopName":"Balmoral Drive","Latitude":51.525734,"Longitude":-0.419721,"Action":0},{"StopId":5127,"StopCode":"3114","PointLetter":"E","StopName":"Uxbridge County Court","Latitude":51.522376,"Longitude":-0.420097,"Action":0},{"StopId":6260,"StopCode":"16309","PointLetter":"H","StopName":"Adam & Eve","Latitude":51.520756,"Longitude":-0.417386,"Action":0},{"StopId":6105,"StopCode":"BP689","PointLetter":"SK","StopName":"Church Green","Latitude":51.517808,"Longitude":-0.418814,"Action":0},{"StopId":6288,"StopCode":"16311","PointLetter":"SL","StopName":"Longmead Road","Latitude":51.515394,"Longitude":-0.419863,"Action":0},{"StopId":6213,"StopCode":"16312","PointLetter":"SM","StopName":"Townfield Road","Latitude":51.512949,"Longitude":-0.419890,"Action":0},{"StopId":6262,"StopCode":"16315","PointLetter":"SN","StopName":"Botwell Lane","Latitude":51.509302,"Longitude":-0.420838,"Action":0},{"StopId":5025,"StopCode":"16316","PointLetter":"SP","StopName":"Botwell Green","Latitude":51.507618,"Longitude":-0.419311,"Action":0},{"StopId":4903,"StopCode":"BP110","PointLetter":"D","StopName":"Clayton Road","Latitude":51.504840,"Longitude":-0.419364,"Action":0},{"StopId":5011,"StopCode":"15979","PointLetter":"E","StopName":"Hayes and Harlington Station","Latitude":51.503060,"Longitude":-0.420751,"Action":0},{"StopId":18836,"StopCode":"15977","PointLetter":"G","StopName":"Old Station Road","Latitude":51.500949,"Longitude":-0.422942,"Action":0},{"StopId":18851,"StopCode":"15976","PointLetter":"H","StopName":"Harold Avenue","Latitude":51.498958,"Longitude":-0.417305,"Action":0},{"StopId":18850,"StopCode":"15974","PointLetter":"","StopName":"The Crane","Latitude":51.498036,"Longitude":-0.412986,"Action":0},{"StopId":17850,"StopCode":"34937","PointLetter":"BA","StopName":"Hayes Road / Tesco","Latitude":51.498091,"Longitude":-0.405738,"Action":0},{"StopId":5477,"StopCode":"15972","PointLetter":"BB","StopName":"Wentworth Road","Latitude":51.497371,"Longitude":-0.399741,"Action":0},{"StopId":5370,"StopCode":"15969","PointLetter":"BC","StopName":"Brent Road","Latitude":51.497891,"Longitude":-0.395054,"Action":0},{"StopId":5527,"StopCode":"R0210","PointLetter":"BD","StopName":"Derley Road","Latitude":51.499083,"Longitude":-0.391511,"Action":0},{"StopId":5453,"StopCode":"15965","PointLetter":"","StopName":"Sussex Road","Latitude":51.500464,"Longitude":-0.387948,"Action":0},{"StopId":5421,"StopCode":"C98","PointLetter":"H","StopName":"Waltham Road","Latitude":51.500781,"Longitude":-0.384824,"Action":0},{"StopId":5299,"StopCode":"8749","PointLetter":"E","StopName":"King Street","Latitude":51.501613,"Longitude":-0.382533,"Action":0},{"StopId":5371,"StopCode":"19033","PointLetter":"L","StopName":"The Green","Latitude":51.502967,"Longitude":-0.380957,"Action":0},{"StopId":5318,"StopCode":"15963","PointLetter":"N","StopName":"Southall Station","Latitude":51.506030,"Longitude":-0.378788,"Action":0},{"StopId":5483,"StopCode":"15961","PointLetter":"P","StopName":"Park Avenue","Latitude":51.507579,"Longitude":-0.378286,"Action":0},{"StopId":4824,"StopCode":"7699","PointLetter":"N","StopName":"Southall Broadway","Latitude":51.510498,"Longitude":-0.376050,"Action":0},{"StopId":5128,"StopCode":"3094","PointLetter":"R","StopName":"Southall Police Station","Latitude":51.510949,"Longitude":-0.372935,"Action":0},{"StopId":6443,"StopCode":"3092","PointLetter":"UA","StopName":"Southall Park","Latitude":51.511143,"Longitude":-0.369455,"Action":0},{"StopId":6317,"StopCode":"1935","PointLetter":"UB","StopName":"Dormer's Wells Lane","Latitude":51.511093,"Longitude":-0.364528,"Action":0},{"StopId":6442,"StopCode":"3088","PointLetter":"UC","StopName":"Lyndhurst Avenue","Latitude":51.510549,"Longitude":-0.361651,"Action":0},{"StopId":5355,"StopCode":"34280","PointLetter":"UD","StopName":"Iron Bridge","Latitude":51.509877,"Longitude":-0.357294,"Action":0},{"StopId":5518,"StopCode":"3083","PointLetter":"UH","StopName":"St Bernard's Gatehouse / Windmill Park","Latitude":51.509111,"Longitude":-0.349511,"Action":0},{"StopId":5219,"StopCode":"3081","PointLetter":"P","StopName":"Ealing Hospital / Wharncliffe Drive","Latitude":51.509036,"Longitude":-0.347410,"Action":0},{"StopId":5486,"StopCode":"4637","PointLetter":"M","StopName":"Half Acre Road","Latitude":51.508522,"Longitude":-0.340310,"Action":0},{"StopId":8959,"StopCode":"6910","PointLetter":"K","StopName":"Jessamine Road","Latitude":51.508433,"Longitude":-0.337835,"Action":0},{"StopId":9013,"StopCode":"6909","PointLetter":"Z","StopName":"Rosebank Road","Latitude":51.505579,"Longitude":-0.336339,"Action":0},{"StopId":9014,"StopCode":"6907","PointLetter":"J","StopName":"Cumberland Road","Latitude":51.503338,"Longitude":-0.332329,"Action":0},{"StopId":8984,"StopCode":"6906","PointLetter":"K","StopName":"Elthorne Park Road","Latitude":51.502144,"Longitude":-0.330600,"Action":0},{"StopId":9054,"StopCode":"6905","PointLetter":"L","StopName":"Christopher Avenue","Latitude":51.500017,"Longitude":-0.328373,"Action":0},{"StopId":9053,"StopCode":"6903","PointLetter":"M","StopName":"Haslemere Avenue","Latitude":51.498261,"Longitude":-0.326910,"Action":0},{"StopId":9039,"StopCode":"10901","PointLetter":"N","StopName":"Boston Manor Station","Latitude":51.495766,"Longitude":-0.324120,"Action":0},{"StopId":8935,"StopCode":"20686","PointLetter":"P","StopName":"Swyncombe Avenue","Latitude":51.494171,"Longitude":-0.320116,"Action":0},{"StopId":8945,"StopCode":"26221","PointLetter":"R","StopName":"The Ride","Latitude":51.492254,"Longitude":-0.317536,"Action":0},{"StopId":9052,"StopCode":"6897","PointLetter":"","StopName":"Manor Vale","Latitude":51.490514,"Longitude":-0.315915,"Action":0},{"StopId":9015,"StopCode":"6896","PointLetter":"SZ","StopName":"Great West Road","Latitude":51.489601,"Longitude":-0.315026,"Action":0},{"StopId":9016,"StopCode":"6895","PointLetter":"SM","StopName":"Brentford Station","Latitude":51.487995,"Longitude":-0.312119,"Action":0},{"StopId":9003,"StopCode":"6893","PointLetter":"SN","StopName":"Windmill Road","Latitude":51.486703,"Longitude":-0.308594,"Action":0},{"StopId":8994,"StopCode":"6891","PointLetter":"SE","StopName":"Brentford Police Station","Latitude":51.483912,"Longitude":-0.306508,"Action":0},{"StopId":5921,"StopCode":"6173","PointLetter":"BP","StopName":"Brentford County Court","Latitude":51.483969,"Longitude":-0.304230,"Action":0},{"StopId":18862,"StopCode":"BP5166","PointLetter":"Z1","StopName":"Alexandra Road","Latitude":51.484327,"Longitude":-0.304088,"Action":0}], "Routes" : [{"Id":5414,"Route":"195","From":"Romney Road","Towards":"Alexandra Road","Run":"1","IsDay":1,"encodedLevels":"P@@@B@F@@F?@B@B@D@AGBA@F@GCB?DEF?D?B@I@C@D@CG?B?G@@A@BDC?ABDAE@?AC@@C?@A?@AD@BG?A@CAD@??D@AA?C@G@ADC??BAD@B?A?@F@@J?@D@AF@B?@E?@@C??AB?B@CA??AE@A?C@?@B@H?BC?@AE?A@C?@GAD?B@DBACAAC?AB@HB?@D?AC?AEAB?DA@@C@@EA?AI??BFCA@EA?BAB?GAB?E@AB?@BEAAB@F?BAB@F?@AEP","encodedPoints":"aqpyHpzsAIm@{@aDUo@yByJ[cBq@oFF@tIoL`@q@?m@A_@K}@m@w@_@w@Ss@QsAE}AD}ATsA`@kAx@kAf@i@TMhGdNVb@|DgKZcB?s@EmA`DoAiByPrA_@pCm@\\[vEuF`@[n@[jAOn@?h@LnAl@nM|M|DvDjKxGf@gCnAoFjAkE`DwKLPL?JJFV`@d@~FtDzDrAvABxCLHGxBh@|AdBlAx@Z@pCf@z@PvBNr@Md@YlAUR?RDHEJBHFt@JhDDnB^rDjAlG`ATCPGd@]Xa@jBcDhC{FM{@Sq@CCKUBMNIRPFADIHQTaB\\NvBdBlE`EYfANLzA|@bEnC~AvAlCbDd@fAlBbHXj@V\\XRNNHVJg@Xc@xAoEbCkKvD}NnCgL\\_CXqC\\{HAsAs@eOMs@EKQyABSJ[RYTw@@a@AoE@cBTkGRqD`A_MX}H?u@J{APs@N_@r@aC?_@Aa@Qw@qC}KEECSBKJM@_@MoC_@oE[eBm@iCuEkLWg@a@o@_B{Bu@eBGq@?s@PoBJiCo@kIiAyMKaCqCcAqA{@q@uBMSm@{@cDoDyD_BmBsAUk@SDwIkCuCiAsBsAoBiAsBkBcGoDaBy@h@mFVgGJeBTeJQq@]yBeAkJIcBAgCNsEnAyJbAqKlBcU~BsWPqDAiB^mN`@aUl@sJXiC~@aOIgCkA_MKcAG}BdCe@hG{AfB]vAw@`H}PbDgGbBcCxFgJ`CqCt@s@zEcEfJoHzGyEr@y@`@k@j@uAbFsRxDoKN[tA{Bx@eAfDqDJGjFyElJeJfB{Bn@eB`DaOhC_KhAeDn@oAZe@PKl@Y`BUfEqBfDiBGi@K}Aw@uFi@qBsBrB","Color":"993333","hasRunTwo":1,"startPoint":{"Latitude":51.535693,"Longitude":-0.434486},"endPoint":{"Latitude":51.484665,"Longitude":-0.304398}}]}


