{"Stops" : [{"StopId":2940,"StopCode":"9127","PointLetter":"N","StopName":"Francis Grove","Latitude":51.421215,"Longitude":-0.209597,"Action":0},{"StopId":2798,"StopCode":"BP106","PointLetter":"D","StopName":"Wimbledon Station","Latitude":51.420628,"Longitude":-0.205319,"Action":0},{"StopId":2812,"StopCode":"17617","PointLetter":"X","StopName":"Wimbledon Theatre","Latitude":51.419202,"Longitude":-0.199751,"Action":0},{"StopId":2987,"StopCode":"18725","PointLetter":"SU","StopName":"The Polka Theatre","Latitude":51.419421,"Longitude":-0.195860,"Action":0},{"StopId":2835,"StopCode":"18726","PointLetter":"SV","StopName":"Merton Road","Latitude":51.417463,"Longitude":-0.192485,"Action":0},{"StopId":2779,"StopCode":"26192","PointLetter":"SZ","StopName":"South Wimbledon Station","Latitude":51.415715,"Longitude":-0.190512,"Action":0},{"StopId":2781,"StopCode":"18675","PointLetter":"SH","StopName":"Merton High Street / Haydons Road","Latitude":51.416061,"Longitude":-0.186126,"Action":0},{"StopId":2733,"StopCode":"1785","PointLetter":"E","StopName":"Merton Abbey","Latitude":51.416421,"Longitude":-0.181510,"Action":0},{"StopId":2925,"StopCode":"4495","PointLetter":"D","StopName":"Colliers Wood Station","Latitude":51.418842,"Longitude":-0.177573,"Action":0},{"StopId":2774,"StopCode":"25631","PointLetter":"L","StopName":"Walpole Road","Latitude":51.420977,"Longitude":-0.175489,"Action":0},{"StopId":2957,"StopCode":"25633","PointLetter":"HQ","StopName":"Longley Road","Latitude":51.423393,"Longitude":-0.173020,"Action":0},{"StopId":2775,"StopCode":"25635","PointLetter":"HN","StopName":"Nutwell Street","Latitude":51.425759,"Longitude":-0.170192,"Action":0},{"StopId":2926,"StopCode":"4837","PointLetter":"L","StopName":"Tooting Broadway Station","Latitude":51.427383,"Longitude":-0.168789,"Action":0},{"StopId":13150,"StopCode":"2183","PointLetter":"A","StopName":"Broadwater Road","Latitude":51.429489,"Longitude":-0.166562,"Action":0},{"StopId":13152,"StopCode":"2181","PointLetter":"M","StopName":"Hebdon Road","Latitude":51.431508,"Longitude":-0.164553,"Action":0},{"StopId":13154,"StopCode":"2179","PointLetter":"N","StopName":"Lynwood Road","Latitude":51.433527,"Longitude":-0.163178,"Action":0},{"StopId":13172,"StopCode":"4870","PointLetter":"C","StopName":"Tooting Bec Station","Latitude":51.435417,"Longitude":-0.160354,"Action":0},{"StopId":8451,"StopCode":"29658","PointLetter":"B","StopName":"Glenburnie Road","Latitude":51.436866,"Longitude":-0.161562,"Action":0},{"StopId":8378,"StopCode":"12717","PointLetter":"S","StopName":"Eatonville Road","Latitude":51.438790,"Longitude":-0.163269,"Action":0},{"StopId":8486,"StopCode":"12715","PointLetter":"P","StopName":"Brodrick Road","Latitude":51.441383,"Longitude":-0.165740,"Action":0},{"StopId":8267,"StopCode":"12712","PointLetter":"C","StopName":"Burntwood Lane","Latitude":51.443308,"Longitude":-0.167563,"Action":0},{"StopId":13682,"StopCode":"12710","PointLetter":"R","StopName":"Routh Road","Latitude":51.447453,"Longitude":-0.171542,"Action":0},{"StopId":13706,"StopCode":"12706","PointLetter":"D","StopName":"County Arms","Latitude":51.450543,"Longitude":-0.174786,"Action":0},{"StopId":13716,"StopCode":"12703","PointLetter":"E","StopName":"Windmill Road","Latitude":51.452653,"Longitude":-0.176875,"Action":0},{"StopId":13704,"StopCode":"34020","PointLetter":"F","StopName":"West Side","Latitude":51.454909,"Longitude":-0.179132,"Action":0},{"StopId":13715,"StopCode":"12699","PointLetter":"G","StopName":"Alexander Court","Latitude":51.457466,"Longitude":-0.181621,"Action":0},{"StopId":13714,"StopCode":"12834","PointLetter":"H","StopName":"Marcilly Road","Latitude":51.458371,"Longitude":-0.178533,"Action":0},{"StopId":13713,"StopCode":"12836","PointLetter":"J","StopName":"Spencer Road","Latitude":51.458707,"Longitude":-0.174691,"Action":0},{"StopId":12748,"StopCode":"12839","PointLetter":"P","StopName":"Bolingbroke Grove","Latitude":51.459724,"Longitude":-0.171858,"Action":0},{"StopId":1912,"StopCode":"1411","PointLetter":"X","StopName":"Northcote Road","Latitude":51.460804,"Longitude":-0.167841,"Action":0},{"StopId":1892,"StopCode":"1414","PointLetter":"V","StopName":"Clapham Junction / The Northcote","Latitude":51.461762,"Longitude":-0.167616,"Action":0},{"StopId":12561,"StopCode":"431","PointLetter":"P","StopName":"Clapham Junction / The Falcon","Latitude":51.463222,"Longitude":-0.167802,"Action":0},{"StopId":20409,"StopCode":"LG35","PointLetter":"J","StopName":"Falcon Lane","Latitude":51.464339,"Longitude":-0.165626,"Action":0}], "Routes" : [{"Id":8635,"Route":"219","From":"Francis Grove","Towards":"Falcon Lane","Run":"1","IsDay":1,"encodedLevels":"P@FAD@@@BBC@@@@FAC@?G@D?F?B?A?H?C?A@?EAA?@?A@?AD@J?C?@AD@@D@BAAI@B?D@?A?CABA?CAIABAE@CE?EBC?@AG?C?AAF@?D?P","encodedPoints":"wbzxHr`h@oAmB_DiGhBwBlAuB`@yB?UVwAh@eCp@eAjAqFZ_CCQHq@JMzAqMJkCAqIO_Es@yLQ_CnDkChFcDhCOrFg@?cBS{NQ_FS_Ek@qRWeLy@aFUiBg@wAe@cAICK[cAgB{@}@M?i@o@EKiEkEg@k@uFmFi@c@eGsF}CeD{JuN}@cAoBcBuHaGs@y@cGiGcGwGmJgJs@_@_@I{FeDu@w@cAwA}CkFu@kBmBmCe@dAcBrCo@x@kBlB_CjBaHrGsE`EoTlSqa@d`@wArAcDrEaQjPyEbF_KdKgLpJS@QC_@iAgAeFc@oDJk@HOdFaCGmBc@gRQwB{Iy]QcAa@gDc@sEg@{Bc@PkEnAa@?kBJuC^_@CKq@Eo@y@mKiA|@MF","Color":"993333","hasRunTwo":1,"startPoint":{"Latitude":51.420761,"Longitude":-0.210176},"endPoint":{"Latitude":51.464619,"Longitude":-0.165710}}]}


