{"Stops" : [{"StopId":4581,"StopCode":"BP4064","PointLetter":"SB","StopName":"Wembley Stadium Station","Latitude":51.554534,"Longitude":-0.286302,"Action":0},{"StopId":4290,"StopCode":"37172","PointLetter":"SE","StopName":"Cecil Avenue","Latitude":51.553655,"Longitude":-0.289537,"Action":0},{"StopId":4202,"StopCode":"1483","PointLetter":"ST","StopName":"Wembley High Road","Latitude":51.553508,"Longitude":-0.291778,"Action":0},{"StopId":4634,"StopCode":"R0268","PointLetter":"CT","StopName":"Wembley Central Station","Latitude":51.552052,"Longitude":-0.298035,"Action":0},{"StopId":4609,"StopCode":"1256","PointLetter":"CQ","StopName":"Chaplin Road","Latitude":51.550726,"Longitude":-0.298387,"Action":0},{"StopId":4856,"StopCode":"36879","PointLetter":"","StopName":"Lyon Park Avenue","Latitude":51.549161,"Longitude":-0.297724,"Action":0},{"StopId":4687,"StopCode":"15947","PointLetter":"","StopName":"Eagle Road","Latitude":51.546539,"Longitude":-0.297404,"Action":0},{"StopId":4816,"StopCode":"33948","PointLetter":"T","StopName":"Stanley Avenue","Latitude":51.543478,"Longitude":-0.297129,"Action":0},{"StopId":4584,"StopCode":"15950","PointLetter":"A","StopName":"Alperton Station","Latitude":51.540545,"Longitude":-0.298911,"Action":0},{"StopId":4643,"StopCode":"CW60","PointLetter":"H","StopName":"Alperton Sainsbury's","Latitude":51.538019,"Longitude":-0.302077,"Action":0},{"StopId":4734,"StopCode":"14833","PointLetter":"B","StopName":"Alperton Station","Latitude":51.540848,"Longitude":-0.298727,"Action":0},{"StopId":4785,"StopCode":"37278","PointLetter":"","StopName":"Mount Pleasant","Latitude":51.542103,"Longitude":-0.294729,"Action":0},{"StopId":4597,"StopCode":"35789","PointLetter":"","StopName":"Beresford Avenue","Latitude":51.541205,"Longitude":-0.288028,"Action":0},{"StopId":4863,"StopCode":"35793","PointLetter":"","StopName":"Kenmere Gardens","Latitude":51.541337,"Longitude":-0.283509,"Action":0},{"StopId":4727,"StopCode":"35794","PointLetter":"L","StopName":"Heather Park Drive","Latitude":51.541607,"Longitude":-0.279245,"Action":0},{"StopId":4233,"StopCode":"16563","PointLetter":"S","StopName":"Beresford Avenue","Latitude":51.540669,"Longitude":-0.277795,"Action":0},{"StopId":4317,"StopCode":"BP208","PointLetter":"","StopName":"Tudor Estate","Latitude":51.536576,"Longitude":-0.275253,"Action":0},{"StopId":21719,"StopCode":"BP5713","PointLetter":"","StopName":"Rainsford Road","Latitude":51.534864,"Longitude":-0.277481,"Action":0},{"StopId":4626,"StopCode":"35791","PointLetter":"B","StopName":"Twyford Abbey Road","Latitude":51.534422,"Longitude":-0.281045,"Action":0},{"StopId":4604,"StopCode":"35798","PointLetter":"C","StopName":"Iveagh Avenue","Latitude":51.534883,"Longitude":-0.282411,"Action":0},{"StopId":4590,"StopCode":"35786","PointLetter":"D","StopName":"Twyford Abbey Road","Latitude":51.534775,"Longitude":-0.279993,"Action":0},{"StopId":4318,"StopCode":"BP611","PointLetter":"","StopName":"Commercial Way","Latitude":51.534114,"Longitude":-0.274784,"Action":0},{"StopId":4264,"StopCode":"BP609","PointLetter":"P","StopName":"Cumberland Avenue","Latitude":51.531414,"Longitude":-0.271527,"Action":0},{"StopId":3354,"StopCode":"BP604","PointLetter":"H","StopName":"Abbey Road","Latitude":51.529348,"Longitude":-0.269875,"Action":0},{"StopId":3342,"StopCode":"37000","PointLetter":"K","StopName":"Park Royal Asda / Western Road","Latitude":51.528236,"Longitude":-0.269499,"Action":0},{"StopId":3322,"StopCode":"37161","PointLetter":"G","StopName":"Park Royal Asda","Latitude":51.529290,"Longitude":-0.268392,"Action":0},{"StopId":3378,"StopCode":"BP4971","PointLetter":"A","StopName":"Central Middlesex Hospital","Latitude":51.530262,"Longitude":-0.269033,"Action":0},{"StopId":3527,"StopCode":"6138","PointLetter":"U","StopName":"Barretts Green Road","Latitude":51.532529,"Longitude":-0.263627,"Action":0},{"StopId":3358,"StopCode":"R0266","PointLetter":"PN","StopName":"Waxlow Road","Latitude":51.534518,"Longitude":-0.260091,"Action":0},{"StopId":3359,"StopCode":"R0260","PointLetter":"HB","StopName":"Harlesden Station","Latitude":51.536165,"Longitude":-0.257158,"Action":0},{"StopId":12033,"StopCode":"CW37","PointLetter":"HC","StopName":"Winchelsea Road / Harlesden Station","Latitude":51.537328,"Longitude":-0.257373,"Action":0},{"StopId":12045,"StopCode":"37011","PointLetter":"Y","StopName":"Knatchbull Road","Latitude":51.541017,"Longitude":-0.258703,"Action":0},{"StopId":4315,"StopCode":"37013","PointLetter":"P","StopName":"Fawood Avenue","Latitude":51.543153,"Longitude":-0.259674,"Action":0},{"StopId":4343,"StopCode":"37015","PointLetter":"R","StopName":"Gloucester Close","Latitude":51.545061,"Longitude":-0.259731,"Action":0},{"StopId":4237,"StopCode":"37017","PointLetter":"K","StopName":"Swaminarayan Temple","Latitude":51.547604,"Longitude":-0.260240,"Action":0},{"StopId":4210,"StopCode":"37019","PointLetter":"H","StopName":"Kingfisher Way","Latitude":51.551068,"Longitude":-0.260973,"Action":0},{"StopId":4266,"StopCode":"37279","PointLetter":"B","StopName":"Ikea Brent Park / Drury Way","Latitude":51.553165,"Longitude":-0.261701,"Action":0},{"StopId":4247,"StopCode":"C12","PointLetter":"A","StopName":"Ikea Brent Park / Panther Drive","Latitude":51.554120,"Longitude":-0.261809,"Action":0},{"StopId":4339,"StopCode":"37253","PointLetter":"T","StopName":"Brent Park Tesco","Latitude":51.553437,"Longitude":-0.257580,"Action":0},{"StopId":4242,"StopCode":"37280","PointLetter":"C","StopName":"Ikea Brent Park","Latitude":51.553378,"Longitude":-0.261520,"Action":0},{"StopId":4186,"StopCode":"37022","PointLetter":"P","StopName":"Drury Way","Latitude":51.552511,"Longitude":-0.262462,"Action":0},{"StopId":4212,"StopCode":"37026","PointLetter":"","StopName":"Owen Way","Latitude":51.551423,"Longitude":-0.264869,"Action":0},{"StopId":4288,"StopCode":"37023","PointLetter":"","StopName":"Lilburne Walk","Latitude":51.549226,"Longitude":-0.265313,"Action":0},{"StopId":4298,"StopCode":"37024","PointLetter":"","StopName":"Mitchell Way","Latitude":51.548241,"Longitude":-0.268048,"Action":0}], "Routes" : [{"Id":5804,"Route":"224","From":"Wembley Stadium Station","Towards":"Mitchell Way","Run":"1","IsDay":1,"encodedLevels":"P?DE@C?B?@E@B@@HAAAD?@C@AG@BBEFAAF???CA??J@ABAF?@CA?F??B?D@?G?ABD@@BE@@C?B?B@HA?@@BF@AEB?AHB@C@AEH?@A@DA?B?CEA?C@?BG@B?F@@B?@D@@C?@?CA?AC@A@F@A@EFI?AACB?F@?B@?E@B?C@D@D@BEAC?@BDB@CBEB@H?DBDAC@EADAD?BBC?AAC@?BH@AC?AE?@B?@ABAD?AB??D?@AIA?@C@ADCAF?A?@A?C@B@AC@?D@B?@G?@B?E?AC@??AF?AB@?F?A?B@F?B@C@E@BEC@?BP","encodedPoints":"uhtyH~|v@zAVhCl@n@nBe@pHOnFFfCPtC?z@GxAE`H`AhErEjP^bCDn@f@|BJHpFiBrBaAbFsAj@CBAfGE`Em@tKuBj@Bl@ZhIrCjADdDlB|FrLhDwAl@m@|Ay@FT@PJ^XlBC|L?VDJDjBGYAo@@cOGaA]kASGY?g@Bg@j@kDzBG@MMeAwBkF_KKIe@QUcAgAsHEk@I{A?k@VkJ\\kD`@aATWvB}EB{@Cq@WcCS}@AmDg@ig@c@_MW_KNq@FkAPCDLNN|A|AdAz@bC`Dn@gA`GiIdGmHlBA|@Y|@S~BQl@bFJjHb@lMPbBVvAr@tCaF|ECO?ODe@Ng@LMPO\\CT?LNDHfBgB_@oAs@cEI}@OyCSsHKkHm@cFhCU`Gq@pA_@XMDUb@cATgAF[NyB^cCZa@bCsB`@g@D{@AGDq@BCPKNH@Db@Mh@m@bBiCTm@d@i@HBXv@rAzHLf@vEgBqB}PaA^m@PiCvACLiBh@IGWOMSEUEa@Bs@DSFIPCJFFFL^Hl@Ev@P?x@WQeC_@mBqAkEqBwDyBcDUG]CWKa@m@cDqJeEcIcByDkBeJy@cB_BoAuAa@}Aw@K`AKd@eOZaAXyA~@kDbDcC~@iHvBsOPsBNcDr@yHhCkCTcD`@yAMoGn@YJSPO`@SJKEcCTmAFaDMSK]c@aAmBOg@Ge@CmB@YFa@@s@DILGFBTc@tAiENyA@u@Ca@[qBGQc@q@Qe@BG?sANgAfAeGJFNADEp@CNH@Rb@VrCxEb@`C?z@CRYn@FN@JATCJ[h@Q?GIw@dBkD|FcBzBIHo@BCCMr@Cx@Bv@Hz@Nf@JXLTxAlBTJXDf@@hAEjC]n@]LK@IXULHBJ@Ra@xQ@RHZJTFFPH~@FjEL~AGdEARTX^Zx@VnAVrBb@tGZPT@pFs@Br@U?YQCA}Cl@","Color":"993333","hasRunTwo":1,"startPoint":{"Latitude":51.554831,"Longitude":-0.286399},"endPoint":{"Latitude":51.548375,"Longitude":-0.268079}}]}


