{"Stops" : [{"StopId":12163,"StopCode":"27310","PointLetter":"A","StopName":"Springbank Road / Hither Green Station","Latitude":51.449689,"Longitude":0.000433,"Action":0},{"StopId":15838,"StopCode":"BP5120","PointLetter":"AA","StopName":"Wellmeadow Road","Latitude":51.447785,"Longitude":0.001372,"Action":0},{"StopId":12172,"StopCode":"20775","PointLetter":"R","StopName":"Duncrievie Road","Latitude":51.448493,"Longitude":-0.001677,"Action":0},{"StopId":12218,"StopCode":"37119","PointLetter":"S","StopName":"George Lane","Latitude":51.450058,"Longitude":-0.004847,"Action":0},{"StopId":12168,"StopCode":"37113","PointLetter":"T","StopName":"Theodore Road","Latitude":51.451617,"Longitude":-0.006650,"Action":0},{"StopId":12268,"StopCode":"R0406","PointLetter":"","StopName":"Thornford Road","Latitude":51.453659,"Longitude":-0.008245,"Action":0},{"StopId":12258,"StopCode":"37114","PointLetter":"","StopName":"Courthill Road","Latitude":51.456852,"Longitude":-0.010913,"Action":0},{"StopId":10841,"StopCode":"BP1113","PointLetter":"U","StopName":"Lewisham Centre","Latitude":51.460496,"Longitude":-0.011028,"Action":0},{"StopId":10594,"StopCode":"BP437","PointLetter":"E","StopName":"Lewisham Police Station","Latitude":51.463568,"Longitude":-0.010837,"Action":0},{"StopId":12202,"StopCode":"34344","PointLetter":"SQ","StopName":"Jerrard Street","Latitude":51.465574,"Longitude":-0.016163,"Action":0},{"StopId":12281,"StopCode":"13810","PointLetter":"EA","StopName":"Elverson Road","Latitude":51.468706,"Longitude":-0.019008,"Action":0},{"StopId":12220,"StopCode":"13720","PointLetter":"SX","StopName":"Cranbrook Road","Latitude":51.471088,"Longitude":-0.022115,"Action":0},{"StopId":12284,"StopCode":"13718","PointLetter":"Q","StopName":"Friendly Street","Latitude":51.473141,"Longitude":-0.023855,"Action":0},{"StopId":12270,"StopCode":"485","PointLetter":"F","StopName":"Florence Road","Latitude":51.475252,"Longitude":-0.028545,"Action":0},{"StopId":12171,"StopCode":"13714","PointLetter":"W","StopName":"New Cross Station","Latitude":51.475683,"Longitude":-0.031190,"Action":0},{"StopId":12226,"StopCode":"4631","PointLetter":"S","StopName":"Marquis Of Granby","Latitude":51.475859,"Longitude":-0.034696,"Action":0},{"StopId":12249,"StopCode":"40053","PointLetter":"Q","StopName":"Exeter Way","Latitude":51.476858,"Longitude":-0.034207,"Action":0},{"StopId":12265,"StopCode":"35277","PointLetter":"","StopName":"Fordham Park","Latitude":51.478256,"Longitude":-0.034997,"Action":0},{"StopId":12241,"StopCode":"35197","PointLetter":"","StopName":"Ludwick Mews","Latitude":51.478212,"Longitude":-0.038239,"Action":0},{"StopId":12243,"StopCode":"35195","PointLetter":"A","StopName":"Cottesbrook Street","Latitude":51.480294,"Longitude":-0.041231,"Action":0},{"StopId":12244,"StopCode":"35193","PointLetter":"B","StopName":"Cold Blow Lane","Latitude":51.482023,"Longitude":-0.041921,"Action":0},{"StopId":12219,"StopCode":"13703","PointLetter":"C","StopName":"Surrey Canal Road","Latitude":51.483648,"Longitude":-0.041736,"Action":0},{"StopId":12224,"StopCode":"13701","PointLetter":"D","StopName":"Grinstead Road","Latitude":51.485386,"Longitude":-0.042396,"Action":0},{"StopId":12287,"StopCode":"13700","PointLetter":"E","StopName":"Alloa Road","Latitude":51.487127,"Longitude":-0.043258,"Action":0},{"StopId":12282,"StopCode":"13698","PointLetter":"F","StopName":"John Silkin Lane","Latitude":51.488704,"Longitude":-0.044558,"Action":0},{"StopId":12290,"StopCode":"13638","PointLetter":"N","StopName":"Bush Road","Latitude":51.491070,"Longitude":-0.045149,"Action":0},{"StopId":12259,"StopCode":"33453","PointLetter":"S","StopName":"Surrey Quays Station","Latitude":51.492861,"Longitude":-0.047896,"Action":0},{"StopId":12173,"StopCode":"2216","PointLetter":"P","StopName":"Rotherhithe Police Station","Latitude":51.495463,"Longitude":-0.051328,"Action":0},{"StopId":10379,"StopCode":"BP2390","PointLetter":"D","StopName":"Canada Water Bus Station","Latitude":51.498146,"Longitude":-0.049917,"Action":0}], "Routes" : [{"Id":7335,"Route":"225","From":"Springbank Road / Hither Green Station","Towards":"Canada Water Bus Station","Run":"1","IsDay":1,"encodedLevels":"P?F@G?BD@E?@BAADA?AF@BG@?@@C@@BH?DB?E@@A@AAB?BAGFAE?C?@AC?D@@BD@CBDH@?BAE?CD@BG@AAFB?F@@ACBDAGAEB@E@A@HA?BD?@DB@D?AC?@DBBD?A@D@@@GDA?EACD?ACG@?@A?AE?@DA?P","encodedPoints":"iy_yHA|@w@tHqHh@lA`CrGaBzBwFpIsCxF}AjI_@nAkA`AiJbHqI`GaBbBm@|@yAfAg@RM@cACaBZWb@iDvK{@tEm@[wD}C{@m@iGqFy@g@cBoB[q@]Y{C}AEd@i@nCaGzCSZITOnABPAZERMP[lBU~CEjG@~@U`FSpAgFyCsApFiA~CmBdBIDK@m@AaAJ}@VYNkBtAgAxA[n@cGbJoC`Dc@VsDvAu@rAmF`DyBGsApLeBbSKn@m@dJOlEBPJV`C?DnBZdEh@|Aa@f@eBpDQp@QBSM?i@a@kIK?KGc@HcCMa@{@q@CiAn@aBzA[~@cCnDdBtIn@`G?^GZSb@sCvEs@x@g@b@w@\\_EtAyGbBW?e@KqD}@aCpAUTo@lAOYMKe@Sk@NGD}E|@}DnBuHbGiDfBICcAu@[M[?]JONkAl@q@VsClBG`@Dx@FpEcCj@c@VyHbHs@tBe@lAqBlDqFtHEQKOOMi@gAuBgGCSsAyC[OYI[AIlAERIF","Color":"993333","hasRunTwo":1,"startPoint":{"Latitude":51.449976,"Longitude":0.000019},"endPoint":{"Latitude":51.498254,"Longitude":-0.049937}}]}


