{"Stops" : [{"StopId":1930,"StopCode":"16801","PointLetter":"CC","StopName":"Enfield Chase Station","Latitude":51.653668,"Longitude":-0.088989,"Action":0},{"StopId":2406,"StopCode":"10928","PointLetter":"D","StopName":"Enfield Town / Church Street","Latitude":51.652230,"Longitude":-0.083484,"Action":0},{"StopId":2030,"StopCode":"3490","PointLetter":"K","StopName":"Enfield Town Station","Latitude":51.652439,"Longitude":-0.078705,"Action":0},{"StopId":1952,"StopCode":"15872","PointLetter":"","StopName":"Ladysmith Road","Latitude":51.652267,"Longitude":-0.074231,"Action":0},{"StopId":1989,"StopCode":"4004","PointLetter":"M","StopName":"Cecil Avenue","Latitude":51.651675,"Longitude":-0.070469,"Action":0},{"StopId":2020,"StopCode":"15870","PointLetter":"N","StopName":"Percival Road","Latitude":51.650727,"Longitude":-0.065897,"Action":0},{"StopId":3648,"StopCode":"3492","PointLetter":"P","StopName":"Great Cambridge Road","Latitude":51.650062,"Longitude":-0.062081,"Action":0},{"StopId":2424,"StopCode":"3174","PointLetter":"B","StopName":"Southbury Road","Latitude":51.648670,"Longitude":-0.060015,"Action":0},{"StopId":2437,"StopCode":"15866","PointLetter":"H","StopName":"Lincoln Road","Latitude":51.645535,"Longitude":-0.060221,"Action":0},{"StopId":2392,"StopCode":"18057","PointLetter":"A","StopName":"Trinity Ave / Bush Hill Park Station","Latitude":51.639873,"Longitude":-0.063122,"Action":0},{"StopId":2416,"StopCode":"4538","PointLetter":"D","StopName":"Bury Street","Latitude":51.633564,"Longitude":-0.070516,"Action":0},{"StopId":2393,"StopCode":"2508","PointLetter":"EL","StopName":"Church Street","Latitude":51.630164,"Longitude":-0.077567,"Action":0},{"StopId":2399,"StopCode":"15864","PointLetter":"EM","StopName":"Deansway","Latitude":51.624163,"Longitude":-0.081245,"Action":0},{"StopId":2440,"StopCode":"15862","PointLetter":"SF","StopName":"Westerham Avenue","Latitude":51.621347,"Longitude":-0.082794,"Action":0},{"StopId":2426,"StopCode":"3170","PointLetter":"SG","StopName":"Cambridge Roundabout","Latitude":51.617291,"Longitude":-0.086085,"Action":0},{"StopId":1053,"StopCode":"12887","PointLetter":"SH","StopName":"Weir Hall Gardens","Latitude":51.615259,"Longitude":-0.086618,"Action":0},{"StopId":1059,"StopCode":"10834","PointLetter":"SJ","StopName":"Pasteur Gardens","Latitude":51.612394,"Longitude":-0.086334,"Action":0},{"StopId":1054,"StopCode":"10836","PointLetter":"SK","StopName":"Empire Parade","Latitude":51.609106,"Longitude":-0.085389,"Action":0},{"StopId":535,"StopCode":"3505","PointLetter":"RK","StopName":"White Hart Lane","Latitude":51.604950,"Longitude":-0.085853,"Action":0},{"StopId":1055,"StopCode":"15840","PointLetter":"RL","StopName":"Courtman Road","Latitude":51.602659,"Longitude":-0.088217,"Action":0},{"StopId":1047,"StopCode":"29427","PointLetter":"RM","StopName":"Gospatrick Road","Latitude":51.601569,"Longitude":-0.090833,"Action":0},{"StopId":1060,"StopCode":"15838","PointLetter":"RN","StopName":"Granville Road","Latitude":51.599462,"Longitude":-0.091773,"Action":0},{"StopId":396,"StopCode":"15837","PointLetter":"NV","StopName":"Boundary Road","Latitude":51.596871,"Longitude":-0.093889,"Action":0},{"StopId":276,"StopCode":"15835","PointLetter":"","StopName":"Westbury Avenue Baptist Church","Latitude":51.593529,"Longitude":-0.097970,"Action":0},{"StopId":369,"StopCode":"1665","PointLetter":"P","StopName":"Turnpike Lane Station","Latitude":51.590914,"Longitude":-0.102525,"Action":0},{"StopId":2394,"StopCode":"BP2831","PointLetter":"AP","StopName":"Turnpike Lane Bus Station","Latitude":51.589812,"Longitude":-0.102239,"Action":0}], "Routes" : [{"Id":6393,"Route":"231","From":"Enfield Chase Station","Towards":"Turnpike Lane Bus Station","Run":"1","IsDay":1,"encodedLevels":"P?AC?AEC@AC?@@E??BCAHAA@JA?C?E?AF?A?C@AD?A?H?@C??B@DB@@CBG?BA@D?@?D@@EBCB?EAD@?B@?C@AH?DB@F@BCABFBD@A@E???BEAEDAP","encodedPoints":"argzHvmP?kBDm@PaAHUfC}ExA}Dh@c[QuA]aHWcM@y@L_FRoDb@uNFs@rCcThCeTjAyM`BuKlAiFfWx@nB?vFPnANtCr@r@X|Ax@p@j@zBvB|NtQdW~ZrFpHj@~@rAhCp@zA~AfEzAtFpAbGvAjEZn@|@vAV\\fBhBvA|@bJ|EvHzDp@TxD`A|Bn@hFnBjAh@rElC|CbC~FjFvBbB|CtBpDxAx@ENENW`@SL?FBHHNXlA~AvBFxF@jAEhDc@~KyCfEm@vBEvA?xIRlG^`AVVJXPxBnBb@\\TL^H|CJf@PDVnAxM~@tC~@`Bl@x@r@p@v@f@dBn@|@N~FZdDz@KzCV^ZZhAt@pEjCrFhDbArBjGxMd@x@lLnV|ChFnAuAhBmAWwAcAV_A@","Color":"993333","hasRunTwo":1,"startPoint":{"Latitude":51.653619,"Longitude":-0.089393},"endPoint":{"Latitude":51.590259,"Longitude":-0.102215}}]}


