{"Stops" : [{"StopId":4298,"StopCode":"37024","PointLetter":"","StopName":"Mitchell Way","Latitude":51.548241,"Longitude":-0.268048,"Action":0},{"StopId":4211,"StopCode":"37021","PointLetter":"","StopName":"Lilburne Walk","Latitude":51.549237,"Longitude":-0.265471,"Action":0},{"StopId":4289,"StopCode":"37025","PointLetter":"","StopName":"Owen Way","Latitude":51.551020,"Longitude":-0.264985,"Action":0},{"StopId":4185,"StopCode":"37020","PointLetter":"Q","StopName":"Drury Way","Latitude":51.552607,"Longitude":-0.262876,"Action":0},{"StopId":12061,"StopCode":"14851","PointLetter":"L","StopName":"Woodheyes Road","Latitude":51.552544,"Longitude":-0.257426,"Action":0},{"StopId":12067,"StopCode":"16555","PointLetter":"NN","StopName":"Village Way","Latitude":51.557191,"Longitude":-0.253642,"Action":0},{"StopId":12141,"StopCode":"37338","PointLetter":"UU","StopName":"North Circular Road","Latitude":51.561055,"Longitude":-0.254648,"Action":0},{"StopId":9499,"StopCode":"34870","PointLetter":"FF","StopName":"Neasden Shopping Centre / Birse Crescent","Latitude":51.559679,"Longitude":-0.250430,"Action":0},{"StopId":12136,"StopCode":"BP2312","PointLetter":"SS","StopName":"St Catherine Neasden Church","Latitude":51.558423,"Longitude":-0.247622,"Action":0},{"StopId":12142,"StopCode":"BP2313","PointLetter":"","StopName":"Randall Avenue","Latitude":51.559230,"Longitude":-0.244432,"Action":0},{"StopId":12135,"StopCode":"BP2314","PointLetter":"","StopName":"Gladstone Park","Latitude":51.560101,"Longitude":-0.240156,"Action":0},{"StopId":12129,"StopCode":"BP3392","PointLetter":"","StopName":"Brook Road","Latitude":51.560218,"Longitude":-0.237123,"Action":0},{"StopId":12130,"StopCode":"BP2315","PointLetter":"DA","StopName":"Pippin Close","Latitude":51.561911,"Longitude":-0.233089,"Action":0},{"StopId":9716,"StopCode":"16998","PointLetter":"DB","StopName":"Oxgate Gardens","Latitude":51.563009,"Longitude":-0.230219,"Action":0},{"StopId":9741,"StopCode":"16999","PointLetter":"DC","StopName":"Humber Road","Latitude":51.565116,"Longitude":-0.231594,"Action":0},{"StopId":9554,"StopCode":"34105","PointLetter":"SU","StopName":"Oxgate Lane","Latitude":51.568303,"Longitude":-0.229984,"Action":0},{"StopId":9560,"StopCode":"1763","PointLetter":"SJ","StopName":"Staples Corner","Latitude":51.570422,"Longitude":-0.231576,"Action":0},{"StopId":9472,"StopCode":"35528","PointLetter":"M","StopName":"Etheridge Road","Latitude":51.573429,"Longitude":-0.224691,"Action":0},{"StopId":1418,"StopCode":"35214","PointLetter":"D","StopName":"Brent Cross Shopping Centre","Latitude":51.575717,"Longitude":-0.222553,"Action":0},{"StopId":12108,"StopCode":"16540","PointLetter":"X","StopName":"Heathfield Gardens","Latitude":51.578164,"Longitude":-0.215544,"Action":0},{"StopId":12107,"StopCode":"16539","PointLetter":"W","StopName":"Golders Green Road","Latitude":51.580514,"Longitude":-0.212782,"Action":0},{"StopId":12090,"StopCode":"16537","PointLetter":"","StopName":"Bridge Lane","Latitude":51.586171,"Longitude":-0.209831,"Action":0},{"StopId":12046,"StopCode":"25841","PointLetter":"TN","StopName":"Southbourne Crescent","Latitude":51.588187,"Longitude":-0.207587,"Action":0},{"StopId":1270,"StopCode":"BP615","PointLetter":"TQ","StopName":"Henlys Corner","Latitude":51.589896,"Longitude":-0.198858,"Action":0},{"StopId":12155,"StopCode":"16532","PointLetter":"TS","StopName":"Beechwood Avenue","Latitude":51.590212,"Longitude":-0.193042,"Action":0},{"StopId":12127,"StopCode":"27781","PointLetter":"A","StopName":"Amberden Avenue","Latitude":51.592016,"Longitude":-0.189347,"Action":0},{"StopId":12148,"StopCode":"16530","PointLetter":"B","StopName":"East End Road","Latitude":51.593843,"Longitude":-0.185968,"Action":0},{"StopId":12150,"StopCode":"16528","PointLetter":"F","StopName":"Long Lane","Latitude":51.597807,"Longitude":-0.178865,"Action":0},{"StopId":12140,"StopCode":"16526","PointLetter":"T","StopName":"Finchley High Road","Latitude":51.600739,"Longitude":-0.174834,"Action":0},{"StopId":12156,"StopCode":"16524","PointLetter":"","StopName":"Coppetts Close","Latitude":51.605887,"Longitude":-0.160721,"Action":0},{"StopId":12146,"StopCode":"70228","PointLetter":"CT","StopName":"Colney Hatch Lane","Latitude":51.606536,"Longitude":-0.153402,"Action":0},{"StopId":12137,"StopCode":"16520","PointLetter":"CW","StopName":"Alexandra Road","Latitude":51.609429,"Longitude":-0.142438,"Action":0},{"StopId":12138,"StopCode":"16518","PointLetter":"","StopName":"Bounds Green Road","Latitude":51.610954,"Longitude":-0.136512,"Action":0},{"StopId":4144,"StopCode":"9962","PointLetter":"GF","StopName":"Hobart Corner","Latitude":51.611703,"Longitude":-0.137233,"Action":0},{"StopId":4095,"StopCode":"9960","PointLetter":"","StopName":"Lower Park Road","Latitude":51.612240,"Longitude":-0.139926,"Action":0},{"StopId":1673,"StopCode":"9956","PointLetter":"M","StopName":"Whitmore Close","Latitude":51.613805,"Longitude":-0.142231,"Action":0},{"StopId":1680,"StopCode":"9954","PointLetter":"K","StopName":"New Southgate Station","Latitude":51.615111,"Longitude":-0.143448,"Action":0},{"StopId":967,"StopCode":"BP113","PointLetter":"S","StopName":"Betstyle Road","Latitude":51.616401,"Longitude":-0.138051,"Action":0},{"StopId":1015,"StopCode":"15425","PointLetter":"T","StopName":"Arnos Grove Station","Latitude":51.616192,"Longitude":-0.133423,"Action":0},{"StopId":1013,"StopCode":"15427","PointLetter":"GP","StopName":"Telford Road","Latitude":51.614589,"Longitude":-0.126498,"Action":0},{"StopId":1005,"StopCode":"1606","PointLetter":"GR","StopName":"Brownlow Road","Latitude":51.613521,"Longitude":-0.123205,"Action":0},{"StopId":984,"StopCode":"34927","PointLetter":"GU","StopName":"Pymmes Road","Latitude":51.612449,"Longitude":-0.116952,"Action":0},{"StopId":870,"StopCode":"10875","PointLetter":"W","StopName":"Tottenhall Road","Latitude":51.611267,"Longitude":-0.109419,"Action":0},{"StopId":909,"StopCode":"10871","PointLetter":"BT","StopName":"Berkshire Gardens","Latitude":51.608421,"Longitude":-0.110244,"Action":0},{"StopId":877,"StopCode":"R0722","PointLetter":"BU","StopName":"Arcadian Gardens","Latitude":51.606948,"Longitude":-0.110941,"Action":0},{"StopId":894,"StopCode":"760","PointLetter":"BV","StopName":"Nightingale Road","Latitude":51.603383,"Longitude":-0.111811,"Action":0},{"StopId":911,"StopCode":"10868","PointLetter":"BW","StopName":"Canning Crescent","Latitude":51.601795,"Longitude":-0.112007,"Action":0},{"StopId":174,"StopCode":"10866","PointLetter":"BY","StopName":"Haringey Civic Centre","Latitude":51.599957,"Longitude":-0.111246,"Action":0},{"StopId":243,"StopCode":"1488","PointLetter":"D","StopName":"Wood Green Station","Latitude":51.597665,"Longitude":-0.110186,"Action":0},{"StopId":224,"StopCode":"BP1795","PointLetter":"G","StopName":"Lordship Lane","Latitude":51.596633,"Longitude":-0.109218,"Action":0},{"StopId":650,"StopCode":"9985","PointLetter":"K","StopName":"Brampton Park Road","Latitude":51.592946,"Longitude":-0.106382,"Action":0},{"StopId":184,"StopCode":"70351","PointLetter":"MA","StopName":"Coleraine Road","Latitude":51.591374,"Longitude":-0.104282,"Action":0},{"StopId":258,"StopCode":"3617","PointLetter":"Y","StopName":"Turnpike Lane Station","Latitude":51.589627,"Longitude":-0.102449,"Action":0}], "Routes" : [{"Id":8929,"Route":"232","From":"Mitchell Way","Towards":"Turnpike Lane Station","Run":"1","IsDay":1,"encodedLevels":"P@?BB@E@?AC?AF?B?CB@G?AAA?@D@B?BC?A?E??@E?ACAHAEA@AC@DBBF?A?B?C@H?C?A?DA?EB@E?CA?ED?AE@B@C@?AGAD@??C@E?AA@BA@@?@EBADAH?B?ADA?F?@CAGCB?CA??@CB@HA??B?DCA?B?C@AEAADA@A@?F@B?DEDCDC@DAE?B@BA?E?B@B?D?B@AC@E@@?B?G@B@AE?AAC?EAC@AI?B?D@B@AD@B?G@????AD?@@C?@@E@B?B?G@C?AC@E??A?C@B??@BH?@C@E@BGF@D@AJ@B@@BDB@BB?C@B@AE@?A@DABF?AB@CAICADB???D@CAAH?AC?B@@B@DABF@A?ACB?P","encodedPoints":"wyryHtis@]CQMCA}Cl@}@AIEISIw@QmC{@eHIUQc@w@}@SI[CkF^a@@iFWQIS]I[ASH}DGwJGCIS?MBQRUD?LHfAm@JQHSDc@?Y[}Ce@gGiA}MOcAe@yBOg@[q@}AsBqAiA{CmBcDmAo@Jk@Zw@r@_Bt@{@TmGp@mDI{C_Aq@FQFMLOVYr@Wp@_BrF@j@Hd@\\\\VNL?JELIRYfAwC|BoIhDwMf@yDQu@Es@SKUCgA|@SVKXo@lCd@Z^PlAPT}@f@{CI_@Es@Vw@Xg@z@kAx@oBkA{B_ByE@MEYM_BaBoOq@uBo@_D@eCAm@c@cGKgHDqAYkGOy@GICU@OQiA{@{C{EgIc@qAcCiLIeAWFiEbBSRcD`CiAf@}@v@aBhCyB~Cg@oC[kBYy@oG}LSIcFxGmC~B]AUDYZGR?FO`@MTe@TI?OKYg@Gi@?SUqBs@iBKQ_@e@U?QPa@TK?]Ic@]c@m@Qk@CsAVmGHaIU}BQYI_@M_BMy@K]]w@SQOIu@OsDdBqA_HmAl@Oq@SgAL[t@{@s@gEsAsEMQSQaA[aAQyBqAUYEKEk@O_AOCKQ?{@B[PYBAR?RNPGLMl@qA_AcDIk@i@cCOe@kAsCYe@qAmBsBcC{DqDwAaBiDkCw@[[IqCUcDk@iImDiDuAkDyBq@u@gA{Ag@}@{@sBWy@iAcFqCwRy@iG[iFCaB@yD^yQGuCOyBk@qEsA}Fo@cCyFeMyAqD_FyK{HmQ[y@uFiMuDuH_@o@yB_D}BuCkFwHu@oAqAkCmCuF{AmDoAiDkCoIa@{AgHyZcAaD_CmIu@wGGmAIyE@uARyLcAuMWyB]_Ck@wCqBwMoBaP[{BsEgTkBmJkB}KYmBwBsMCg@sAsFG\\_AbDqBvIMfBcA|IYp@m@|@qIlIoFdEg@oCgB{Gq@IeA]CKA[De@JYjAoA^u@VyAPoDMgDK}Il@wEAgJByADKXCJiEb@kJd@kFVcAzAcEN[lCqIj@yB|AgHvBgMnAuKNgCDiA@wGc@sNAoCJ_UL}BfDSbBHnDh@rGpAbCt@rE~AlBr@vGxBlHHrAHt@Nn@`@|AVv@U`H}B`LqClAq@nCcBXYLe@FIx@s@~@g@TBbGcAxAo@~@eAvBuCnEcH~@_B|DsFtHkIv@i@RI","Color":"993333","hasRunTwo":1,"startPoint":{"Latitude":51.547321,"Longitude":-0.267946},"endPoint":{"Latitude":51.589473,"Longitude":-0.102523}}]}


