{"Stops" : [{"StopId":9813,"StopCode":"BP1612","PointLetter":"S","StopName":"The Spires","Latitude":51.656482,"Longitude":-0.203998,"Action":0},{"StopId":9794,"StopCode":"80002","PointLetter":"T","StopName":"Salisbury Road","Latitude":51.654986,"Longitude":-0.204346,"Action":0},{"StopId":9755,"StopCode":"80003","PointLetter":"D","StopName":"Barnet High Street","Latitude":51.654340,"Longitude":-0.201494,"Action":0},{"StopId":1002,"StopCode":"4127","PointLetter":"G","StopName":"Barnet High Street / Barnet Church","Latitude":51.652811,"Longitude":-0.199155,"Action":0},{"StopId":990,"StopCode":"1478","PointLetter":"N","StopName":"High Barnet Station/Meadway","Latitude":51.651364,"Longitude":-0.196871,"Action":0},{"StopId":968,"StopCode":"9923","PointLetter":"R","StopName":"High Barnet Station","Latitude":51.649356,"Longitude":-0.193192,"Action":0},{"StopId":969,"StopCode":"9921","PointLetter":"A","StopName":"Potters Lane","Latitude":51.647212,"Longitude":-0.188261,"Action":0},{"StopId":1041,"StopCode":"1333","PointLetter":"D","StopName":"Barnet Odeon","Latitude":51.646408,"Longitude":-0.186848,"Action":0},{"StopId":1034,"StopCode":"9919","PointLetter":"E","StopName":"Dinsdale Gardens","Latitude":51.644025,"Longitude":-0.183936,"Action":0},{"StopId":1009,"StopCode":"3778","PointLetter":"J","StopName":"Lyonsdown Road","Latitude":51.640888,"Longitude":-0.180550,"Action":0},{"StopId":1033,"StopCode":"9917","PointLetter":"K","StopName":"Walfield Avenue","Latitude":51.639231,"Longitude":-0.179821,"Action":0},{"StopId":1024,"StopCode":"9915","PointLetter":"","StopName":"Friern Mount Drive","Latitude":51.636567,"Longitude":-0.177385,"Action":0},{"StopId":971,"StopCode":"9913","PointLetter":"L","StopName":"Chandos Avenue","Latitude":51.633900,"Longitude":-0.175830,"Action":0},{"StopId":999,"StopCode":"4653","PointLetter":"M","StopName":"Athenaeum Road","Latitude":51.630946,"Longitude":-0.175009,"Action":0},{"StopId":1397,"StopCode":"9910","PointLetter":"E","StopName":"Oakleigh Road North","Latitude":51.628698,"Longitude":-0.174420,"Action":0},{"StopId":11266,"StopCode":"19616","PointLetter":"F","StopName":"Whetstone Police Station","Latitude":51.627030,"Longitude":-0.174126,"Action":0},{"StopId":11205,"StopCode":"19614","PointLetter":"","StopName":"Lawrence Campe Close","Latitude":51.625443,"Longitude":-0.170361,"Action":0},{"StopId":11236,"StopCode":"20910","PointLetter":"","StopName":"Golfside Close","Latitude":51.622779,"Longitude":-0.166207,"Action":0},{"StopId":11258,"StopCode":"1311","PointLetter":"","StopName":"Friary Road","Latitude":51.621001,"Longitude":-0.162927,"Action":0},{"StopId":11207,"StopCode":"19612","PointLetter":"","StopName":"The Ridgeway","Latitude":51.617776,"Longitude":-0.159648,"Action":0},{"StopId":11264,"StopCode":"1309","PointLetter":"FT","StopName":"Constable Close","Latitude":51.613236,"Longitude":-0.158575,"Action":0},{"StopId":9272,"StopCode":"19610","PointLetter":"FD","StopName":"Friern Barnet Road","Latitude":51.612102,"Longitude":-0.157422,"Action":0},{"StopId":9462,"StopCode":"20146","PointLetter":"FE","StopName":"Hillside Avenue","Latitude":51.611238,"Longitude":-0.155016,"Action":0},{"StopId":9403,"StopCode":"19541","PointLetter":"CK","StopName":"North Circular Road","Latitude":51.607428,"Longitude":-0.152369,"Action":0},{"StopId":1380,"StopCode":"1145","PointLetter":"B","StopName":"Muswell Hill","Latitude":51.591638,"Longitude":-0.142716,"Action":0},{"StopId":1291,"StopCode":"25366","PointLetter":"H","StopName":"Princes Avenue","Latitude":51.590056,"Longitude":-0.143936,"Action":0},{"StopId":1387,"StopCode":"16022","PointLetter":"L","StopName":"Muswell Hill Road","Latitude":51.589744,"Longitude":-0.145811,"Action":0},{"StopId":1502,"StopCode":"16024","PointLetter":"K","StopName":"Birchwood Avenue","Latitude":51.590954,"Longitude":-0.148389,"Action":0},{"StopId":1318,"StopCode":"16026","PointLetter":"","StopName":"Midhurst Avenue","Latitude":51.590937,"Longitude":-0.153601,"Action":0},{"StopId":1404,"StopCode":"16028","PointLetter":"L","StopName":"Twyford Avenue","Latitude":51.590084,"Longitude":-0.160002,"Action":0},{"StopId":1271,"StopCode":"10242","PointLetter":"J","StopName":"Fairlawn Avenue","Latitude":51.588904,"Longitude":-0.163890,"Action":0},{"StopId":10081,"StopCode":"27477","PointLetter":"G","StopName":"East Finchley Station","Latitude":51.586674,"Longitude":-0.163879,"Action":0},{"StopId":10094,"StopCode":"9877","PointLetter":"C","StopName":"The Bishops Avenue","Latitude":51.585052,"Longitude":-0.162486,"Action":0},{"StopId":10093,"StopCode":"9873","PointLetter":"P","StopName":"Woodside Avenue","Latitude":51.583200,"Longitude":-0.159097,"Action":0},{"StopId":11289,"StopCode":"BP3537","PointLetter":"L","StopName":"Highgate Wood","Latitude":51.581205,"Longitude":-0.155136,"Action":0}], "Routes" : [{"Id":5868,"Route":"234","From":"The Spires","Towards":"Highgate Wood","Run":"1","IsDay":1,"encodedLevels":"PBFB?EB?E?@CAB?@D@?BF@A?GBABADBAC@F?B@CB@@C?G@B@D?CAEAB?EAD@@C?GBCAA?G?@BBE?BAB?E?BABIBD@BA@G@?@C@C?H@D?@@BF@AADAGAC@C@ADB@?C@AI??@CAE@BFAC?C??BIA?@A@DAACF?B@?CAP","encodedPoints":"_ehzHnyf@t@v@rG`Ch@qF@o@XwIxDe@PM^e@JYf@cClByGjB}DjG}KxAeD~GcOdE}JrAoGPc@n@cDtAyDr@iAxFuHnKgNxHuJzAaAhDqAbB_@rCqApCiBnEoDlAaBfFeFzBmApAg@tAY|J_BlDs@lIwBfEk@v@?`AFrC?XS`Ag@hAkAZe@z@eBjA}Cd@}Cb@qDnA}E`CqH|DyDtBeCz@iAxEwGXgD\\mBNU`A{@|@oAn@oB`DuI`IwAbDyAhDSbGy@|BOpHq@\\m@b@cAnDaJZ}BhD_JTQTKzCa@VFjFiARKPOfEaFlCeFLg@dCiDlB~IdAlCr@`B`@j@fBvBb@b@ZPd@CRGTMtCi@bENr@CfEu@|D{@bAgAfGoFbA]nA[zG_B\\CvBcAEOAwGXiCEkAUq@yBwN`EmA`CoAz@gAdA{@h@[~CiAxA}@^{@Aa@@c@DSFMLGRHDFBP?j@VpB~BrEbCxGWd@aHrR_@vBn@vENfCAhCD~M`@fFf@xHpCd`@jApJPGH@@DtBVtE^v@?`@[nAQ~DkAfAgAfA}Az@}AdCeFlFeMpAqCdEiKfCgI","Color":"993333","hasRunTwo":1,"startPoint":{"Latitude":51.656640,"Longitude":-0.203914},"endPoint":{"Latitude":51.580888,"Longitude":-0.154552}}]}


