{"Stops" : [{"StopId":5275,"StopCode":"4554","PointLetter":"C","StopName":"Frampton Road","Latitude":51.463219,"Longitude":-0.387417,"Action":0},{"StopId":5251,"StopCode":"17668","PointLetter":"D","StopName":"Martindale Road","Latitude":51.463797,"Longitude":-0.385007,"Action":0},{"StopId":5252,"StopCode":"BP1798","PointLetter":"E","StopName":"Cranbrook Road","Latitude":51.464619,"Longitude":-0.381364,"Action":0},{"StopId":5257,"StopCode":"553","PointLetter":"F","StopName":"Wellington Road South","Latitude":51.465491,"Longitude":-0.377374,"Action":0},{"StopId":5267,"StopCode":"6210","PointLetter":"","StopName":"Hibernia Road","Latitude":51.466750,"Longitude":-0.371600,"Action":0},{"StopId":2743,"StopCode":"BP930","PointLetter":"U","StopName":"The Bell","Latitude":51.467182,"Longitude":-0.366430,"Action":0},{"StopId":3772,"StopCode":"15580","PointLetter":"O","StopName":"Treaty Centre","Latitude":51.467554,"Longitude":-0.362127,"Action":0},{"StopId":5266,"StopCode":"BP2285","PointLetter":"K","StopName":"Hounslow High Street","Latitude":51.469604,"Longitude":-0.357647,"Action":0},{"StopId":2988,"StopCode":"1341","PointLetter":"F","StopName":"Hounslow Bus Station","Latitude":51.471013,"Longitude":-0.353594,"Action":0},{"StopId":4400,"StopCode":"6205","PointLetter":"","StopName":"Bridge Road","Latitude":51.472015,"Longitude":-0.349368,"Action":0},{"StopId":4523,"StopCode":"BP4509","PointLetter":"J","StopName":"Star Road","Latitude":51.472958,"Longitude":-0.346728,"Action":0},{"StopId":4505,"StopCode":"6202","PointLetter":"K","StopName":"Thornbury Road","Latitude":51.474025,"Longitude":-0.344630,"Action":0},{"StopId":4507,"StopCode":"6200","PointLetter":"L","StopName":"West Thames College","Latitude":51.474961,"Longitude":-0.342134,"Action":0},{"StopId":6719,"StopCode":"6197","PointLetter":"N","StopName":"Isleworth Station","Latitude":51.475244,"Longitude":-0.337357,"Action":0},{"StopId":6744,"StopCode":"6195","PointLetter":"P","StopName":"Linkfield Road","Latitude":51.475362,"Longitude":-0.334905,"Action":0},{"StopId":6718,"StopCode":"6193","PointLetter":"Q","StopName":"Wood Lane","Latitude":51.475904,"Longitude":-0.332538,"Action":0},{"StopId":6692,"StopCode":"6191","PointLetter":"R","StopName":"Turnpike Way","Latitude":51.477177,"Longitude":-0.328430,"Action":0},{"StopId":6716,"StopCode":"6189","PointLetter":"P","StopName":"The Green School","Latitude":51.478256,"Longitude":-0.324704,"Action":0},{"StopId":2915,"StopCode":"6187","PointLetter":"T","StopName":"Busch Corner","Latitude":51.479005,"Longitude":-0.322329,"Action":0},{"StopId":5917,"StopCode":"6183","PointLetter":"X","StopName":"Syon Lane","Latitude":51.479993,"Longitude":-0.319082,"Action":0},{"StopId":5731,"StopCode":"6181","PointLetter":"","StopName":"Beech Avenue","Latitude":51.480828,"Longitude":-0.316531,"Action":0},{"StopId":5919,"StopCode":"6179","PointLetter":"","StopName":"Brent Lea","Latitude":51.482090,"Longitude":-0.313604,"Action":0},{"StopId":2917,"StopCode":"6175","PointLetter":"BN","StopName":"Brentford Magistrates Court","Latitude":51.483343,"Longitude":-0.307566,"Action":0},{"StopId":5921,"StopCode":"6173","PointLetter":"BP","StopName":"Brentford County Court","Latitude":51.483969,"Longitude":-0.304230,"Action":0},{"StopId":2918,"StopCode":"6169","PointLetter":"BE","StopName":"Watermans Centre","Latitude":51.486170,"Longitude":-0.298488,"Action":0},{"StopId":2919,"StopCode":"6167","PointLetter":"BF","StopName":"The Musical Museum","Latitude":51.486947,"Longitude":-0.295636,"Action":0},{"StopId":2930,"StopCode":"6163","PointLetter":"Y","StopName":"Kew Bridge Steam Museum","Latitude":51.488330,"Longitude":-0.291162,"Action":0},{"StopId":1921,"StopCode":"2196","PointLetter":"X","StopName":"Kew Bridge Station","Latitude":51.489290,"Longitude":-0.287309,"Action":0},{"StopId":1860,"StopCode":"3163","PointLetter":"L","StopName":"Brentford Fountain Leisure Centre","Latitude":51.490821,"Longitude":-0.284357,"Action":0},{"StopId":1815,"StopCode":"6158","PointLetter":"K","StopName":"Oxford Road North","Latitude":51.492264,"Longitude":-0.277935,"Action":0},{"StopId":1909,"StopCode":"1049","PointLetter":"B","StopName":"Gunnersbury Station","Latitude":51.492439,"Longitude":-0.275754,"Action":0},{"StopId":1880,"StopCode":"R0209","PointLetter":"S","StopName":"Chiswick Road","Latitude":51.492987,"Longitude":-0.270806,"Action":0},{"StopId":1831,"StopCode":"134","PointLetter":"DD","StopName":"Turnham Green Church","Latitude":51.492638,"Longitude":-0.264855,"Action":0},{"StopId":1844,"StopCode":"33871","PointLetter":"GG","StopName":"Clifton Gardens","Latitude":51.492507,"Longitude":-0.261489,"Action":0},{"StopId":1759,"StopCode":"27402","PointLetter":"II","StopName":"Chiswick Police Station","Latitude":51.492640,"Longitude":-0.257724,"Action":0},{"StopId":1878,"StopCode":"29149","PointLetter":"OO","StopName":"Chiswick Lane","Latitude":51.492913,"Longitude":-0.253047,"Action":0},{"StopId":1790,"StopCode":"1037","PointLetter":"H","StopName":"Stamford Brook Bus Garage","Latitude":51.493153,"Longitude":-0.249263,"Action":0},{"StopId":11245,"StopCode":"172","PointLetter":"L","StopName":"Goldhawk Road / Young's Corner","Latitude":51.493418,"Longitude":-0.246516,"Action":0},{"StopId":11239,"StopCode":"27613","PointLetter":"P","StopName":"Stamford Brook Station","Latitude":51.495540,"Longitude":-0.244720,"Action":0},{"StopId":11283,"StopCode":"6220","PointLetter":"SP","StopName":"Ravenscourt Gardens","Latitude":51.496631,"Longitude":-0.244289,"Action":0},{"StopId":11300,"StopCode":"27615","PointLetter":"SQ","StopName":"Stamford Brook Road","Latitude":51.498260,"Longitude":-0.243780,"Action":0},{"StopId":1629,"StopCode":"1784","PointLetter":"SB","StopName":"Askew Road","Latitude":51.499626,"Longitude":-0.240111,"Action":0},{"StopId":1606,"StopCode":"685","PointLetter":"SC","StopName":"Paddenswick Road","Latitude":51.500259,"Longitude":-0.236816,"Action":0},{"StopId":1607,"StopCode":"6214","PointLetter":"SD","StopName":"Cathnor Road","Latitude":51.500811,"Longitude":-0.234043,"Action":0},{"StopId":1644,"StopCode":"6212","PointLetter":"SE","StopName":"St Stephens Avenue","Latitude":51.501555,"Longitude":-0.231464,"Action":0},{"StopId":1578,"StopCode":"847","PointLetter":"L","StopName":"Goldhawk Road Station","Latitude":51.502355,"Longitude":-0.227312,"Action":0},{"StopId":1658,"StopCode":"840","PointLetter":"M","StopName":"Shepherds Bush Road","Latitude":51.503037,"Longitude":-0.224259,"Action":0},{"StopId":2031,"StopCode":"24294","PointLetter":"U","StopName":"Shepherds Bush Green","Latitude":51.504625,"Longitude":-0.221028,"Action":0},{"StopId":8576,"StopCode":"BP5232","PointLetter":"B","StopName":"Shepherds Bush Station","Latitude":51.505409,"Longitude":-0.218129,"Action":0},{"StopId":9022,"StopCode":"BP5255","PointLetter":"WG","StopName":"White City Bus Station","Latitude":51.508807,"Longitude":-0.224006,"Action":0}], "Routes" : [{"Id":3593,"Route":"237","From":"Frampton Road","Towards":"White City Bus Station","Run":"1","IsDay":1,"encodedLevels":"P@B@@ED@?BE@@AA@FB@@@@@@A@B?BAAE?BAADBAAF?AA?F@A@A@C?AADAC?@B@?AE?@@@?DAAA@BCA?@E@A?B@C?C?AH@??B@?D@@ABE?@C?@BHBAAAG?@@AA?BA??A@C??B??A@F?AD???DB@F?BA?H@D?A?AG?ADA?@ADA?@B@@B@E@D?@B@@P","encodedPoints":"ojbyHlxjA}BmMe@kD_Kcu@mF}a@gCwQYmDHIPG|CeBDi@?e@Iw@sA_MW{@@k@Gc@k@_CEGG@KO?IWa@G@KO@Im@aAa@qAiEmOaAcC_@Ws@qAq@kEiByJ{@aIgBkLwB_LiCaIiDoIaBsC_BoEOmAG{A{Aep@KaAKm@wBqKgEsR@OuHa`@kCkLsBmKw@kD_CaJsDiLeCmKCwC_@gGYaBg@uBo@aEUgBu@oIK}A}@iGw@oCs@uBqC_KIo@aCcIo@cC{@aFDQaBqH}AgI_A}FiBwGy@aFc@gEWgDSeAYiA}@cCaEiJkAuCeAkDaAgE]DW?OKU[K_@G{@@k@Di@?sBIe@yCqr@s@yNDiENoCh@kP^gP@uKQmMm@g[MoNa@}H]yE]}HQ{KkH}@wEqA_N}COFw@]AMBGe@mEa@sCyAoHYkBi@mECmAEUCCSkA@S}AiPi@_CIWcCiLcAcJyAyNa@iDiAkJ_@gB[cA_@w@M?e@PUN{EbCYJ_@CMOK[h@aFjAoM^uIBkAAiBoC_@wBOkEdBwBv@iFvAqBf@_C`AA^NzBf@pE`@DFCFKl@WHDRTDf@Lr@JVTPZDLJHNJj@L|CCrAILIFQ@u@AMIe@?","Color":"993333","hasRunTwo":1,"startPoint":{"Latitude":51.462968,"Longitude":-0.388064},"endPoint":{"Latitude":51.508869,"Longitude":-0.224011}}]}


