{"Stops" : [{"StopId":506,"StopCode":"25362","PointLetter":"E","StopName":"Redvers Road","Latitude":51.597451,"Longitude":-0.108072,"Action":0},{"StopId":527,"StopCode":"10948","PointLetter":"NA","StopName":"Wood Green Crown Court","Latitude":51.598651,"Longitude":-0.103864,"Action":0},{"StopId":514,"StopCode":"10952","PointLetter":"NB","StopName":"Perth Road","Latitude":51.599635,"Longitude":-0.100213,"Action":0},{"StopId":510,"StopCode":"10954","PointLetter":"NC","StopName":"Gladstone Avenue","Latitude":51.598559,"Longitude":-0.096518,"Action":0},{"StopId":452,"StopCode":"10958","PointLetter":"ND","StopName":"Westbury Avenue / Lordship Lane","Latitude":51.598243,"Longitude":-0.093701,"Action":0},{"StopId":453,"StopCode":"10961","PointLetter":"LA","StopName":"The Roundway / West Arm","Latitude":51.598109,"Longitude":-0.091541,"Action":0},{"StopId":395,"StopCode":"10962","PointLetter":"LB","StopName":"Waltheof Avenue","Latitude":51.597914,"Longitude":-0.086741,"Action":0},{"StopId":275,"StopCode":"10966","PointLetter":"LC","StopName":"Awlfield Avenue","Latitude":51.598015,"Longitude":-0.081885,"Action":0},{"StopId":454,"StopCode":"10968","PointLetter":"LD","StopName":"Mount Pleasant Road","Latitude":51.598313,"Longitude":-0.078147,"Action":0},{"StopId":326,"StopCode":"10973","PointLetter":"M","StopName":"Bruce Castle Park","Latitude":51.598109,"Longitude":-0.074503,"Action":0},{"StopId":110,"StopCode":"10974","PointLetter":"N","StopName":"Elmhurst Road","Latitude":51.596109,"Longitude":-0.072075,"Action":0},{"StopId":264,"StopCode":"10978","PointLetter":"P","StopName":"Bruce Grove Station","Latitude":51.594550,"Longitude":-0.070207,"Action":0},{"StopId":66,"StopCode":"1234","PointLetter":"C","StopName":"Tottenham High Road / Bruce Grove Stn","Latitude":51.593056,"Longitude":-0.069620,"Action":0},{"StopId":48,"StopCode":"R0307","PointLetter":"D","StopName":"Tottenham Police Station","Latitude":51.591261,"Longitude":-0.069841,"Action":0},{"StopId":188,"StopCode":"10944","PointLetter":"N","StopName":"Philip Lane","Latitude":51.587929,"Longitude":-0.070631,"Action":0},{"StopId":139,"StopCode":"10946","PointLetter":"P","StopName":"Tottenham Town Hall","Latitude":51.586832,"Longitude":-0.071140,"Action":0},{"StopId":262,"StopCode":"670","PointLetter":"G","StopName":"Seven Sisters Station","Latitude":51.585706,"Longitude":-0.071563,"Action":0},{"StopId":95,"StopCode":"959","PointLetter":"Q","StopName":"Seven Sisters Road","Latitude":51.582210,"Longitude":-0.072245,"Action":0},{"StopId":237,"StopCode":"2075","PointLetter":"TD","StopName":"South Tottenham Station","Latitude":51.580587,"Longitude":-0.072544,"Action":0},{"StopId":67,"StopCode":"9647","PointLetter":"TE","StopName":"St Ann's Road","Latitude":51.577762,"Longitude":-0.072996,"Action":0},{"StopId":211,"StopCode":"25904","PointLetter":"SK","StopName":"Egerton Road","Latitude":51.574503,"Longitude":-0.072239,"Action":0},{"StopId":89,"StopCode":"12415","PointLetter":"SL","StopName":"Stamford Hill Broadway","Latitude":51.572304,"Longitude":-0.072505,"Action":0},{"StopId":112,"StopCode":"26361","PointLetter":"SM","StopName":"Stamford Hill Library","Latitude":51.569970,"Longitude":-0.072762,"Action":0},{"StopId":103,"StopCode":"1545","PointLetter":"SN","StopName":"Lynmouth Road","Latitude":51.567526,"Longitude":-0.072837,"Action":0},{"StopId":36,"StopCode":"1116","PointLetter":"C","StopName":"Stoke Newington Station","Latitude":51.564786,"Longitude":-0.073024,"Action":0},{"StopId":20,"StopCode":"BP3194","PointLetter":"D","StopName":"Northwold Road / Stoke Newington Common","Latitude":51.562977,"Longitude":-0.071831,"Action":0},{"StopId":225,"StopCode":"33396","PointLetter":"L","StopName":"Rectory Road / Brooke Road","Latitude":51.559773,"Longitude":-0.070077,"Action":0},{"StopId":255,"StopCode":"33413","PointLetter":"N","StopName":"Manse Road","Latitude":51.557206,"Longitude":-0.069796,"Action":0},{"StopId":32,"StopCode":"2088","PointLetter":"Q","StopName":"Stoke Newington Road / Amhurst Road","Latitude":51.556005,"Longitude":-0.074419,"Action":0},{"StopId":157,"StopCode":"2092","PointLetter":"","StopName":"Princess May Road","Latitude":51.553267,"Longitude":-0.074751,"Action":0},{"StopId":102,"StopCode":"1113","PointLetter":"V","StopName":"Shacklewell Lane","Latitude":51.551401,"Longitude":-0.074960,"Action":0},{"StopId":260,"StopCode":"BP3253","PointLetter":"T","StopName":"Rio Cinema","Latitude":51.550090,"Longitude":-0.075116,"Action":0},{"StopId":238,"StopCode":"2093","PointLetter":"R","StopName":"Dalston Kingsland Station","Latitude":51.548726,"Longitude":-0.075274,"Action":0},{"StopId":153,"StopCode":"319","PointLetter":"M","StopName":"Dalston Junction Station","Latitude":51.546671,"Longitude":-0.075549,"Action":0},{"StopId":538,"StopCode":"2095","PointLetter":"D","StopName":"Kingsland Road / Forest Road","Latitude":51.544303,"Longitude":-0.075937,"Action":0},{"StopId":477,"StopCode":"1111","PointLetter":"KH","StopName":"Middleton Road","Latitude":51.541243,"Longitude":-0.076311,"Action":0},{"StopId":498,"StopCode":"2100","PointLetter":"KJ","StopName":"Haggerston Station  / Downham Road","Latitude":51.538586,"Longitude":-0.076596,"Action":0},{"StopId":486,"StopCode":"2103","PointLetter":"KL","StopName":"Laburnum Street","Latitude":51.535523,"Longitude":-0.076826,"Action":0},{"StopId":512,"StopCode":"2105","PointLetter":"KM","StopName":"St Leonard's Hospital","Latitude":51.533781,"Longitude":-0.076957,"Action":0},{"StopId":499,"StopCode":"2107","PointLetter":"KN","StopName":"Hoxton Station  / Geffrye Museum","Latitude":51.531362,"Longitude":-0.076944,"Action":0},{"StopId":492,"StopCode":"BP1323","PointLetter":"KP","StopName":"Falkirk Street","Latitude":51.529634,"Longitude":-0.077392,"Action":0},{"StopId":386,"StopCode":"13454","PointLetter":"T","StopName":"Shoreditch Church","Latitude":51.527943,"Longitude":-0.077910,"Action":0},{"StopId":521,"StopCode":"BP3474","PointLetter":"W","StopName":"Shoreditch Town Hall","Latitude":51.527177,"Longitude":-0.079471,"Action":0},{"StopId":483,"StopCode":"BP3473","PointLetter":"YA","StopName":"Great Eastern Street","Latitude":51.526510,"Longitude":-0.083261,"Action":0},{"StopId":523,"StopCode":"13476","PointLetter":"L","StopName":"Old Street Station","Latitude":51.525926,"Longitude":-0.086054,"Action":0},{"StopId":489,"StopCode":"13474","PointLetter":"G","StopName":"Bunhill Row","Latitude":51.525322,"Longitude":-0.089784,"Action":0},{"StopId":542,"StopCode":"13472","PointLetter":"H","StopName":"St Luke's Music Education Centre","Latitude":51.524744,"Longitude":-0.093513,"Action":0},{"StopId":500,"StopCode":"7868","PointLetter":"BX","StopName":"Aldersgate Street / Goswell Road","Latitude":51.523639,"Longitude":-0.097481,"Action":0},{"StopId":479,"StopCode":"13466","PointLetter":"","StopName":"Clerkenwell Road / St John Street","Latitude":51.522610,"Longitude":-0.101113,"Action":0},{"StopId":478,"StopCode":"13464","PointLetter":"K","StopName":"Clerkenwell Green","Latitude":51.522260,"Longitude":-0.105582,"Action":0},{"StopId":487,"StopCode":"13460","PointLetter":"D","StopName":"Hatton Garden","Latitude":51.521971,"Longitude":-0.108881,"Action":0},{"StopId":549,"StopCode":"13458","PointLetter":"CW","StopName":"Rosebery Avenue","Latitude":51.521816,"Longitude":-0.111510,"Action":0},{"StopId":505,"StopCode":"R0078","PointLetter":"CP","StopName":"Gray's Inn Road","Latitude":51.521245,"Longitude":-0.114042,"Action":0},{"StopId":501,"StopCode":"14682","PointLetter":"A","StopName":"Red Lion Square","Latitude":51.520127,"Longitude":-0.118341,"Action":0},{"StopId":284,"StopCode":"26425","PointLetter":"M","StopName":"Kingsway / Holborn Station","Latitude":51.516741,"Longitude":-0.119734,"Action":0},{"StopId":304,"StopCode":"29984","PointLetter":"K","StopName":"Aldwych / The Royal Courts Of Justice","Latitude":51.513401,"Longitude":-0.116096,"Action":0},{"StopId":18,"StopCode":"29985","PointLetter":"S","StopName":"Aldwych / Somerset House","Latitude":51.511881,"Longitude":-0.117239,"Action":0},{"StopId":166,"StopCode":"1835","PointLetter":"N","StopName":"Waterloo Bridge / South Bank","Latitude":51.507076,"Longitude":-0.115377,"Action":0},{"StopId":496,"StopCode":"BP1695","PointLetter":"","StopName":"Waterloo Station / Mepham Street","Latitude":51.503926,"Longitude":-0.112985,"Action":0}], "Routes" : [{"Id":10036,"Route":"243","From":"Redvers Road","Towards":"Waterloo Station / Mepham Street","Run":"1","IsDay":0,"encodedLevels":"P@A?BA?F?A?AE?A?B@DA@?G?B@J@A@AAC?A?B?BDAAA@?F@@AA?BE?B@C??AAAG@C?AEABBBK?A@BH?BAAC@A@@D???A?BEA?@@A@??IACBA@BB@DC@@D?@A?CAD?B@AE@A?A?AE@CB@IA@EACA?E@@@?F@B?B@GAB@@AG?@CB?AF?A?CAABAE@AP","encodedPoints":"ir|yHxdTi@wDeBcJqAqGwCcN_AyGGw@CmAFy@Lw@v@qCrD_O^_C@u@E}Bf@mYJaEJyUEqK]{Pk@uLG}D_@cOfKuM~L_PXq@De@`APpGl@b@B\\GzKnALKJBVP~AV|C\\fD~@fIhCzGjAjFn@n@AbCj@pF`@tHz@pJ~@TA\\Sl@M`@?tEiAfA[hEc@~BLvJr@\\XTFvGLLAtY^nDRtHBdAPTa@|BcIVc@Z]r@c@nC_@pGyA|GyBrBkAdDi@LtFDpCCzMDfETTfDAx@@hGl@lHPlY~AnIr@zHf@dHr@bJj@`MbAfGRxHRlBHvKTxEZhBDrJIzAN`GxAHDLBBE\\R|Bh@ZD~EhAC|CN~D^|@~@rIL|C`@|Cb@p@@jBVtDhAxGTb@j@l@NZ@^CXW|@I~@A`@r@lMfApLfA~Hz@hFpAjGZfAxEvWNjC^hQLdBl@bPNjLAf@R`DvCvSrChQpBnJh@jAJJV@TO|HcCJb@B`CJXLLZNTIHS`C{ArQuKn@c@HMJc@?m@JyGTcAb@qAP@^v@RnAP^vF`TJE~HoG~F_FvLkKtDkDPeADQZUFAp@@NJBHHh@I~@F~@Zp@NANQFS~@aH","Color":"993333","hasRunTwo":1,"startPoint":{"Latitude":51.597338,"Longitude":-0.108447},"endPoint":{"Latitude":51.503850,"Longitude":-0.112753}},{"Id":7916,"Route":"243","From":"Redvers Road","Towards":"Waterloo Station / Mepham Street","Run":"1","IsDay":1,"encodedLevels":"P@A?BA?F?A?AE?A?B@DA@?G?B@J@A@AAC?A?B?BDAAA@?F@@AA?BE?B@C??AAAG@C?AEABBBK?A@BH?BAAC@A@@D???A?BEA?@@A@??IACBA@BB@DC@@D?@A?CAD?B@AE@A?A?AE@CB@IA@EACA?E@@@?F@B?B@GAB@@AG?@CB?AF?A?CAABAE@AP","encodedPoints":"ir|yHxdTi@wDeBcJqAqGwCcN_AyGGw@CmAFy@Lw@v@qCrD_O^_C@u@E}Bf@mYJaEJyUEqK]{Pk@uLG}D_@cOfKuM~L_PXq@De@`APpGl@b@B\\GzKnALKJBVP~AV|C\\fD~@fIhCzGjAjFn@n@AbCj@pF`@tHz@pJ~@TA\\Sl@M`@?tEiAfA[hEc@~BLvJr@\\XTFvGLLAtY^nDRtHBdAPTa@|BcIVc@Z]r@c@nC_@pGyA|GyBrBkAdDi@LtFDpCCzMDfETTfDAx@@hGl@lHPlY~AnIr@zHf@dHr@bJj@`MbAfGRxHRlBHvKTxEZhBDrJIzAN`GxAHDLBBE\\R|Bh@ZD~EhAC|CN~D^|@~@rIL|C`@|Cb@p@@jBVtDhAxGTb@j@l@NZ@^CXW|@I~@A`@r@lMfApLfA~Hz@hFpAjGZfAxEvWNjC^hQLdBl@bPNjLAf@R`DvCvSrChQpBnJh@jAJJV@TO|HcCJb@B`CJXLLZNTIHS`C{ArQuKn@c@HMJc@?m@JyGTcAb@qAP@^v@RnAP^vF`TJE~HoG~F_FvLkKtDkDPeADQZUFAp@@NJBHHh@I~@F~@Zp@NANQFS~@aH","Color":"663366","hasRunTwo":1,"startPoint":{"Latitude":51.597338,"Longitude":-0.108447},"endPoint":{"Latitude":51.503850,"Longitude":-0.112753}}]}


