{"Stops" : [{"StopId":11625,"StopCode":"35591","PointLetter":"H4","StopName":"Queen Elizabeth Hospital / West Entrance","Latitude":51.476259,"Longitude":0.050141,"Action":0},{"StopId":11750,"StopCode":"BP2824","PointLetter":"H6","StopName":"Greenwich Heights","Latitude":51.474966,"Longitude":0.048470,"Action":0},{"StopId":11316,"StopCode":"19689","PointLetter":"SB","StopName":"Shooters Hill Road / Baker Road","Latitude":51.472234,"Longitude":0.049384,"Action":0},{"StopId":11470,"StopCode":"4662","PointLetter":"SC","StopName":"Shooters Hill Road / Academy Road","Latitude":51.471415,"Longitude":0.053538,"Action":0},{"StopId":11581,"StopCode":"19687","PointLetter":"SD","StopName":"Red Lion Lane","Latitude":51.470661,"Longitude":0.058097,"Action":0},{"StopId":11828,"StopCode":"19685","PointLetter":"SE","StopName":"Memorial Hospital","Latitude":51.469396,"Longitude":0.065614,"Action":0},{"StopId":11660,"StopCode":"27831","PointLetter":"WE","StopName":"Shrewsbury Lane / Occupation Lane","Latitude":51.471966,"Longitude":0.068725,"Action":0},{"StopId":11311,"StopCode":"27663","PointLetter":"","StopName":"Eaglesfield Road","Latitude":51.474142,"Longitude":0.069803,"Action":0},{"StopId":11669,"StopCode":"36813","PointLetter":"","StopName":"Brent Road","Latitude":51.475845,"Longitude":0.068598,"Action":0},{"StopId":11582,"StopCode":"27658","PointLetter":"WG","StopName":"Eglinton Road","Latitude":51.479041,"Longitude":0.068902,"Action":0},{"StopId":11405,"StopCode":"27656","PointLetter":"WH","StopName":"Herbert Road / Plumstead Common Road","Latitude":51.481358,"Longitude":0.069597,"Action":0},{"StopId":14925,"StopCode":"BP364","PointLetter":"P","StopName":"Nightingale Vale","Latitude":51.482205,"Longitude":0.066913,"Action":0},{"StopId":14896,"StopCode":"BP363","PointLetter":"R","StopName":"Woolwich Common / Ha Ha Road","Latitude":51.482366,"Longitude":0.063406,"Action":0},{"StopId":12297,"StopCode":"26645","PointLetter":"C","StopName":"Gunner Lane","Latitude":51.483002,"Longitude":0.062023,"Action":0},{"StopId":12376,"StopCode":"26644","PointLetter":"D","StopName":"Naafi Messing Store","Latitude":51.486366,"Longitude":0.063011,"Action":0},{"StopId":20938,"StopCode":"BP5481","PointLetter":"Q","StopName":"Woolwich Arsenal Station","Latitude":51.489932,"Longitude":0.068358,"Action":0},{"StopId":21138,"StopCode":"BP5540","PointLetter":"K","StopName":"Plumstead Road / Woolwich Public Market","Latitude":51.491404,"Longitude":0.071075,"Action":0},{"StopId":11576,"StopCode":"R0385","PointLetter":"","StopName":"Maxey Road","Latitude":51.491168,"Longitude":0.077259,"Action":0},{"StopId":19686,"StopCode":"36508","PointLetter":"WW","StopName":"Plumstead Bus Garage","Latitude":51.491426,"Longitude":0.082485,"Action":0},{"StopId":11705,"StopCode":"BP2584","PointLetter":"S","StopName":"Tom Cribb Road","Latitude":51.492577,"Longitude":0.079973,"Action":0},{"StopId":11706,"StopCode":"BP2583","PointLetter":"","StopName":"Carronade Place","Latitude":51.494079,"Longitude":0.080964,"Action":0},{"StopId":11707,"StopCode":"BP2582","PointLetter":"","StopName":"Heronsgate Primary School","Latitude":51.494293,"Longitude":0.083624,"Action":0},{"StopId":11708,"StopCode":"BP2581","PointLetter":"","StopName":"Wigeon Path","Latitude":51.496053,"Longitude":0.084252,"Action":0},{"StopId":11709,"StopCode":"BP2580","PointLetter":"","StopName":"Gallions Park","Latitude":51.498160,"Longitude":0.084593,"Action":0},{"StopId":11517,"StopCode":"BP2579","PointLetter":"","StopName":"Ridge Close","Latitude":51.499886,"Longitude":0.084672,"Action":0},{"StopId":11710,"StopCode":"BP2578","PointLetter":"","StopName":"Bluebird Way","Latitude":51.500261,"Longitude":0.086332,"Action":0},{"StopId":11823,"StopCode":"BP2577","PointLetter":"","StopName":"Merbury Road","Latitude":51.499739,"Longitude":0.088325,"Action":0},{"StopId":11573,"StopCode":"BP2576","PointLetter":"","StopName":"Goldfinch Road","Latitude":51.498379,"Longitude":0.088983,"Action":0},{"StopId":11849,"StopCode":"BP878","PointLetter":"","StopName":"Princess Alice","Latitude":51.498018,"Longitude":0.089572,"Action":0},{"StopId":11798,"StopCode":"R0386","PointLetter":"","StopName":"Belmarsh Prison","Latitude":51.497316,"Longitude":0.089569,"Action":0},{"StopId":20889,"StopCode":"BP878","PointLetter":"","StopName":"Princess Alice","Latitude":51.498018,"Longitude":0.089572,"Action":0},{"StopId":11666,"StopCode":"BP3114","PointLetter":"","StopName":"Grasshaven Way","Latitude":51.502330,"Longitude":0.102896,"Action":0},{"StopId":11829,"StopCode":"BP1813","PointLetter":"","StopName":"Watersmeet Place","Latitude":51.505175,"Longitude":0.104713,"Action":0},{"StopId":11518,"StopCode":"BP1583","PointLetter":"B","StopName":"Central Way / Thamesmead Town Centre","Latitude":51.505975,"Longitude":0.106739,"Action":0},{"StopId":11766,"StopCode":"36668","PointLetter":"G","StopName":"Gallions Reach Health Centre","Latitude":51.505836,"Longitude":0.110955,"Action":0},{"StopId":11612,"StopCode":"35921","PointLetter":"SA","StopName":"Hawksmoor School","Latitude":51.504009,"Longitude":0.111519,"Action":0},{"StopId":11611,"StopCode":"35922","PointLetter":"SB","StopName":"Southwood Road","Latitude":51.502221,"Longitude":0.112963,"Action":0},{"StopId":11804,"StopCode":"35926","PointLetter":"SC","StopName":"Titmuss Avenue","Latitude":51.503631,"Longitude":0.117524,"Action":0},{"StopId":11861,"StopCode":"35406","PointLetter":"SJ","StopName":"Carlyle Road / Crossway","Latitude":51.503736,"Longitude":0.119230,"Action":0},{"StopId":11658,"StopCode":"34812","PointLetter":"","StopName":"Newacres Library","Latitude":51.497538,"Longitude":0.121319,"Action":0},{"StopId":11793,"StopCode":"33040","PointLetter":"B","StopName":"Harrow Manorway / Yarnton Way","Latitude":51.495228,"Longitude":0.121226,"Action":0},{"StopId":11794,"StopCode":"33041","PointLetter":"BA","StopName":"Overton Road","Latitude":51.493420,"Longitude":0.121272,"Action":0},{"StopId":11626,"StopCode":"35309","PointLetter":"D","StopName":"Harrow Manorway / Abbey Wood Station","Latitude":51.490930,"Longitude":0.122223,"Action":0},{"StopId":11566,"StopCode":"26601","PointLetter":"E","StopName":"Abbey Wood Road","Latitude":51.489437,"Longitude":0.121231,"Action":0},{"StopId":11539,"StopCode":"6000","PointLetter":"M","StopName":"Gayton Road / Abbey Wood Station","Latitude":51.490896,"Longitude":0.122120,"Action":0}], "Routes" : [{"Id":3751,"Route":"244","From":"Queen Elizabeth Hospital / West Entrance","Towards":"Gayton Road / Abbey Wood Station","Run":"1","IsDay":1,"encodedLevels":"PAFA??CAG?AB@A?A@I@AACF@AC?F@AC@BDAC?C@H?A@AC@GA@DB?IA@D@@A?A?G?AD??C@?G@BCADAGABAC?EDAB@@DA?F?BD@C@?C@E?AH@A?@B?AA?AF?A@CA?E?@@E@B@C?AE@B@F@B@D@?D?BAC@GB??D@CA?DA?BAFB@D@@?I?CBA?B?DA@EAC@E?BAG@B?C?AE@BBF?@AAC@@D@BAH@BCBAD@BDC@@C@@C?EBACEBC?@FA?C?AAEP","encodedPoints":"y_eyHwzHfF~H`GhHb@RPBV?HAtAu@fDkC`@aCfBcN~BoUbAoKzA{Rp@wGr@{FnAoM^sFm@YYSgHmHoCqBaMgGOTmBjBeDbCu@Fo@?oAQaAYiGq@sBJs@JiDMo@o@}As@[C{B@aAa@qBg@UdGC~AAtEH|EObJu@fKIRa@L]GaEGuJcCuD_BmAk@c@aB}F}OS]eG}HMYaGmHG?OBCAGUTgC|AeOPqECsAUaEa@}IEyDF}GFsNEKQKq@F{@b@K\\MzHWdDMYq@YeAEoEgA[c@_@w@_A{CRCLNlA}A?Il@}@mA{DIMMOsJ}BgDs@eF_@q@?{@Jg@x@ORKFi@Bw@G[Sg@c@{AwBOg@Iw@A[?eBMgBMaAGWK]Q@AAC]RI\\WRa@nDoCj@w@Ns@Zy@DFNJhDhBHANc@@]YgAUwBJa@HSh@]H?Xf@^~B?j@I`@Yd@[@IEKOW{@QeAOmFCgAuDs^k@iJ]sRGy@U{@KEGK[Wy@MmQaEMTOFG?SMEMEWsAe@sCqBeByBo@mA}@}Bi@eC_A}FuBiKCCIeA@EPUN?NJDFVCf@Oj@}AbByCVUb@QvAO|@J|FXVMb@]x@cAf@iAZeAT{AD_@HwCCaAEm@[wBWcAm@sAoFgJmAaDBENGD@h@y@xC{CvBmAvAo@\\YCOHyBPeANQRKRArDh@`Ai@`Ba@h@?j@FxExAlDd@zB?XKZY`@UXD\\RxCl@dB?xKOtAKZa@pIkDjB?tBFpCp@BJBRAd@Yp@KHIBKC_ACqAP_GEC_D","Color":"993333","hasRunTwo":1,"startPoint":{"Latitude":51.476612,"Longitude":0.050521},"endPoint":{"Latitude":51.490860,"Longitude":0.122092}}]}


