{"Stops" : [{"StopId":19242,"StopCode":"LE226","PointLetter":"W","StopName":"Barkingside Station","Latitude":51.587780,"Longitude":0.084246,"Action":0},{"StopId":18825,"StopCode":"9608","PointLetter":"R","StopName":"Barkingside Magistrates Court","Latitude":51.587982,"Longitude":0.081469,"Action":0},{"StopId":2996,"StopCode":"25368","PointLetter":"J","StopName":"Fremantle Road","Latitude":51.589715,"Longitude":0.081621,"Action":0},{"StopId":3465,"StopCode":"34310","PointLetter":"A","StopName":"Fullwell Cross","Latitude":51.592959,"Longitude":0.084296,"Action":0},{"StopId":3671,"StopCode":"416","PointLetter":"P","StopName":"Tomswood Hill","Latitude":51.595755,"Longitude":0.084337,"Action":0},{"StopId":3724,"StopCode":"15398","PointLetter":"Q","StopName":"Neville Road","Latitude":51.597441,"Longitude":0.084617,"Action":0},{"StopId":3725,"StopCode":"15400","PointLetter":"R","StopName":"New North Road","Latitude":51.601295,"Longitude":0.084317,"Action":0},{"StopId":15386,"StopCode":"20740","PointLetter":"S","StopName":"Trelawney Road","Latitude":51.603187,"Longitude":0.089689,"Action":0},{"StopId":15421,"StopCode":"20742","PointLetter":"T","StopName":"Hainault Station","Latitude":51.604355,"Longitude":0.094783,"Action":0},{"StopId":15498,"StopCode":"20744","PointLetter":"E","StopName":"Beech Grove","Latitude":51.605464,"Longitude":0.099643,"Action":0},{"StopId":15499,"StopCode":"20746","PointLetter":"F","StopName":"Hainault Fire Station","Latitude":51.606223,"Longitude":0.102999,"Action":0},{"StopId":15556,"StopCode":"20748","PointLetter":"G","StopName":"Staggart Green","Latitude":51.607165,"Longitude":0.107101,"Action":0},{"StopId":13795,"StopCode":"26543","PointLetter":"H","StopName":"The Lowe","Latitude":51.608368,"Longitude":0.111721,"Action":0},{"StopId":13952,"StopCode":"26536","PointLetter":"J","StopName":"The Forest Academy","Latitude":51.609351,"Longitude":0.113557,"Action":0},{"StopId":14719,"StopCode":"26538","PointLetter":"","StopName":"Harbourer Road","Latitude":51.610906,"Longitude":0.116634,"Action":0},{"StopId":14237,"StopCode":"26541","PointLetter":"","StopName":"Yellowpine Way","Latitude":51.612766,"Longitude":0.120216,"Action":0},{"StopId":14741,"StopCode":"20349","PointLetter":"","StopName":"Fowler Road","Latitude":51.610874,"Longitude":0.126353,"Action":0},{"StopId":13804,"StopCode":"27970","PointLetter":"","StopName":"Forest Road","Latitude":51.608324,"Longitude":0.129613,"Action":0},{"StopId":14842,"StopCode":"20347","PointLetter":"","StopName":"Hainault Forest Golf Club","Latitude":51.605033,"Longitude":0.134528,"Action":0},{"StopId":14757,"StopCode":"20345","PointLetter":"","StopName":"Romford Road","Latitude":51.601353,"Longitude":0.138587,"Action":0},{"StopId":13996,"StopCode":"27870","PointLetter":"A","StopName":"The City Pavilion","Latitude":51.593821,"Longitude":0.142362,"Action":0},{"StopId":19241,"StopCode":"BP1105","PointLetter":"","StopName":"Sungate Cottages","Latitude":51.595966,"Longitude":0.147011,"Action":0},{"StopId":3689,"StopCode":"29525","PointLetter":"WD","StopName":"Gobions Farm","Latitude":51.597800,"Longitude":0.153928,"Action":0},{"StopId":16573,"StopCode":"20575","PointLetter":"WE","StopName":"White Hart Lane","Latitude":51.598081,"Longitude":0.156742,"Action":0},{"StopId":16305,"StopCode":"34546","PointLetter":"WF","StopName":"Collier Row / Clockhouse Lane","Latitude":51.599003,"Longitude":0.161869,"Action":0},{"StopId":13911,"StopCode":"14388","PointLetter":"ED","StopName":"Collier Row Roundabout / Rex Close","Latitude":51.598813,"Longitude":0.163405,"Action":0},{"StopId":14422,"StopCode":"18359","PointLetter":"EH","StopName":"Hulse Avenue","Latitude":51.596101,"Longitude":0.164128,"Action":0},{"StopId":14098,"StopCode":"18357","PointLetter":"EJ","StopName":"Mowbrays Road","Latitude":51.592822,"Longitude":0.165921,"Action":0},{"StopId":13891,"StopCode":"18356","PointLetter":"NP","StopName":"Hainault Road","Latitude":51.590396,"Longitude":0.166773,"Action":0},{"StopId":13974,"StopCode":"18353","PointLetter":"NQ","StopName":"Parklands School","Latitude":51.587679,"Longitude":0.172173,"Action":0},{"StopId":14936,"StopCode":"33997","PointLetter":"NS","StopName":"Romford Bus Garage","Latitude":51.583625,"Longitude":0.175025,"Action":0},{"StopId":14883,"StopCode":"18246","PointLetter":"J","StopName":"The Avenue","Latitude":51.581865,"Longitude":0.176803,"Action":0},{"StopId":3026,"StopCode":"34092","PointLetter":"E","StopName":"Romford Market","Latitude":51.580668,"Longitude":0.182173,"Action":0},{"StopId":3191,"StopCode":"34119","PointLetter":"QQ","StopName":"Western Road","Latitude":51.577502,"Longitude":0.185095,"Action":0},{"StopId":3003,"StopCode":"BP148","PointLetter":"","StopName":"Romford Station","Latitude":51.573876,"Longitude":0.182771,"Action":0}], "Routes" : [{"Id":2015,"Route":"247","From":"Barkingside Station","Towards":"Romford Station","Run":"1","IsDay":1,"encodedLevels":"PAB?D@AG@ABBABA@B?A?G?A?A@E@@DAI@AF?@?@J@ADAABAAD@D?AG@@E@BC?AB@IC??B??DB@@C@FAC@D@BA@AI?A?BAD@AB@?EC@A?C?@C@G?@?BB?B@AF?A?BCB@B@E@AB?F?@B?D?@BAF?C@?@B?@DB@??H?B?@?AB?AA?AEDAAF?AB?DBD@AFC?B?P","encodedPoints":"erzyH}tO_BpBa@`AKZc@|BIpAE`G]pG[?EKQ@qE{CmGqEgN}KaAc@IDm@]GOC[SSOEIDOTm@xAOd@c@p@MBi@AqReBoACuCN_OzAmCmQe^}gCiB_L[}@]}@eKoVgL}XwDwJ~FgMjBoE`E}HjEgF|CkEdCwElEeGbCiC|CyEZu@|EcO^q@f@s@tC{C~GuE`U_PrEwC~B}@|Ae@|Cc@|@EbCA|CLPIHWJi@i@cAMQaDkFo@oAiDuHM[kHiWu@}DUyBMg@]i@]Ub@iCBqAc@mK_AaQy@qHkBaNU{A]u@y@eCDIJED?LLZf@p@Rp@A`Bc@~@c@bGkAd@F`@?\\CpF{ArCwAhAy@`HiDZM\\IjAInEy@rAk@x@k@JMHUDMDa@ToHHs@d@kCJsABcDNmA^YTKH@~FuA|BwAbF_Af@LTA\\IdAs@`AgAhBoCbEyEtEyEzKuLF[@UCe@I_@mBuM?k@P_DL}FUoABa@P[FEPBXNLNPDPBTAXIxFyF\\c@Zm@?EV]RDDDFP@JAZEHFRl@jA\\~@B^FAHBXp@rAaBp@hBbAnE@l@H?TIlAoANu@FG\\Cp@hC^YjC_AZ?pAtJKn@ILMFK?","Color":"993333","hasRunTwo":1,"startPoint":{"Latitude":51.587075,"Longitude":0.085431},"endPoint":{"Latitude":51.574041,"Longitude":0.181585}}]}


