{"Stops" : [{"StopId":8262,"StopCode":"3715","PointLetter":"Z","StopName":"Clapham Common Station","Latitude":51.460488,"Longitude":-0.139782,"Action":0},{"StopId":7150,"StopCode":"3247","PointLetter":"J","StopName":"Elms Road / Windmill on the Common","Latitude":51.456586,"Longitude":-0.143827,"Action":0},{"StopId":6870,"StopCode":"2164","PointLetter":"SE","StopName":"Lynette Avenue","Latitude":51.454797,"Longitude":-0.145555,"Action":0},{"StopId":13171,"StopCode":"25637","PointLetter":"SD","StopName":"Clapham South Station","Latitude":51.452489,"Longitude":-0.147491,"Action":0},{"StopId":13160,"StopCode":"2168","PointLetter":"SQ","StopName":"Alderbrook Road","Latitude":51.449195,"Longitude":-0.147883,"Action":0},{"StopId":13163,"StopCode":"25956","PointLetter":"E","StopName":"Balham New Road","Latitude":51.446504,"Longitude":-0.149431,"Action":0},{"StopId":7194,"StopCode":"4871","PointLetter":"C","StopName":"Balham Station","Latitude":51.443906,"Longitude":-0.152371,"Action":0},{"StopId":6848,"StopCode":"2172","PointLetter":"K","StopName":"Du Cane Court","Latitude":51.441802,"Longitude":-0.154082,"Action":0},{"StopId":7342,"StopCode":"2176","PointLetter":"J","StopName":"Upper Tooting Park","Latitude":51.438894,"Longitude":-0.156128,"Action":0},{"StopId":7014,"StopCode":"4872","PointLetter":"G","StopName":"Tooting Bec Station","Latitude":51.435961,"Longitude":-0.158951,"Action":0},{"StopId":7062,"StopCode":"12722","PointLetter":"F","StopName":"St Anselm's Church","Latitude":51.435422,"Longitude":-0.158411,"Action":0},{"StopId":7217,"StopCode":"12726","PointLetter":"K","StopName":"Montana Road","Latitude":51.433383,"Longitude":-0.154522,"Action":0},{"StopId":7216,"StopCode":"12727","PointLetter":"L","StopName":"Franciscan Road","Latitude":51.432013,"Longitude":-0.150333,"Action":0},{"StopId":7215,"StopCode":"12729","PointLetter":"M","StopName":"Tooting Bec Athletics Track","Latitude":51.431206,"Longitude":-0.145935,"Action":0},{"StopId":7214,"StopCode":"12731","PointLetter":"N","StopName":"Tooting Bec Lido","Latitude":51.430737,"Longitude":-0.140746,"Action":0},{"StopId":7178,"StopCode":"9270","PointLetter":"P","StopName":"Garrad's Road","Latitude":51.430302,"Longitude":-0.136002,"Action":0},{"StopId":6810,"StopCode":"37183","PointLetter":"SX","StopName":"Streatham / St Leonard's Church","Latitude":51.429640,"Longitude":-0.132260,"Action":0},{"StopId":5651,"StopCode":"468","PointLetter":"SA","StopName":"St Leonards Church","Latitude":51.428467,"Longitude":-0.130926,"Action":0},{"StopId":5566,"StopCode":"25859","PointLetter":"SB","StopName":"Streatham Station","Latitude":51.425559,"Longitude":-0.130686,"Action":0},{"StopId":5621,"StopCode":"35037","PointLetter":"SE","StopName":"Streatham United Reformed Church","Latitude":51.423684,"Longitude":-0.129827,"Action":0},{"StopId":7352,"StopCode":"13180","PointLetter":"CF","StopName":"Albert Carr Gardens","Latitude":51.423364,"Longitude":-0.128359,"Action":0},{"StopId":7351,"StopCode":"13181","PointLetter":"","StopName":"Valley Road","Latitude":51.423498,"Longitude":-0.124930,"Action":0},{"StopId":6944,"StopCode":"BP595","PointLetter":"","StopName":"Deerhurst Road","Latitude":51.423236,"Longitude":-0.122078,"Action":0},{"StopId":6823,"StopCode":"13182","PointLetter":"CA","StopName":"The Rookery","Latitude":51.423339,"Longitude":-0.118953,"Action":0},{"StopId":6822,"StopCode":"13178","PointLetter":"CB","StopName":"Leigham Court Road","Latitude":51.423639,"Longitude":-0.115258,"Action":0},{"StopId":7299,"StopCode":"27966","PointLetter":"CJ","StopName":"Ryecroft Road","Latitude":51.423210,"Longitude":-0.109810,"Action":0},{"StopId":7320,"StopCode":"1851","PointLetter":"CK","StopName":"Crown Lane / Crown Point","Latitude":51.422809,"Longitude":-0.107266,"Action":0},{"StopId":6905,"StopCode":"1850","PointLetter":"CQ","StopName":"Crown Point / Beulah Hill","Latitude":51.422006,"Longitude":-0.105991,"Action":0},{"StopId":7075,"StopCode":"13193","PointLetter":"","StopName":"Grecian Crescent","Latitude":51.420421,"Longitude":-0.106401,"Action":0},{"StopId":6825,"StopCode":"13221","PointLetter":"SA","StopName":"Biggin Hill","Latitude":51.418829,"Longitude":-0.103619,"Action":0},{"StopId":7100,"StopCode":"R0505","PointLetter":"SB","StopName":"Convent Hill","Latitude":51.418241,"Longitude":-0.100638,"Action":0},{"StopId":7347,"StopCode":"13197","PointLetter":"SC","StopName":"Hermitage Road","Latitude":51.416385,"Longitude":-0.096530,"Action":0},{"StopId":7303,"StopCode":"10362","PointLetter":"SD","StopName":"Beulah Spa","Latitude":51.414242,"Longitude":-0.092477,"Action":0},{"StopId":7346,"StopCode":"13201","PointLetter":"SK","StopName":"Upper Beulah Hill","Latitude":51.412671,"Longitude":-0.088775,"Action":0},{"StopId":7287,"StopCode":"13203","PointLetter":"SL","StopName":"Beulah Hill / All Saints Church","Latitude":51.410984,"Longitude":-0.087350,"Action":0},{"StopId":7107,"StopCode":"13229","PointLetter":"EN","StopName":"All Saints Church","Latitude":51.411135,"Longitude":-0.086178,"Action":0},{"StopId":6826,"StopCode":"13227","PointLetter":"","StopName":"Sylvan Hill","Latitude":51.414206,"Longitude":-0.083677,"Action":0},{"StopId":7076,"StopCode":"13223","PointLetter":"","StopName":"Westow Park","Latitude":51.416451,"Longitude":-0.081843,"Action":0},{"StopId":7248,"StopCode":"BP3761","PointLetter":"H","StopName":"Westow Street","Latitude":51.417841,"Longitude":-0.082145,"Action":0},{"StopId":6979,"StopCode":"1416","PointLetter":"K","StopName":"Westow Hill","Latitude":51.419731,"Longitude":-0.080052,"Action":0},{"StopId":7043,"StopCode":"6915","PointLetter":"E","StopName":"Crystal Palace Park","Latitude":51.419772,"Longitude":-0.077073,"Action":0},{"StopId":6930,"StopCode":"27519","PointLetter":"M","StopName":"Crystal Palace Station","Latitude":51.417886,"Longitude":-0.073931,"Action":0},{"StopId":7325,"StopCode":"20813","PointLetter":"A","StopName":"Hamlet Road","Latitude":51.415712,"Longitude":-0.071879,"Action":0},{"StopId":7252,"StopCode":"6589","PointLetter":"B","StopName":"Thicket Road","Latitude":51.414204,"Longitude":-0.069843,"Action":0},{"StopId":6898,"StopCode":"20750","PointLetter":"C","StopName":"Anerley Road / Anerley Station","Latitude":51.412077,"Longitude":-0.066869,"Action":0},{"StopId":6805,"StopCode":"BP3690","PointLetter":"G","StopName":"Anerley Station","Latitude":51.411863,"Longitude":-0.065901,"Action":0},{"StopId":6806,"StopCode":"BP4094","PointLetter":"E","StopName":"Jasmine Grove","Latitude":51.412462,"Longitude":-0.064049,"Action":0}], "Routes" : [{"Id":2535,"Route":"249","From":"Clapham Common Station","Towards":"Jasmine Grove","Run":"1","IsDay":1,"encodedLevels":"PDB?A@AE@C?@?B@DB?F@BBCAABAD?AB@@D?BJA?A@DA@@D@AFB?@@?@HC@BA@E?@@?@E?BBAH?D?@B?D?AB@E?B??BAH?ADBAG?A@E@C@AB?AFAA@D??A?E?A?BH?A??G?BBHAACA?D?B?F@B?CA?AD@FAD@P","encodedPoints":"c}ayH~fZhGlKtKjIhG|FlKpJLTjAlAnCxB|BbAVFv@Fl@?lBCjABfGh@vADbCt@rC~AdFzCp@h@`AfAxAfD~BnCdOzLJEVPDVdB|AlEpCVJHVlI`EnAd@dCpA~DfFtApB`BhDd@eBP}ADaAn@wDLa@n@cBpCeF|A}BzC{Fj@yCpBcMzA}KvA}PdBsa@f@eNd@qJd@oMBmBJi@hCiDTm@NaASa@FWNQnCD|@?lAFNCT?pFPtBs@zBq@N[tFqBfCmA[gCcAsJ@oCBkCZwKz@wN?YAq@i@oIu@mHUcH@}@Bo@`AmL^iM?sA^aMbAgJFgCjD|@bARfGz@~ABh@O^c@L[BO`CmZRuA|@iErAyEd@gAtAiCdByEV_A|AaHhCcJn@w@fDgC^_@p@aALa@j@kClCwKNi@j@yATWTQvEqCxAw@jAsAEKQQ{OuL_K}HyJsHUd@MLkHrD{E~AMoDTuGC_FSsDI[MY@c@b@_Ef@eCp@gCZ{@t@wATU|B}CrAqAvBcBpA}@fCiCtJuN~OsVu@a@cC}BG_AA_F","Color":"993333","hasRunTwo":1,"startPoint":{"Latitude":51.460825,"Longitude":-0.139519},"endPoint":{"Latitude":51.412434,"Longitude":-0.063902}}]}


