{"Stops" : [{"StopId":18791,"StopCode":"34846","PointLetter":"OG","StopName":"Holles Street","Latitude":51.515836,"Longitude":-0.144778,"Action":0},{"StopId":210,"StopCode":"15783","PointLetter":"OJ","StopName":"Gt Titchfield St / Photographers Gallery","Latitude":51.515673,"Longitude":-0.139005,"Action":0},{"StopId":6384,"StopCode":"20465","PointLetter":"OL","StopName":"Wardour Street","Latitude":51.516071,"Longitude":-0.135242,"Action":0},{"StopId":700,"StopCode":"14456","PointLetter":"Z","StopName":"New Oxford Street","Latitude":51.516826,"Longitude":-0.127831,"Action":0},{"StopId":559,"StopCode":"29844","PointLetter":"E","StopName":"Museum Street","Latitude":51.517624,"Longitude":-0.124353,"Action":0},{"StopId":729,"StopCode":"33107","PointLetter":"H","StopName":"Procter Street","Latitude":51.518341,"Longitude":-0.119121,"Action":0},{"StopId":721,"StopCode":"8419","PointLetter":"S","StopName":"Brownlow Street","Latitude":51.518221,"Longitude":-0.115018,"Action":0},{"StopId":699,"StopCode":"1472","PointLetter":"E","StopName":"Chancery Lane Station","Latitude":51.518307,"Longitude":-0.112001,"Action":0},{"StopId":716,"StopCode":"20628","PointLetter":"D","StopName":"Holborn Circus / Fetter Lane","Latitude":51.518041,"Longitude":-0.109433,"Action":0},{"StopId":712,"StopCode":"2018","PointLetter":"K","StopName":"Holborn Circus","Latitude":51.517601,"Longitude":-0.106064,"Action":0},{"StopId":702,"StopCode":"1157","PointLetter":"HL","StopName":"City Thameslink Station","Latitude":51.516897,"Longitude":-0.103700,"Action":0},{"StopId":741,"StopCode":"8586","PointLetter":"ST","StopName":"King Edward Street","Latitude":51.515728,"Longitude":-0.099814,"Action":0},{"StopId":21364,"StopCode":"BP5575","PointLetter":"SY","StopName":"St Paul's Station","Latitude":51.514427,"Longitude":-0.095602,"Action":0},{"StopId":703,"StopCode":"10352","PointLetter":"K","StopName":"Bank Station  / Poultry","Latitude":51.513739,"Longitude":-0.091436,"Action":0},{"StopId":18753,"StopCode":"8558","PointLetter":"D","StopName":"Bank Station  / Cornhill","Latitude":51.513379,"Longitude":-0.087560,"Action":0},{"StopId":18747,"StopCode":"8560","PointLetter":"R","StopName":"Bishopsgate","Latitude":51.513454,"Longitude":-0.084948,"Action":0},{"StopId":18721,"StopCode":"8578","PointLetter":"LR","StopName":"St Mary Axe","Latitude":51.513525,"Longitude":-0.082711,"Action":0},{"StopId":18765,"StopCode":"35484","PointLetter":"X","StopName":"St Katharine Cree","Latitude":51.513325,"Longitude":-0.078728,"Action":0},{"StopId":781,"StopCode":"34190","PointLetter":"B","StopName":"St Botolph Street","Latitude":51.514947,"Longitude":-0.075128,"Action":0},{"StopId":15611,"StopCode":"33431","PointLetter":"E","StopName":"Aldgate East Station","Latitude":51.514853,"Longitude":-0.073186,"Action":0},{"StopId":20777,"StopCode":"BP5408","PointLetter":"D","StopName":"Osborn Street","Latitude":51.516483,"Longitude":-0.069010,"Action":0},{"StopId":763,"StopCode":"2044","PointLetter":"M","StopName":"Fieldgate Street","Latitude":51.517038,"Longitude":-0.067761,"Action":0},{"StopId":762,"StopCode":"2046","PointLetter":"J","StopName":"The East London Mosque","Latitude":51.518169,"Longitude":-0.064326,"Action":0},{"StopId":13514,"StopCode":"944","PointLetter":"B","StopName":"Royal London Hospital / Whitechapel Stn","Latitude":51.519393,"Longitude":-0.058941,"Action":0},{"StopId":13501,"StopCode":"2051","PointLetter":"G","StopName":"Booth Memorial","Latitude":51.520321,"Longitude":-0.054173,"Action":0},{"StopId":13500,"StopCode":"1735","PointLetter":"A","StopName":"Stepney Green","Latitude":51.520918,"Longitude":-0.051135,"Action":0},{"StopId":13512,"StopCode":"4828","PointLetter":"B","StopName":"Stepney Green Station","Latitude":51.521784,"Longitude":-0.047004,"Action":0},{"StopId":13515,"StopCode":"R0674","PointLetter":"C","StopName":"Bancroft Road / Ocean Estate","Latitude":51.522306,"Longitude":-0.043796,"Action":0},{"StopId":13507,"StopCode":"7724","PointLetter":"D","StopName":"Queen Mary / University Of London","Latitude":51.522814,"Longitude":-0.040819,"Action":0},{"StopId":13516,"StopCode":"4825","PointLetter":"E","StopName":"Regents Canal","Latitude":51.524352,"Longitude":-0.037062,"Action":0},{"StopId":18679,"StopCode":"20674","PointLetter":"D","StopName":"Mile End Station","Latitude":51.525421,"Longitude":-0.033744,"Action":0},{"StopId":18667,"StopCode":"2058","PointLetter":"L","StopName":"Coborn Road","Latitude":51.526396,"Longitude":-0.029175,"Action":0},{"StopId":18800,"StopCode":"901","PointLetter":"Q","StopName":"Bow Road Station","Latitude":51.527131,"Longitude":-0.025828,"Action":0},{"StopId":15440,"StopCode":"902","PointLetter":"A","StopName":"Bow Church Station","Latitude":51.528095,"Longitude":-0.020567,"Action":0},{"StopId":15448,"StopCode":"R0717","PointLetter":"G","StopName":"Bow Church","Latitude":51.528933,"Longitude":-0.016969,"Action":0},{"StopId":13995,"StopCode":"348","PointLetter":"M","StopName":"Bow Flyover","Latitude":51.529454,"Longitude":-0.015303,"Action":0},{"StopId":15429,"StopCode":"2066","PointLetter":"W","StopName":"Marshgate Lane","Latitude":51.531334,"Longitude":-0.011098,"Action":0},{"StopId":15424,"StopCode":"2068","PointLetter":"M","StopName":"Warton Road","Latitude":51.534691,"Longitude":-0.006496,"Action":0},{"StopId":15423,"StopCode":"2070","PointLetter":"N","StopName":"Stratford High St Stn  / Carpenters Road","Latitude":51.537181,"Longitude":-0.003272,"Action":0},{"StopId":17066,"StopCode":"BP976","PointLetter":"B","StopName":"Stratford Bus Station","Latitude":51.540954,"Longitude":-0.001954,"Action":0},{"StopId":17143,"StopCode":"34246","PointLetter":"H","StopName":"Stratford Centre","Latitude":51.541964,"Longitude":0.002604,"Action":0},{"StopId":13760,"StopCode":"2238","PointLetter":"MJ","StopName":"Litchfield Avenue","Latitude":51.542366,"Longitude":0.006429,"Action":0},{"StopId":14865,"StopCode":"4894","PointLetter":"MK","StopName":"Water Lane / University Of East London","Latitude":51.542661,"Longitude":0.008634,"Action":0},{"StopId":16872,"StopCode":"1577","PointLetter":"","StopName":"Atherton Leisure Centre","Latitude":51.544428,"Longitude":0.015216,"Action":0},{"StopId":16870,"StopCode":"14510","PointLetter":"N","StopName":"Margery Park Road","Latitude":51.545828,"Longitude":0.020571,"Action":0},{"StopId":16997,"StopCode":"1937","PointLetter":"F","StopName":"Woodgrange Road","Latitude":51.546446,"Longitude":0.024406,"Action":0},{"StopId":16225,"StopCode":"9045","PointLetter":"P","StopName":"Green Street","Latitude":51.547098,"Longitude":0.031935,"Action":0},{"StopId":16895,"StopCode":"1740","PointLetter":"","StopName":"Katherine Road","Latitude":51.547772,"Longitude":0.036609,"Action":0},{"StopId":16826,"StopCode":"14520","PointLetter":"","StopName":"Shrewsbury Road","Latitude":51.548363,"Longitude":0.039837,"Action":0},{"StopId":17040,"StopCode":"14522","PointLetter":"H","StopName":"Woodgrange Park Station","Latitude":51.549118,"Longitude":0.042944,"Action":0},{"StopId":17091,"StopCode":"4644","PointLetter":"E","StopName":"High Street North","Latitude":51.550419,"Longitude":0.046738,"Action":0},{"StopId":15102,"StopCode":"14527","PointLetter":"K","StopName":"First Avenue","Latitude":51.551879,"Longitude":0.050683,"Action":0},{"StopId":15123,"StopCode":"14529","PointLetter":"L","StopName":"Manor Park Library","Latitude":51.552621,"Longitude":0.052967,"Action":0},{"StopId":15101,"StopCode":"14531","PointLetter":"M","StopName":"Seventh Avenue","Latitude":51.553635,"Longitude":0.055681,"Action":0},{"StopId":15126,"StopCode":"4645","PointLetter":"N","StopName":"Little Ilford Lane","Latitude":51.555087,"Longitude":0.060551,"Action":0},{"StopId":15100,"StopCode":"14540","PointLetter":"P","StopName":"North Circular Road","Latitude":51.556009,"Longitude":0.063852,"Action":0},{"StopId":17189,"StopCode":"R0757","PointLetter":"F","StopName":"Ilford Hill","Latitude":51.558159,"Longitude":0.068941,"Action":0},{"StopId":370,"StopCode":"FC44","PointLetter":"P","StopName":"Chapel Road","Latitude":51.557696,"Longitude":0.070233,"Action":0},{"StopId":269,"StopCode":"FC60","PointLetter":"R","StopName":"Ilford Central Library","Latitude":51.558153,"Longitude":0.074380,"Action":0},{"StopId":432,"StopCode":"R0868","PointLetter":"S","StopName":"Hainault Street","Latitude":51.559592,"Longitude":0.075917,"Action":0}], "Routes" : [{"Id":6103,"Route":"25","From":"Holles Street","Towards":"Hainault Street","Run":"1","IsDay":1,"encodedLevels":"PCB?C?AFF?AF?@@@?A?BAEB?BGA@F@@AD?@F?AB@B@E?C?B@?CE?ACAC@EB??F@B?AC??AI?@D@B?@@C?E?D@B@D?B?C@EB@A??C?AA@@E?BABEA??B@@EAB?BAHA?D?AB?AGC?EA?D@B@D@?CB?H@CBD?@@CFAB@@A?AF?CBB?D@?E??A?@AE?@BAAB@D@A?GAC?ABB?C?@@AD@BFA?CBCA?E@@C?FBD@BAD@BE?P","encodedPoints":"aslyHvf[cBn@NxAQd@UZKJw@f@iA\\uCkZ|Ag@|Ak@nFkCCe@EKIcDm@cLEIy@qPa@iKSyGq@oMoA}Pm@gD_JoXGKy@uD^i@tAy@fE_D?aAy@wMW{FWwKP_Ff@wJbAiQNyAPiAhB{JdA_FnByHj@iDn@iFE_AIm@EAc@SW[Ue@EQJmDJWHMf@OlAPhAEVQVg@tAsGNuBz@wIrBcUAaBLgIEcFGcOWwNF}BFaA^_NGs@EWi@}BIOKI_@CKBQP]JM?GGM[m@sCkAuGl@gAH[Fy@Cg@qCkKu@}C}IcYQs@sBgKcBuJ_Guc@Cw@cBiPmAsKkDiX_BaNOwAUmDG}C}@_I?k@Ii@aBaIa@_BcBkEiCeIuCsL_BuK{BmQiA_KmC{ScBeQa@iFaAqIq@wBwBkJsB{FO_@Ae@{A}GcBkEs@uAkDmGaHkKqC_EcGmHkDmF{DyF}F}HeDyC_@@MBo@Z_@Z_A|@Dr@C~AG^KLWPeAd@QBq@DEAISGc@FUnCy@\\RB_@J_@Co@Dm@fCsDK{@S]a@]yCsD]q@uFwGSQq@qA?WLy@n@EPc@F]@u@GaCs@eOOeBKw@c@qByBoLuCoPiD}S}BeMmA}IYmDs@iHQ_Dc@sIDc@q@_To@uMi@cIq@yIoBgS_AmIe@cDkAoHcEeR{CkJYu@kBeHeD_P{GeWi@yBgBmJMy@oCwMcCsMaCmKmC_HcDuJcAuEBg@DSNYlB?lA[nAy@NORa@T_BEOHi@e@iCoAgG_@I_A^m@yAmAyD]qCYq@[OW?aC`AIe@W_C","Color":"993333","hasRunTwo":1,"startPoint":{"Latitude":51.515535,"Longitude":-0.144598},"endPoint":{"Latitude":51.559628,"Longitude":0.076399}},{"Id":9801,"Route":"25","From":"Holles Street","Towards":"Hainault Street","Run":"1","IsDay":0,"encodedLevels":"PCB?C?AFF?AF?@@@?A?BAEB?BGA@F@@AD?@F?AB@B@E?C?B@?CE?ACAC@EB??F@B?AC??AI?@D@B?@@C?E?D@B@D?B?C@EB@A??C?AA@@E?BABEA??B@@EAB?BAHA?D?AB?AGC?EA?D@B@D@?CB?H@CBD?@@CFAB@@A?AF?CBB?D@?E??A?@AE?@BAAB@D@A?GAC?ABB?C?@@AD@BFA?CBCA?E@@C?FBD@BAD@BE?P","encodedPoints":"aslyHvf[cBn@NxAQd@UZKJw@f@iA\\uCkZ|Ag@|Ak@nFkCCe@EKIcDm@cLEIy@qPa@iKSyGq@oMoA}Pm@gD_JoXGKy@uD^i@tAy@fE_D?aAy@wMW{FWwKP_Ff@wJbAiQNyAPiAhB{JdA_FnByHj@iDn@iFE_AIm@EAc@SW[Ue@EQJmDJWHMf@OlAPhAEVQVg@tAsGNuBz@wIrBcUAaBLgIEcFGcOWwNF}BFaA^_NGs@EWi@}BIOKI_@CKBQP]JM?GGM[m@sCkAuGl@gAH[Fy@Cg@qCkKu@}C}IcYQs@sBgKcBuJ_Guc@Cw@cBiPmAsKkDiX_BaNOwAUmDG}C}@_I?k@Ii@aBaIa@_BcBkEiCeIuCsL_BuK{BmQiA_KmC{ScBeQa@iFaAqIq@wBwBkJsB{FO_@Ae@{A}GcBkEs@uAkDmGaHkKqC_EcGmHkDmF{DyF}F}HeDyC_@@MBo@Z_@Z_A|@Dr@C~AG^KLWPeAd@QBq@DEAISGc@FUnCy@\\RB_@J_@Co@Dm@fCsDK{@S]a@]yCsD]q@uFwGSQq@qA?WLy@n@EPc@F]@u@GaCs@eOOeBKw@c@qByBoLuCoPiD}S}BeMmA}IYmDs@iHQ_Dc@sIDc@q@_To@uMi@cIq@yIoBgS_AmIe@cDkAoHcEeR{CkJYu@kBeHeD_P{GeWi@yBgBmJMy@oCwMcCsMaCmKmC_HcDuJcAuEBg@DSNYlB?lA[nAy@NORa@T_BEOHi@e@iCoAgG_@I_A^m@yAmAyD]qCYq@[OW?aC`AIe@W_C","Color":"663366","hasRunTwo":1,"startPoint":{"Latitude":51.515535,"Longitude":-0.144598},"endPoint":{"Latitude":51.559628,"Longitude":0.076399}}]}


