{"Stops" : [{"StopId":13653,"StopCode":"BP5100","PointLetter":"B","StopName":"Arnos Grove Station","Latitude":51.615991,"Longitude":-0.133734,"Action":0},{"StopId":944,"StopCode":"BP4848","PointLetter":"C","StopName":"Ravenscraig Road","Latitude":51.616233,"Longitude":-0.135934,"Action":0},{"StopId":1017,"StopCode":"15423","PointLetter":"D","StopName":"Betstyle Circus","Latitude":51.616243,"Longitude":-0.139430,"Action":0},{"StopId":1044,"StopCode":"80009","PointLetter":"H","StopName":"Carlisle Place","Latitude":51.617700,"Longitude":-0.143429,"Action":0},{"StopId":980,"StopCode":"15421","PointLetter":"BH","StopName":"Spencer Road","Latitude":51.619070,"Longitude":-0.145352,"Action":0},{"StopId":978,"StopCode":"12913","PointLetter":"BJ","StopName":"Beaconsfield Road","Latitude":51.622725,"Longitude":-0.151849,"Action":0},{"StopId":1038,"StopCode":"13423","PointLetter":"BK","StopName":"Bawtry Road","Latitude":51.624686,"Longitude":-0.156493,"Action":0},{"StopId":1019,"StopCode":"15419","PointLetter":"BL","StopName":"Raleigh Drive","Latitude":51.625899,"Longitude":-0.159825,"Action":0},{"StopId":945,"StopCode":"2295","PointLetter":"BM","StopName":"Pollard Road","Latitude":51.627308,"Longitude":-0.161429,"Action":0},{"StopId":979,"StopCode":"15417","PointLetter":"BQ","StopName":"Myddelton Park","Latitude":51.629067,"Longitude":-0.165231,"Action":0},{"StopId":1008,"StopCode":"70119","PointLetter":"","StopName":"Oakleigh Park North","Latitude":51.630044,"Longitude":-0.170205,"Action":0},{"StopId":946,"StopCode":"14722","PointLetter":"D","StopName":"Whetstone / The Griffin","Latitude":51.629905,"Longitude":-0.173953,"Action":0},{"StopId":2342,"StopCode":"19176","PointLetter":"B","StopName":"Totteridge and Whetstone Station","Latitude":51.630088,"Longitude":-0.179335,"Action":0},{"StopId":2329,"StopCode":"19174","PointLetter":"","StopName":"Longland Drive","Latitude":51.630745,"Longitude":-0.182907,"Action":0},{"StopId":2328,"StopCode":"19172","PointLetter":"","StopName":"Links Drive","Latitude":51.630938,"Longitude":-0.187826,"Action":0},{"StopId":2371,"StopCode":"19170","PointLetter":"","StopName":"Totteridge Green","Latitude":51.630211,"Longitude":-0.193722,"Action":0},{"StopId":2307,"StopCode":"19168","PointLetter":"","StopName":"Orange Tree","Latitude":51.630515,"Longitude":-0.197698,"Action":0},{"StopId":2309,"StopCode":"19166","PointLetter":"","StopName":"Totteridge War Memorial","Latitude":51.633455,"Longitude":-0.201193,"Action":0},{"StopId":2311,"StopCode":"19164","PointLetter":"","StopName":"Grange Avenue","Latitude":51.634527,"Longitude":-0.205414,"Action":0},{"StopId":2313,"StopCode":"19160","PointLetter":"","StopName":"Horseshoe Lane","Latitude":51.633521,"Longitude":-0.213184,"Action":0},{"StopId":2315,"StopCode":"19156","PointLetter":"","StopName":"Ellern Mede","Latitude":51.632074,"Longitude":-0.220351,"Action":0},{"StopId":2370,"StopCode":"19154","PointLetter":"","StopName":"St Edward's College","Latitude":51.631021,"Longitude":-0.226200,"Action":0},{"StopId":2318,"StopCode":"19152","PointLetter":"","StopName":"West End House","Latitude":51.630538,"Longitude":-0.229369,"Action":0},{"StopId":2341,"StopCode":"19150","PointLetter":"","StopName":"Hendon Wood Lane","Latitude":51.630187,"Longitude":-0.236477,"Action":0},{"StopId":2320,"StopCode":"19148","PointLetter":"","StopName":"Mill Hill / The Rising Sun","Latitude":51.627176,"Longitude":-0.240828,"Action":0},{"StopId":8920,"StopCode":"19145","PointLetter":"","StopName":"Holcombe Hill","Latitude":51.625051,"Longitude":-0.236980,"Action":0},{"StopId":9026,"StopCode":"19144","PointLetter":"","StopName":"Sunnyfield","Latitude":51.621080,"Longitude":-0.242652,"Action":0},{"StopId":8937,"StopCode":"27912","PointLetter":"U","StopName":"Uphill Road","Latitude":51.618326,"Longitude":-0.244868,"Action":0},{"StopId":2346,"StopCode":"20857","PointLetter":"H","StopName":"Flower Lane / Sacred Heart Church","Latitude":51.615058,"Longitude":-0.245861,"Action":0},{"StopId":8999,"StopCode":"33773","PointLetter":"A","StopName":"Mill Hill Broadway Station","Latitude":51.613625,"Longitude":-0.249238,"Action":0},{"StopId":7994,"StopCode":"33504","PointLetter":"","StopName":"Lyndhurst Avenue","Latitude":51.610614,"Longitude":-0.249325,"Action":0},{"StopId":7960,"StopCode":"34159","PointLetter":"","StopName":"Eversfield Gardens","Latitude":51.609108,"Longitude":-0.250842,"Action":0},{"StopId":7999,"StopCode":"16108","PointLetter":"","StopName":"Goldbeaters Grove","Latitude":51.607457,"Longitude":-0.252912,"Action":0},{"StopId":7882,"StopCode":"16111","PointLetter":"QW","StopName":"Burnt Oak Leisure Centre","Latitude":51.605012,"Longitude":-0.257223,"Action":0},{"StopId":7991,"StopCode":"34718","PointLetter":"T","StopName":"Gunter Grove","Latitude":51.604141,"Longitude":-0.260303,"Action":0},{"StopId":9017,"StopCode":"34872","PointLetter":"R","StopName":"Burnt Oak Station","Latitude":51.601977,"Longitude":-0.264834,"Action":0},{"StopId":9028,"StopCode":"2987","PointLetter":"C","StopName":"Burnt Oak Broadway","Latitude":51.601254,"Longitude":-0.268240,"Action":0},{"StopId":8983,"StopCode":"2989","PointLetter":"B","StopName":"North Road","Latitude":51.603206,"Longitude":-0.270751,"Action":0},{"StopId":8930,"StopCode":"14586","PointLetter":"HB","StopName":"Edgware Community Hospital","Latitude":51.606127,"Longitude":-0.274265,"Action":0},{"StopId":2365,"StopCode":"6070","PointLetter":"HC","StopName":"Deansbrook Road","Latitude":51.607339,"Longitude":-0.275403,"Action":0},{"StopId":2326,"StopCode":"14803","PointLetter":"P","StopName":"Spring Villa Road","Latitude":51.609821,"Longitude":-0.278487,"Action":0},{"StopId":2362,"StopCode":"29834","PointLetter":"H","StopName":"Manor Park Crescent","Latitude":51.612458,"Longitude":-0.277376,"Action":0},{"StopId":4101,"StopCode":"BP090","PointLetter":"G","StopName":"Edgware Station","Latitude":51.613401,"Longitude":-0.275492,"Action":0}], "Routes" : [{"Id":1948,"Route":"251","From":"Arnos Grove Station","Towards":"Edgware Station","Run":"1","IsDay":1,"encodedLevels":"PBC@@BB@?AG@B@C@B?@AABCA@E?AD??CBAE@AD@B?G@?@AD?EADB?DA?AE?@@C@A@B@G?C@E@CB?DAE@C@IAC@?A@C@AAA@?EB?E?BIBA@F@B?C?BAG?AAC?@BBB?F@B?E?B@B?F?A@DA@EBAE@ABA@D?AG@?BB@F?AAEH@?DBD?@?I@?@C?BCABG?AC@AEP","encodedPoints":"_g`zHn~Xa@pMm@vECdDJxB?tKk@nD@|@H^@TGXKXOHKD[AuCjHc@~@_B~Bc@j@wBvDaA~BmExHoFlMy@jAuBnBa@p@KbAOlD]tBSn@y@lBqEnLoC~IwA~Hs@pBsAvAsExFeAhBiAxCsCrIc@|AmA~EWrB_@rEuAnNK`@q@~JFr@dBbNu@PQGVdPMnFCtDKnB]pCgB~LY`FA~@JfFExIBfBTlHr@|LP|A|@`NBbFEp@Gh@iAnHg@pAoFfL[h@c@`@}CROF[TeAnAw@lB[zAcArGEbBGvKZlLh@xG`@vC~AnOXdChBvLhAjJJlBxApO`AlJj@nDnA`NbAjNJz@Z`IA`APd^h@tBpC`KtCnHzB`Dp@p@zAbATFHw@b@aCjAeD`@aAjB}DjA{BtBuCH@\\j@bChDbB|AjElGZt@fAfDh@jAzArBjDrHdArAVVz@`@nE|Ar@N`El@^?FAJStCaCLBLJDFB\\x@t@`E`FnEdQ^l@JZr@Cz@{@@WEEIBi@f@m@EKFEN?H|@tDRXLFH?JEjC{AdGcE^a@LT|BpFJt@lCzFnDqDpPd`@l@fArEdK`CfPx@pCZ|@dAdCnBhEnKbV{C|DeD~EyKtOkGnI_CdBwAjAeElEwD~FoE|FoEzEKYcBkD_AiAu@u@yFoEaBkB~AqE","Color":"993333","hasRunTwo":1,"startPoint":{"Latitude":51.616004,"Longitude":-0.133035},"endPoint":{"Latitude":51.613152,"Longitude":-0.275133}}]}


