{"Stops" : [{"StopId":15990,"StopCode":"18480","PointLetter":"ET","StopName":"Collier Row Library","Latitude":51.598743,"Longitude":0.161351,"Action":0},{"StopId":16028,"StopCode":"18478","PointLetter":"WH","StopName":"Melville Road","Latitude":51.598287,"Longitude":0.159221,"Action":0},{"StopId":3708,"StopCode":"29524","PointLetter":"WJ","StopName":"Collier Row Road","Latitude":51.596369,"Longitude":0.155954,"Action":0},{"StopId":3707,"StopCode":"29395","PointLetter":"WK","StopName":"Howe Close","Latitude":51.594290,"Longitude":0.156014,"Action":0},{"StopId":3655,"StopCode":"29205","PointLetter":"WL","StopName":"Valiant Close","Latitude":51.592775,"Longitude":0.156722,"Action":0},{"StopId":3691,"StopCode":"29202","PointLetter":"A","StopName":"Cross Road","Latitude":51.590297,"Longitude":0.159911,"Action":0},{"StopId":3692,"StopCode":"29201","PointLetter":"B","StopName":"Percy Road","Latitude":51.588823,"Longitude":0.161371,"Action":0},{"StopId":3663,"StopCode":"18406","PointLetter":"C","StopName":"Birch Road","Latitude":51.586680,"Longitude":0.162496,"Action":0},{"StopId":3619,"StopCode":"18404","PointLetter":"D","StopName":"Susan Close","Latitude":51.584709,"Longitude":0.163529,"Action":0},{"StopId":3620,"StopCode":"18402","PointLetter":"E","StopName":"Eastern Avenue","Latitude":51.582365,"Longitude":0.164846,"Action":0},{"StopId":3639,"StopCode":"18400","PointLetter":"F","StopName":"Oak Street","Latitude":51.579894,"Longitude":0.168121,"Action":0},{"StopId":3622,"StopCode":"18398","PointLetter":"G","StopName":"Como Street","Latitude":51.578716,"Longitude":0.172986,"Action":0},{"StopId":3194,"StopCode":"34113","PointLetter":"C","StopName":"North Street","Latitude":51.579494,"Longitude":0.177584,"Action":0},{"StopId":3623,"StopCode":"34094","PointLetter":"G","StopName":"Romford Market","Latitude":51.580582,"Longitude":0.182905,"Action":0},{"StopId":14257,"StopCode":"LE135","PointLetter":"M","StopName":"Mercury Gardens","Latitude":51.579349,"Longitude":0.184939,"Action":0},{"StopId":14848,"StopCode":"R0656","PointLetter":"Q","StopName":"Western Road","Latitude":51.577134,"Longitude":0.184111,"Action":0},{"StopId":3627,"StopCode":"R0591","PointLetter":"Y","StopName":"Romford Station","Latitude":51.573654,"Longitude":0.184103,"Action":0},{"StopId":14058,"StopCode":"18028","PointLetter":"","StopName":"Thurloe Gardens","Latitude":51.571420,"Longitude":0.184789,"Action":0},{"StopId":14641,"StopCode":"R0500","PointLetter":"","StopName":"Brentwood Road","Latitude":51.569566,"Longitude":0.186808,"Action":0},{"StopId":14462,"StopCode":"37088","PointLetter":"RZ","StopName":"Clydesdale Road","Latitude":51.567318,"Longitude":0.186743,"Action":0},{"StopId":14902,"StopCode":"37151","PointLetter":"RA","StopName":"Roneo Corner","Latitude":51.565658,"Longitude":0.187529,"Action":0},{"StopId":19270,"StopCode":"18372","PointLetter":"RH","StopName":"Hayburn Way","Latitude":51.564217,"Longitude":0.188600,"Action":0},{"StopId":19266,"StopCode":"18374","PointLetter":"RJ","StopName":"Gordon Avenue","Latitude":51.560775,"Longitude":0.188983,"Action":0},{"StopId":19271,"StopCode":"18376","PointLetter":"RK","StopName":"Chestnut Avenue","Latitude":51.558530,"Longitude":0.188312,"Action":0},{"StopId":19256,"StopCode":"18378","PointLetter":"RL","StopName":"Laburnum Avenue","Latitude":51.556205,"Longitude":0.189543,"Action":0},{"StopId":19276,"StopCode":"R0106","PointLetter":"RM","StopName":"Harrow Lodge Park","Latitude":51.553429,"Longitude":0.191328,"Action":0},{"StopId":19260,"StopCode":"18432","PointLetter":"J","StopName":"Warren Drive","Latitude":51.550863,"Longitude":0.192892,"Action":0},{"StopId":19273,"StopCode":"18430","PointLetter":"K","StopName":"Woburn Avenue","Latitude":51.550740,"Longitude":0.197560,"Action":0},{"StopId":14097,"StopCode":"18380","PointLetter":"M","StopName":"Elm Park Station","Latitude":51.549514,"Longitude":0.199607,"Action":0},{"StopId":19258,"StopCode":"20990","PointLetter":"N","StopName":"Arbour Way","Latitude":51.547121,"Longitude":0.200645,"Action":0},{"StopId":19263,"StopCode":"18382","PointLetter":"P","StopName":"Calbourne Avenue","Latitude":51.545821,"Longitude":0.202357,"Action":0},{"StopId":19257,"StopCode":"37096","PointLetter":"H","StopName":"Wood Lane","Latitude":51.543332,"Longitude":0.202713,"Action":0},{"StopId":19254,"StopCode":"37097","PointLetter":"J","StopName":"Heron Flight Avenue","Latitude":51.540512,"Longitude":0.202490,"Action":0},{"StopId":14827,"StopCode":"37192","PointLetter":"K","StopName":"Dowding Way","Latitude":51.538736,"Longitude":0.202274,"Action":0},{"StopId":14945,"StopCode":"37095","PointLetter":"L","StopName":"Gosport Drive","Latitude":51.540559,"Longitude":0.205723,"Action":0},{"StopId":14622,"StopCode":"37100","PointLetter":"M","StopName":"Sarre Avenue","Latitude":51.543559,"Longitude":0.209286,"Action":0},{"StopId":14621,"StopCode":"37101","PointLetter":"N","StopName":"Hornchurch Country Park","Latitude":51.543690,"Longitude":0.214239,"Action":0},{"StopId":14484,"StopCode":"36643","PointLetter":"C","StopName":"Miramar Way","Latitude":51.545868,"Longitude":0.215613,"Action":0},{"StopId":14283,"StopCode":"34130","PointLetter":"D","StopName":"St Georges Hospital","Latitude":51.547839,"Longitude":0.216964,"Action":0},{"StopId":14690,"StopCode":"27876","PointLetter":"E","StopName":"Vaughan Avenue","Latitude":51.550459,"Longitude":0.218202,"Action":0},{"StopId":14588,"StopCode":"BP1789","PointLetter":"L","StopName":"Hornchurch Station","Latitude":51.554252,"Longitude":0.219252,"Action":0},{"StopId":14954,"StopCode":"18267","PointLetter":"H","StopName":"Devonshire Road","Latitude":51.558323,"Longitude":0.220359,"Action":0},{"StopId":19274,"StopCode":"37102","PointLetter":"","StopName":"Hornchurch Town Centre","Latitude":51.561383,"Longitude":0.220710,"Action":0}], "Routes" : [{"Id":6968,"Route":"252","From":"Collier Row Library","Towards":"Hornchurch Town Centre","Run":"1","IsDay":1,"encodedLevels":"PB@G@@B?HBB@E?AC@@F?@B@I@@EAGAF?AA?CD?@BAF?C@?@B?@DB@??HAB@B??AAGB@@CB?EBE@C@B??F@B?C?FBA@?D@B?D?GABG?C@@B?FACAAE?AB?B@?F?BAD?B@F@BC?HBE?ABA@A?H@BBAC?@B@E?ABGBCAAE@ABJ@?B@D@B?F@B@@D?AFA?C?A?AC@HB@C?@FAAD@?@@EBB@BB?C?A@P","encodedPoints":"{{|yHgp^pBpORxBr@nMv@AxCDnIX`@A|AOlEeAzGsC~@i@|AgA^g@v@oAx@sBf@sB^wCt@gDPI^GfFyAta@eQxHoDVa@dJwSzAwD~B_`@d@aLkAUsI_E?WDSb@w@F[@a@{BoO?k@P_DL}FUoABa@P[FEPBXNLNPDPBTAXIxFyF\\c@Zm@?EV]RDLV?f@EHFRl@jA\\~@B^bDpJn@u@HEXB^IlAoANu@FG\\Cp@hC^YjC_AZ?lFy@T?R@tD?\\Sf@k@Zs@|EeJVMf@KfEa@nCTdDBj@C|A?LDP^BpADZz@BzAHPoE|@cKbAeG`@NPLDTEpBF`CPTJFpCCjHu@fBq@z@m@n@ITHRNv@v@nBfDHFNLd@NJ?ZCdHeAzBm@dCcAbE{CpHkFlAu@`A[dAEz@FnDp@n@\\rA`AlDiQt@kG@sACy@YqFoAaLE@KM?KDQJ@HLhMmED_@LID?NJBJzBy@xFiCVWVa@rAgDn@eDvCr@vCNhFFpAOnGAbARd@RnBlA`F`EN_@N{@Dm@BgAC_CYyDU{A_@cA_@}@]c@e@_@_FqCmDgBaGoD_@i@Wi@a@_BWiCA{@BoAVwC^sD`@}BT{@p@wFSq@SUqUiMsBmAeGaEy@_@gA_@gD_AsDu@gDYmHeA_Aa@qE{Au@[eIqCe@IsC[qAN{GWy@?_Ge@]MWOa@AKBmAb@M?","Color":"993333","hasRunTwo":1,"startPoint":{"Latitude":51.598867,"Longitude":0.161480},"endPoint":{"Latitude":51.561662,"Longitude":0.220670}}]}


