{"Stops" : [{"StopId":745,"StopCode":"36688","PointLetter":"L","StopName":"Aldgate Bus Station","Latitude":51.513871,"Longitude":-0.075274,"Action":0},{"StopId":781,"StopCode":"34190","PointLetter":"B","StopName":"St Botolph Street","Latitude":51.514947,"Longitude":-0.075128,"Action":0},{"StopId":20777,"StopCode":"BP5408","PointLetter":"D","StopName":"Osborn Street","Latitude":51.516483,"Longitude":-0.069010,"Action":0},{"StopId":763,"StopCode":"2044","PointLetter":"M","StopName":"Fieldgate Street","Latitude":51.517038,"Longitude":-0.067761,"Action":0},{"StopId":762,"StopCode":"2046","PointLetter":"J","StopName":"The East London Mosque","Latitude":51.518169,"Longitude":-0.064326,"Action":0},{"StopId":13514,"StopCode":"944","PointLetter":"B","StopName":"Royal London Hospital / Whitechapel Stn","Latitude":51.519393,"Longitude":-0.058941,"Action":0},{"StopId":748,"StopCode":"29637","PointLetter":"E","StopName":"Cambridge Heath Road","Latitude":51.519856,"Longitude":-0.057061,"Action":0},{"StopId":825,"StopCode":"13614","PointLetter":"M","StopName":"Darling Row","Latitude":51.521270,"Longitude":-0.056093,"Action":0},{"StopId":779,"StopCode":"BP1977","PointLetter":"N","StopName":"Cephas Street","Latitude":51.523168,"Longitude":-0.055046,"Action":0},{"StopId":777,"StopCode":"1617","PointLetter":"S","StopName":"Three Colts Lane","Latitude":51.525264,"Longitude":-0.055116,"Action":0},{"StopId":793,"StopCode":"4612","PointLetter":"C","StopName":"Bethnal Green Station","Latitude":51.526846,"Longitude":-0.055596,"Action":0},{"StopId":794,"StopCode":"4611","PointLetter":"G","StopName":"Old Ford Road","Latitude":51.529859,"Longitude":-0.056174,"Action":0},{"StopId":761,"StopCode":"1705","PointLetter":"M","StopName":"Cambridge Heath Station","Latitude":51.532095,"Longitude":-0.057059,"Action":0},{"StopId":754,"StopCode":"2277","PointLetter":"R","StopName":"Mare Street / Victoria Park Road","Latitude":51.535066,"Longitude":-0.057308,"Action":0},{"StopId":828,"StopCode":"785","PointLetter":"LP","StopName":"King Edward's Road","Latitude":51.538491,"Longitude":-0.057190,"Action":0},{"StopId":801,"StopCode":"752","PointLetter":"LC","StopName":"Mare Street / Well Street","Latitude":51.540567,"Longitude":-0.055501,"Action":0},{"StopId":752,"StopCode":"2275","PointLetter":"LQ","StopName":"St Thomas's Square","Latitude":51.541922,"Longitude":-0.055357,"Action":0},{"StopId":806,"StopCode":"306","PointLetter":"A","StopName":"Hackney Town Hall","Latitude":51.545268,"Longitude":-0.055402,"Action":0},{"StopId":681,"StopCode":"305","PointLetter":"J","StopName":"Hackney Central Station","Latitude":51.547582,"Longitude":-0.056111,"Action":0},{"StopId":692,"StopCode":"129","PointLetter":"L","StopName":"Amhurst Road / Hackney Downs Station","Latitude":51.548654,"Longitude":-0.058388,"Action":0},{"StopId":666,"StopCode":"2272","PointLetter":"R","StopName":"Mare Street / Narrow Way","Latitude":51.549576,"Longitude":-0.055406,"Action":0},{"StopId":683,"StopCode":"2270","PointLetter":"U","StopName":"Hackney Baths","Latitude":51.550857,"Longitude":-0.052409,"Action":0},{"StopId":667,"StopCode":"930","PointLetter":"Z","StopName":"Glenarm Road","Latitude":51.551879,"Longitude":-0.052192,"Action":0},{"StopId":674,"StopCode":"2268","PointLetter":"L","StopName":"Clapton Girls' Technology College","Latitude":51.553683,"Longitude":-0.053644,"Action":0},{"StopId":684,"StopCode":"64","PointLetter":"H","StopName":"Clapton Pond","Latitude":51.555641,"Longitude":-0.055090,"Action":0},{"StopId":760,"StopCode":"20972","PointLetter":"M","StopName":"Lea Bridge Roundabout","Latitude":51.557553,"Longitude":-0.056004,"Action":0},{"StopId":811,"StopCode":"BP2477","PointLetter":"O","StopName":"Upper Clapton Road / Brooke Road","Latitude":51.559776,"Longitude":-0.056602,"Action":0},{"StopId":809,"StopCode":"53","PointLetter":"P","StopName":"Clapton Station","Latitude":51.561786,"Longitude":-0.057454,"Action":0},{"StopId":755,"StopCode":"2265","PointLetter":"UE","StopName":"Rossington Street","Latitude":51.564194,"Longitude":-0.059501,"Action":0},{"StopId":756,"StopCode":"2263","PointLetter":"UF","StopName":"Cazenove Road","Latitude":51.565392,"Longitude":-0.060186,"Action":0},{"StopId":751,"StopCode":"2262","PointLetter":"UH","StopName":"Jessam Avenue","Latitude":51.567429,"Longitude":-0.060965,"Action":0},{"StopId":758,"StopCode":"2259","PointLetter":"UJ","StopName":"Forburg Road","Latitude":51.568803,"Longitude":-0.061989,"Action":0},{"StopId":771,"StopCode":"2255","PointLetter":"CU","StopName":"Clapton Common","Latitude":51.571270,"Longitude":-0.065939,"Action":0},{"StopId":524,"StopCode":"121","PointLetter":"CV","StopName":"Stamford Hill Broadway","Latitude":51.573027,"Longitude":-0.071623,"Action":0},{"StopId":749,"StopCode":"123","PointLetter":"CW","StopName":"Amhurst Park / Stamford Lodge","Latitude":51.573793,"Longitude":-0.074462,"Action":0},{"StopId":783,"StopCode":"2253","PointLetter":"CX","StopName":"Stamford Hill Station","Latitude":51.574302,"Longitude":-0.076966,"Action":0},{"StopId":813,"StopCode":"2249","PointLetter":"CY","StopName":"Cranwich Road","Latitude":51.574770,"Longitude":-0.081377,"Action":0},{"StopId":21322,"StopCode":"BP5643","PointLetter":"W","StopName":"Bethune Road","Latitude":51.574600,"Longitude":-0.084198,"Action":0},{"StopId":803,"StopCode":"740","PointLetter":"U","StopName":"Seven Sisters Road / Amhurst Park","Latitude":51.573529,"Longitude":-0.087461,"Action":0},{"StopId":780,"StopCode":"6650","PointLetter":"V","StopName":"Woodberry Grove","Latitude":51.572138,"Longitude":-0.091459,"Action":0},{"StopId":818,"StopCode":"4832","PointLetter":"H","StopName":"Manor House Station","Latitude":51.570884,"Longitude":-0.095134,"Action":0},{"StopId":765,"StopCode":"BP199","PointLetter":"R","StopName":"Portland Rise","Latitude":51.569713,"Longitude":-0.097160,"Action":0},{"StopId":769,"StopCode":"1609","PointLetter":"P","StopName":"Alexandra Grove","Latitude":51.567379,"Longitude":-0.100229,"Action":0},{"StopId":826,"StopCode":"377","PointLetter":"M","StopName":"Finsbury Park / Blackstock Road","Latitude":51.565254,"Longitude":-0.103391,"Action":0},{"StopId":789,"StopCode":"BP3912","PointLetter":"S","StopName":"Finsbury Park Station","Latitude":51.563799,"Longitude":-0.106265,"Action":0},{"StopId":802,"StopCode":"3513","PointLetter":"W","StopName":"Isledon Road","Latitude":51.562196,"Longitude":-0.107803,"Action":0},{"StopId":797,"StopCode":"33320","PointLetter":"NM","StopName":"Berriman Road","Latitude":51.559657,"Longitude":-0.110376,"Action":0},{"StopId":778,"StopCode":"33321","PointLetter":"NN","StopName":"Hornsey Road / Sobell Centre","Latitude":51.557999,"Longitude":-0.111829,"Action":0},{"StopId":774,"StopCode":"36800","PointLetter":"N","StopName":"Holloway Road / Camden Road","Latitude":51.556848,"Longitude":-0.115224,"Action":0},{"StopId":932,"StopCode":"33325","PointLetter":"X","StopName":"Caledonian Road","Latitude":51.555359,"Longitude":-0.118791,"Action":0}], "Routes" : [{"Id":7764,"Route":"254","From":"Aldgate Bus Station","Towards":"Caledonian Road","Run":"1","IsDay":1,"encodedLevels":"PDA@D?B@@F?A?D@B@D?B?D@B?FAC@AB?AI?C@?@B@A?@@A@ABDAABFAAB?AEA@E?CG@BH?ABA@EB??C@?BB?H@AA@AB@@EACCAD?A?EB?ADBDABKC?AE?BAFBEABAI?A@AC@BFADB?FA@DACA@D@??B@F@@A?C?B@B?P","encodedPoints":"gglyHnuMeADf@`CFn@?x@K`@Ob@QP]JM?GGM[m@sCkAuGl@gAH[Fy@Cg@qCkKu@}C}IcYQs@sBgKcBuJsCaTcBwM]s@YSWG_@AcC_AgGcDgAg@kBi@s@?sEGsC\\q@NoInAEBSAAGK?KBIJI@KAEI{A@iCZsJfCCJmGfBuHnAwDA}@QuI_@aH@EB{BWoIyGo@c@{@_@sGFeLRaQg@oBzFyDdKgCzEGEMWEk@BmSAcCGi@k@}BS_@e@k@uBqDQuBMg@Kw@YaAWMKA]NwBbBu@|@eD|BmAn@uGbFuDrBoAz@}BpAkBRsF`Bk@u@e@Ew@NQLuDtAu@TuIpC_B`A}EdFkBvBuBzAqD`@gIlCoDxBaClB{BbCeF`K{AhE_BfE_D`KE`As@tHwB~JaB|JoDv]MzF@hITpHTxGb@xDF\\Tj@VRv@nAh@tAlF`ThGbXbC~H~PvVlFnIpHbNhCxGlElKHLj@HvCr@v@bAhIfH~AzB^dA|@hAXFT?bAERB`@PRTP^x@vDNPpB~IxA`GRj@`BrDNf@HzAtChIpB`G","Color":"993333","hasRunTwo":1,"startPoint":{"Latitude":51.513645,"Longitude":-0.075280},"endPoint":{"Latitude":51.554770,"Longitude":-0.120340}}]}


