{"Stops" : [{"StopId":14020,"StopCode":"BP973","PointLetter":"A","StopName":"Stratford Bus Station","Latitude":51.541248,"Longitude":-0.001825,"Action":0},{"StopId":14898,"StopCode":"35810","PointLetter":"P","StopName":"Theatre Royal Stratford","Latitude":51.543326,"Longitude":0.001337,"Action":0},{"StopId":14101,"StopCode":"8017","PointLetter":"Q","StopName":"The Grove","Latitude":51.543701,"Longitude":0.003589,"Action":0},{"StopId":14438,"StopCode":"8015","PointLetter":"MA","StopName":"Maryland Station  / Manbey Grove","Latitude":51.545539,"Longitude":0.004405,"Action":0},{"StopId":14106,"StopCode":"R0351","PointLetter":"MB","StopName":"Maryland Station","Latitude":51.547130,"Longitude":0.006047,"Action":0},{"StopId":14657,"StopCode":"8010","PointLetter":"MC","StopName":"Chobham Road","Latitude":51.549996,"Longitude":0.005121,"Action":0},{"StopId":18060,"StopCode":"20778","PointLetter":"H","StopName":"Cann Hall Road","Latitude":51.551967,"Longitude":0.005582,"Action":0},{"StopId":18059,"StopCode":"14544","PointLetter":"J","StopName":"Ranelagh Road","Latitude":51.555306,"Longitude":0.005397,"Action":0},{"StopId":18062,"StopCode":"14439","PointLetter":"K","StopName":"Harrow Green","Latitude":51.557589,"Longitude":0.006522,"Action":0},{"StopId":2600,"StopCode":"FL009","PointLetter":"L","StopName":"West Street","Latitude":51.559259,"Longitude":0.007187,"Action":0},{"StopId":2486,"StopCode":"14550","PointLetter":"E","StopName":"Leytonstone Fire Station","Latitude":51.560843,"Longitude":0.008223,"Action":0},{"StopId":2519,"StopCode":"R0022","PointLetter":"F","StopName":"Leytonstone High Road Station","Latitude":51.562775,"Longitude":0.009318,"Action":0},{"StopId":2498,"StopCode":"14556","PointLetter":"G","StopName":"Vernon Road","Latitude":51.565263,"Longitude":0.010005,"Action":0},{"StopId":2483,"StopCode":"14560","PointLetter":"H","StopName":"Harvey Road","Latitude":51.567538,"Longitude":0.010582,"Action":0},{"StopId":2575,"StopCode":"BP2754","PointLetter":"M","StopName":"Kirkdale Road","Latitude":51.569160,"Longitude":0.011923,"Action":0},{"StopId":2481,"StopCode":"14565","PointLetter":"N","StopName":"Green Man Roundabout","Latitude":51.570565,"Longitude":0.014424,"Action":0},{"StopId":14830,"StopCode":"14566","PointLetter":"NN","StopName":"Leyton Way","Latitude":51.574177,"Longitude":0.014598,"Action":0},{"StopId":14361,"StopCode":"14572","PointLetter":"","StopName":"Sir Alfred Hitchcock Hotel","Latitude":51.576798,"Longitude":0.011712,"Action":0},{"StopId":14667,"StopCode":"27515","PointLetter":"S","StopName":"James Lane","Latitude":51.578448,"Longitude":0.007282,"Action":0},{"StopId":14068,"StopCode":"14576","PointLetter":"H","StopName":"Whipps Cross Hospital","Latitude":51.579942,"Longitude":0.003523,"Action":0},{"StopId":1254,"StopCode":"14274","PointLetter":"C","StopName":"Whipps Cross Roundabout","Latitude":51.581151,"Longitude":0.001180,"Action":0},{"StopId":1253,"StopCode":"14272","PointLetter":"B","StopName":"Whipps Cross / Wood Street","Latitude":51.580893,"Longitude":-0.001112,"Action":0},{"StopId":1252,"StopCode":"14270","PointLetter":"WA","StopName":"Peterborough Road","Latitude":51.579509,"Longitude":-0.004304,"Action":0},{"StopId":1240,"StopCode":"14266","PointLetter":"WB","StopName":"Essex Road","Latitude":51.578373,"Longitude":-0.006750,"Action":0},{"StopId":1232,"StopCode":"34357","PointLetter":"WK","StopName":"Leyton Green Road","Latitude":51.576544,"Longitude":-0.007595,"Action":0},{"StopId":1238,"StopCode":"7968","PointLetter":"ND","StopName":"Lea Bridge Road / Bakers Arms","Latitude":51.574755,"Longitude":-0.011887,"Action":0},{"StopId":862,"StopCode":"7966","PointLetter":"NE","StopName":"Hoe Street / Bakers Arms","Latitude":51.575857,"Longitude":-0.014278,"Action":0},{"StopId":846,"StopCode":"7963","PointLetter":"NH","StopName":"Grove Road","Latitude":51.578007,"Longitude":-0.016999,"Action":0},{"StopId":839,"StopCode":"7960","PointLetter":"L","StopName":"Queen's Road","Latitude":51.580613,"Longitude":-0.018473,"Action":0},{"StopId":842,"StopCode":"R0036","PointLetter":"AP","StopName":"Walthamstow Central Station","Latitude":51.583099,"Longitude":-0.019809,"Action":0},{"StopId":83,"StopCode":"BP4267","PointLetter":"","StopName":"Walthamstow Bus Station","Latitude":51.583582,"Longitude":-0.020206,"Action":0}], "Routes" : [{"Id":1105,"Route":"257","From":"Stratford Bus Station","Towards":"Walthamstow Bus Station","Run":"1","IsDay":1,"encodedLevels":"PAB?DBE?CBA@E?C@E?AAG@C@BEBD@?AC?G?BB?CB@C@E?A@B?FABB?FA@C??AJ?AC?@F@A@AC@CAH?A@AFD?BE?C@C@HB@AC?B@?F?@AE@B?ABEA?D@A?BP","encodedPoints":"mrqyHtIs@RsADOAaAMk@]w@aBgCgNKs@}@eIJ{AAg@Ks@QOuAo@mBAsF[IUU_B_AgDOKSI}@KyBdAoGfCiBRo@@aJqCi@@wEt@UH_Hv@u@IuBa@uBm@wC_AaGuCuDaAg@IuEsBuE}CwAs@wEeByGwB{@ImAEkDk@sHy@}@U_EiAcAcAyAgCsKqUW_@y@cAa@?k@\\qC`AMCQKOCg@FyApA_EfDkHtHq@z@oBxCgB~Cc@zAyA~Fe@rCmClL_ClIgBfFiFhMy@lDCt@BPjFrN|CrK`D~J^j@nCpDhBZb@BzHIVb@~@tBhCvAv@n@^~@RjAiFdO{@xAQLo@vAOp@U`Bs@dCaAnCMViBvA}EbEm@n@uFtD}@Xm@FoCD[?gGh@gDt@KjBFl@JnCM@IEEKUYy@?","Color":"993333","hasRunTwo":1,"startPoint":{"Latitude":51.541038,"Longitude":-0.001702},"endPoint":{"Latitude":51.583707,"Longitude":-0.020183}}]}


