{"Stops" : [{"StopId":20972,"StopCode":"OC445","PointLetter":"","StopName":"Watford Junction Station","Latitude":51.663041,"Longitude":-0.396034,"Action":0},{"StopId":13580,"StopCode":"OC206","PointLetter":"","StopName":"Clarendon Road","Latitude":51.659537,"Longitude":-0.396909,"Action":0},{"StopId":13546,"StopCode":"OC207","PointLetter":"","StopName":"Beechen Grove","Latitude":51.657266,"Longitude":-0.395226,"Action":0},{"StopId":13557,"StopCode":"OC208","PointLetter":"","StopName":"Water Lane","Latitude":51.653492,"Longitude":-0.392207,"Action":0},{"StopId":13555,"StopCode":"OC209","PointLetter":"","StopName":"Watford High Street Station","Latitude":51.652359,"Longitude":-0.390874,"Action":0},{"StopId":13550,"StopCode":"OC210","PointLetter":"","StopName":"Watford Field Road","Latitude":51.651352,"Longitude":-0.389551,"Action":0},{"StopId":13549,"StopCode":"OC211","PointLetter":"","StopName":"Dalton Way","Latitude":51.649204,"Longitude":-0.387011,"Action":0},{"StopId":13551,"StopCode":"OC212","PointLetter":"","StopName":"Bushey Arches","Latitude":51.647556,"Longitude":-0.384916,"Action":0},{"StopId":13556,"StopCode":"OC213","PointLetter":"","StopName":"Bushey Station","Latitude":51.645590,"Longitude":-0.383858,"Action":0},{"StopId":13591,"StopCode":"OC214","PointLetter":"","StopName":"Grange Road","Latitude":51.646571,"Longitude":-0.376105,"Action":0},{"StopId":13629,"StopCode":"OC215","PointLetter":"","StopName":"The Bushey Academy","Latitude":51.645461,"Longitude":-0.369308,"Action":0},{"StopId":13545,"StopCode":"OC216","PointLetter":"","StopName":"The Red Lion Public House","Latitude":51.645166,"Longitude":-0.367512,"Action":0},{"StopId":13541,"StopCode":"OC217","PointLetter":"","StopName":"Bournehall Road","Latitude":51.644489,"Longitude":-0.363446,"Action":0},{"StopId":13592,"StopCode":"OC218","PointLetter":"","StopName":"Melbourne Road","Latitude":51.642561,"Longitude":-0.359931,"Action":0},{"StopId":13607,"StopCode":"OC219","PointLetter":"","StopName":"Steeplands","Latitude":51.641085,"Longitude":-0.357918,"Action":0},{"StopId":13637,"StopCode":"OC220","PointLetter":"","StopName":"Claybury Lane","Latitude":51.639457,"Longitude":-0.355346,"Action":0},{"StopId":13561,"StopCode":"OC221","PointLetter":"","StopName":"Merry Hill Road","Latitude":51.638249,"Longitude":-0.351950,"Action":0},{"StopId":13631,"StopCode":"OC222","PointLetter":"","StopName":"St Peter's Close","Latitude":51.636233,"Longitude":-0.344769,"Action":0},{"StopId":13548,"StopCode":"OC223","PointLetter":"","StopName":"Windmill Lane","Latitude":51.633435,"Longitude":-0.340218,"Action":0},{"StopId":13536,"StopCode":"19228","PointLetter":"","StopName":"Common Road","Latitude":51.631517,"Longitude":-0.336849,"Action":0},{"StopId":21009,"StopCode":"BP5513","PointLetter":"","StopName":"Hive Road","Latitude":51.630128,"Longitude":-0.337218,"Action":0},{"StopId":15881,"StopCode":"26989","PointLetter":"","StopName":"Tanglewood","Latitude":51.627347,"Longitude":-0.339545,"Action":0},{"StopId":16124,"StopCode":"16064","PointLetter":"","StopName":"Priory Close","Latitude":51.624889,"Longitude":-0.342524,"Action":0},{"StopId":16548,"StopCode":"16062","PointLetter":"","StopName":"Clamp Hill","Latitude":51.621479,"Longitude":-0.342388,"Action":0},{"StopId":16188,"StopCode":"16059","PointLetter":"","StopName":"Brookshill Gate","Latitude":51.615812,"Longitude":-0.341021,"Action":0},{"StopId":16213,"StopCode":"33571","PointLetter":"WD","StopName":"Weald College","Latitude":51.613710,"Longitude":-0.339884,"Action":0},{"StopId":9478,"StopCode":"16408","PointLetter":"WH","StopName":"Uxbridge Road","Latitude":51.609944,"Longitude":-0.339372,"Action":0},{"StopId":4246,"StopCode":"14919","PointLetter":"WK","StopName":"Harrow Weald Bus Garage","Latitude":51.605827,"Longitude":-0.340157,"Action":0},{"StopId":4287,"StopCode":"16411","PointLetter":"WL","StopName":"Weald Lane","Latitude":51.603216,"Longitude":-0.338650,"Action":0},{"StopId":4353,"StopCode":"16413","PointLetter":"WN","StopName":"Salvatorian College","Latitude":51.600171,"Longitude":-0.337634,"Action":0},{"StopId":4207,"StopCode":"15021","PointLetter":"D","StopName":"Wealdstone Baptist Church","Latitude":51.597005,"Longitude":-0.335686,"Action":0},{"StopId":4351,"StopCode":"14705","PointLetter":"F","StopName":"The Wealdstone Centre","Latitude":51.594065,"Longitude":-0.335100,"Action":0},{"StopId":4340,"StopCode":"BP1945","PointLetter":"M","StopName":"Harrow & Wealdstone Station","Latitude":51.592312,"Longitude":-0.333894,"Action":0},{"StopId":4313,"StopCode":"15019","PointLetter":"L","StopName":"Harrow Civic Centre","Latitude":51.588496,"Longitude":-0.332359,"Action":0},{"StopId":4331,"StopCode":"15017","PointLetter":"V","StopName":"Hindes Road","Latitude":51.584570,"Longitude":-0.332012,"Action":0},{"StopId":21289,"StopCode":"BP5591","PointLetter":"H","StopName":"Harrow Town Centre / St John's Road","Latitude":51.582282,"Longitude":-0.332327,"Action":0},{"StopId":21290,"StopCode":"BP5592","PointLetter":"J","StopName":"Harrow Town Centre","Latitude":51.580712,"Longitude":-0.333885,"Action":0},{"StopId":4267,"StopCode":"R0841","PointLetter":"C","StopName":"Harrow Bus Station","Latitude":51.579973,"Longitude":-0.337564,"Action":0},{"StopId":4191,"StopCode":"37309","PointLetter":"M","StopName":"Harrow Town Centre","Latitude":51.579570,"Longitude":-0.333898,"Action":0},{"StopId":4311,"StopCode":"15015","PointLetter":"F","StopName":"Harrow Central Police Station","Latitude":51.577587,"Longitude":-0.333523,"Action":0},{"StopId":9215,"StopCode":"33539","PointLetter":"","StopName":"Kenton Road","Latitude":51.575310,"Longitude":-0.333405,"Action":0},{"StopId":9241,"StopCode":"33538","PointLetter":"","StopName":"Harrow School","Latitude":51.572710,"Longitude":-0.337136,"Action":0},{"StopId":9247,"StopCode":"33536","PointLetter":"RM","StopName":"Harrow Park","Latitude":51.569528,"Longitude":-0.339749,"Action":0},{"StopId":16180,"StopCode":"33534","PointLetter":"RN","StopName":"Roxeth Hill","Latitude":51.568526,"Longitude":-0.342671,"Action":0},{"StopId":7962,"StopCode":"16135","PointLetter":"RC","StopName":"Grange Road","Latitude":51.568253,"Longitude":-0.348193,"Action":0},{"StopId":16096,"StopCode":"BP720","PointLetter":"B","StopName":"South Harrow Bus Station","Latitude":51.565091,"Longitude":-0.352261,"Action":0}], "Routes" : [{"Id":8466,"Route":"258","From":"Watford Junction Station","Towards":"South Harrow Bus Station","Run":"1","IsDay":1,"encodedLevels":"PABC@B?E?@?G@C?BBFBAD@BBFA@C@?C@D?@B@E@??CB?@F@ACBH@AC@AF@A@C?@A@@FAA?BA?AB@G?A@CA?B@BAAF?AAAB@B?F@C@C@KC@?D@BH@A@B?ECACAE?BC@@BD?FBD@CA?@FA@@DAD?@C??B?DC?AC@EA??AAC?@EAECABBBH?AD@FA@DB@GAG@BBBC?FAC?@DBCA@IA?C?D@AA?D?C?@B??B?FABA@G?@AB?AGA?C?DDAB?P","encodedPoints":"kmizH`klARWN@Tb@o@|@[x@?NHXdECjYGLBh@@FEbCaLn@}@|AcCvA{EtCaFp@c@~@Sz@@ZVxAdBRrAXHl@iAFi@\\eAh@e@`EwE^g@hCaF~D}Gf@WZIxDuB`@Wl@s@DSdCoFVc@dEeJCmBDSHSJGFAf@h@z@pAt@jB?p@UR_ClAw@TQCMMK]?_@FUn@iBFa@C_BAcKDcBIiKKoB?aFjAqOpAkK\\oGJqAlA}JbA{K\\}Cj@wIr@sFt@aETi@LQ|GuGb@k@~AoChEqG|@gAxAaD\\kAnAyB~@_Ax@wAVgAFa@bA{JdBmJvAmKDoBRoBRaAl@yBjCmHp@}AlEmIrOgYxByFzAoEpIbL~@n@|@d@~FfD|AfBrLjOtChCVAh@OxDqBp@S\\Gz@G`E@hAXdBx@pC\\f@Ij@SzGcCpACbC}AbHyDVUrFgCpCWhH{@hGa@rCJ`Db@bI~ApBRfAAjBFXE|Ac@zE}B`@]dHeDxCChCNb@]d@m@fDwC`@?TFlADl@MTIjFmCXa@Ti@vBkC~C_AXURNjA?N@~AF`@MTJLCv@GnFcAx@qAdCuFzDHZUlEgA~@FbEwAbG_AjAHhBVdFJ`@CfKyBZn@zAtA`GtGhB|@b@HhACO~PHxGLGHQ@uA?oBc@y@LgNDuAzCUtA[JHRDhBVlDkCxB{@j@It@?^DfAf@\\Zr@v@f@p@zErHNb@TfAJhAXdAHLXNzCtB`@z@Xr@`@j@XZzAfAjA`AbAxAP\\nANdFL|AW~ACFDEJIj@s@hI_AlNiAtHc@bDB`@Lj@dG|JVh@hLzOrAdBbAkAJRGXGPc@p@","Color":"993333","hasRunTwo":1,"startPoint":{"Latitude":51.663101,"Longitude":-0.396169},"endPoint":{"Latitude":51.565155,"Longitude":-0.352365}}]}


