{"Stops" : [{"StopId":10574,"StopCode":"BP816","PointLetter":"C","StopName":"Lewisham Station","Latitude":51.464604,"Longitude":-0.012563,"Action":0},{"StopId":10799,"StopCode":"BP1118","PointLetter":"H","StopName":"Lewisham Police Station","Latitude":51.463700,"Longitude":-0.010644,"Action":0},{"StopId":10839,"StopCode":"283","PointLetter":"N","StopName":"Belmont Hill","Latitude":51.461812,"Longitude":-0.006969,"Action":0},{"StopId":10777,"StopCode":"19637","PointLetter":"P","StopName":"Belmont Park","Latitude":51.460287,"Longitude":-0.004545,"Action":0},{"StopId":10922,"StopCode":"3384","PointLetter":"Q","StopName":"Manor Park","Latitude":51.458717,"Longitude":-0.001590,"Action":0},{"StopId":10729,"StopCode":"19639","PointLetter":"R","StopName":"Brandram Road","Latitude":51.458705,"Longitude":0.002785,"Action":0},{"StopId":10860,"StopCode":"19643","PointLetter":"S","StopName":"Dacre Park","Latitude":51.458676,"Longitude":0.006570,"Action":0},{"StopId":10728,"StopCode":"19645","PointLetter":"L","StopName":"Lampmead Road","Latitude":51.457039,"Longitude":0.009219,"Action":0},{"StopId":16063,"StopCode":"R0410","PointLetter":"F","StopName":"Burnt Ash Road / Lee Road","Latitude":51.455838,"Longitude":0.011613,"Action":0},{"StopId":15871,"StopCode":"17841","PointLetter":"E","StopName":"Handen Road","Latitude":51.453026,"Longitude":0.011950,"Action":0},{"StopId":16546,"StopCode":"13429","PointLetter":"B","StopName":"Lee Station","Latitude":51.449512,"Longitude":0.012875,"Action":0},{"StopId":15961,"StopCode":"BP2742","PointLetter":"D","StopName":"Westhorne Avenue","Latitude":51.446964,"Longitude":0.014087,"Action":0},{"StopId":17298,"StopCode":"19715","PointLetter":"P","StopName":"St Mildreds Road","Latitude":51.445235,"Longitude":0.014270,"Action":0},{"StopId":17300,"StopCode":"19713","PointLetter":"R","StopName":"Harland Road","Latitude":51.443044,"Longitude":0.015138,"Action":0},{"StopId":17470,"StopCode":"R0412","PointLetter":"","StopName":"Farmcote Road","Latitude":51.440602,"Longitude":0.016469,"Action":0},{"StopId":17364,"StopCode":"19711","PointLetter":"R","StopName":"Heather Road","Latitude":51.438571,"Longitude":0.017401,"Action":0},{"StopId":17363,"StopCode":"19709","PointLetter":"T","StopName":"Baring Road / Coopers Lane","Latitude":51.435753,"Longitude":0.019694,"Action":0},{"StopId":17225,"StopCode":"R0414","PointLetter":"B","StopName":"Grove Park Station","Latitude":51.430939,"Longitude":0.021439,"Action":0},{"StopId":17155,"StopCode":"29442","PointLetter":"J","StopName":"Launcelot Road","Latitude":51.427427,"Longitude":0.021183,"Action":0},{"StopId":16890,"StopCode":"19707","PointLetter":"P","StopName":"Treewall Gardens","Latitude":51.425656,"Longitude":0.022155,"Action":0},{"StopId":16776,"StopCode":"19705","PointLetter":"Q","StopName":"New Street Hill","Latitude":51.421298,"Longitude":0.021991,"Action":0},{"StopId":16777,"StopCode":"19703","PointLetter":"R","StopName":"Burnt Ash Lane / Southover","Latitude":51.419752,"Longitude":0.018788,"Action":0},{"StopId":16963,"StopCode":"20403","PointLetter":"S","StopName":"Park Avenue","Latitude":51.417092,"Longitude":0.017088,"Action":0},{"StopId":16475,"StopCode":"R0551","PointLetter":"D","StopName":"Plaistow Green","Latitude":51.414103,"Longitude":0.017287,"Action":0},{"StopId":16348,"StopCode":"40237","PointLetter":"","StopName":"Morgan Road","Latitude":51.412377,"Longitude":0.015155,"Action":0},{"StopId":16005,"StopCode":"19700","PointLetter":"C","StopName":"Hammelton Road","Latitude":51.410304,"Longitude":0.014388,"Action":0},{"StopId":15519,"StopCode":"36951","PointLetter":"E","StopName":"Bromley North Station","Latitude":51.408187,"Longitude":0.016710,"Action":0},{"StopId":13572,"StopCode":"BP055","PointLetter":"T","StopName":"Bromley Civic Centre","Latitude":51.405318,"Longitude":0.018841,"Action":0},{"StopId":13610,"StopCode":"40234","PointLetter":"X","StopName":"Bromley High Street / The Mall","Latitude":51.401794,"Longitude":0.016141,"Action":0},{"StopId":13635,"StopCode":"40104","PointLetter":"Z","StopName":"Bromley South Station","Latitude":51.400437,"Longitude":0.017131,"Action":0},{"StopId":13599,"StopCode":"14457","PointLetter":"G","StopName":"Cromwell Avenue","Latitude":51.398805,"Longitude":0.018957,"Action":0},{"StopId":13641,"StopCode":"19276","PointLetter":"","StopName":"Bertha James Day Centre","Latitude":51.396801,"Longitude":0.023556,"Action":0},{"StopId":13613,"StopCode":"3912","PointLetter":"","StopName":"Homesdale Road","Latitude":51.396039,"Longitude":0.024959,"Action":0},{"StopId":13615,"StopCode":"18196","PointLetter":"BA","StopName":"Southlands Road","Latitude":51.392614,"Longitude":0.031148,"Action":0},{"StopId":13643,"StopCode":"1242","PointLetter":"BB","StopName":"Bromley Common / The Crown","Latitude":51.390181,"Longitude":0.034533,"Action":0},{"StopId":15628,"StopCode":"18198","PointLetter":"BL","StopName":"Bromley Common / Turpington Lane","Latitude":51.382581,"Longitude":0.040347,"Action":0},{"StopId":15620,"StopCode":"3924","PointLetter":"BM","StopName":"Oakley Road / Holy Trinity Church","Latitude":51.378666,"Longitude":0.043061,"Action":0},{"StopId":15396,"StopCode":"18201","PointLetter":"BN","StopName":"Bromley Bus Garage","Latitude":51.375738,"Longitude":0.044426,"Action":0},{"StopId":15525,"StopCode":"18202","PointLetter":"","StopName":"Hastings Road / Lakeside Drive","Latitude":51.370600,"Longitude":0.047717,"Action":0},{"StopId":15400,"StopCode":"19029","PointLetter":"","StopName":"Farnborough Park","Latitude":51.368480,"Longitude":0.049605,"Action":0},{"StopId":17341,"StopCode":"BP4332","PointLetter":"HA","StopName":"Princess Royal University Hospital","Latitude":51.365569,"Longitude":0.058181,"Action":0}], "Routes" : [{"Id":2356,"Route":"261","From":"Lewisham Station","Towards":"Princess Royal University Hospital","Run":"1","IsDay":1,"encodedLevels":"P@ADAABEA?B?@D@BAF@BC?B?@E?AC?@AE?A@I?A?BDA?A@DB?EE@BFBAB@?BDA?D@F??A@A?C@BE?AB?@C?@H@AAD@BAC@F@B@?AD?AG?C@EC@?B@FA?D@BA?E@BAGBF@B@@D@CBG@?ABAF@AB?AB?F?AD@JA?@D@@D@B?B@@?B?A?CAGBAA@D@?BC@A?@BE@A@@CB@GAA@DA?AC?B?F?B@?E?@B@CEDP","encodedPoints":"itbyHzoADgAh@kFRk@h@k@TAxBmA~B{Bb@mADe@lAgIVcAPk@x@yBlAeCxByDpCkDrDcGTiAX{DPoK?aASmIBoECuELsL`@qBTq@l@kAT_@t@o@|D{EXk@DSBk@IeD?{BTDb@B`CKrO{@tEo@xAe@jF{@vAQtEaAnCu@hD_BdC{BbAcAl@nDFIlPiFbA?rFqBr@m@bGgD~Am@pEwAb@QfEwBdGaGxF}Ef@a@l@YbHiB`@C~BA`FAv@DvI@pAG`AAj@FlDv@`CDPGVQv@y@Te@Pe@fAcBNK\\Kf@G`@B\\L~GrCv@Lr@Ev@UvBoAd@I\\Hb@Z~@dAHT`AvCpCtJR~@vAlDXTRJpBn@lC^~AZlA[|Cg@lEkBXi@Ru@Rg@HGL@fB~ANRBJAZc@pBAj@DXP^`@h@fEbEjFzDr@ThH\\nEGt@iBz@mCp@qDCSRo@FCjCsE|C{Cl@OVCr@Bx@?nFc@hBLnE?@dANnBLZGHCL@|CDd@t@dFpBsAlBwArE}BlBPTEhAg@XUPUDSR_ANcBvAeLj@c@LWvBuFbC_H|CyGjAoBzEqJ|@oB`DeIHY~BqF|AgD|BiEhBgCfFkGdD_D^OPa@|@iABDZ@XE~@a@hBgAhGwEtDcCtD}B~KwH`WoOvAm@pEmArGaCdDyAhFmBnEo@bEoBRSf@m@pAwClBgDl@u@nAiAp@c@pC}A|BiB`CcCRYl@eAVk@^wAjCyI\\cArAqCz@_BUa@[}@Qs@Ck@q@}D_BuCxAsCr@nA","Color":"993333","hasRunTwo":1,"startPoint":{"Latitude":51.464540,"Longitude":-0.012935},"endPoint":{"Latitude":51.365536,"Longitude":0.057996}}]}


