{"Stops" : [{"StopId":3804,"StopCode":"R0876","PointLetter":"B","StopName":"Hammersmith Bus Station","Latitude":51.491989,"Longitude":-0.223882,"Action":0},{"StopId":1864,"StopCode":"51781","PointLetter":"U","StopName":"Kings Mall Shopping Centre","Latitude":51.492706,"Longitude":-0.227254,"Action":0},{"StopId":1901,"StopCode":"24779","PointLetter":"WA","StopName":"Hammersmith Town Hall","Latitude":51.492601,"Longitude":-0.232876,"Action":0},{"StopId":1784,"StopCode":"BP1501","PointLetter":"D","StopName":"Ravenscourt Park Station","Latitude":51.492897,"Longitude":-0.235804,"Action":0},{"StopId":1843,"StopCode":"6149","PointLetter":"G","StopName":"Ravenscourt Park","Latitude":51.493452,"Longitude":-0.240407,"Action":0},{"StopId":1881,"StopCode":"174","PointLetter":"H","StopName":"Goldhawk Road","Latitude":51.493381,"Longitude":-0.244068,"Action":0},{"StopId":1910,"StopCode":"1038","PointLetter":"PP","StopName":"Stamford Brook Bus Garage","Latitude":51.492986,"Longitude":-0.249500,"Action":0},{"StopId":1842,"StopCode":"6153","PointLetter":"RR","StopName":"Chiswick Lane","Latitude":51.492739,"Longitude":-0.253457,"Action":0},{"StopId":1835,"StopCode":"1039","PointLetter":"SS","StopName":"Chiswick Police Station","Latitude":51.492411,"Longitude":-0.259822,"Action":0},{"StopId":1919,"StopCode":"133","PointLetter":"CV","StopName":"Turnham Green Church","Latitude":51.492564,"Longitude":-0.265939,"Action":0},{"StopId":1841,"StopCode":"6157","PointLetter":"T","StopName":"Chiswick Road","Latitude":51.492876,"Longitude":-0.270609,"Action":0},{"StopId":1900,"StopCode":"27303","PointLetter":"A","StopName":"Gunnersbury Station","Latitude":51.492337,"Longitude":-0.274936,"Action":0},{"StopId":1840,"StopCode":"6159","PointLetter":"J","StopName":"Power Road","Latitude":51.491993,"Longitude":-0.279645,"Action":0},{"StopId":1889,"StopCode":"3164","PointLetter":"K","StopName":"Brentford Fountain Leisure Centre","Latitude":51.490456,"Longitude":-0.284601,"Action":0},{"StopId":2877,"StopCode":"1625","PointLetter":"S","StopName":"Kew Bridge Station","Latitude":51.488689,"Longitude":-0.288614,"Action":0},{"StopId":2920,"StopCode":"6164","PointLetter":"U","StopName":"The Musical Museum","Latitude":51.487591,"Longitude":-0.292890,"Action":0},{"StopId":2834,"StopCode":"6168","PointLetter":"BH","StopName":"Watermans Centre","Latitude":51.486264,"Longitude":-0.297534,"Action":0},{"StopId":5816,"StopCode":"6170","PointLetter":"BJ","StopName":"Goat Wharf","Latitude":51.485246,"Longitude":-0.300438,"Action":0},{"StopId":5920,"StopCode":"6174","PointLetter":"BK","StopName":"Brentford County Court","Latitude":51.483835,"Longitude":-0.304264,"Action":0},{"StopId":2916,"StopCode":"6176","PointLetter":"BL","StopName":"Brentford Magistrates Court","Latitude":51.483142,"Longitude":-0.307977,"Action":0},{"StopId":5918,"StopCode":"6180","PointLetter":"","StopName":"Brent Lea","Latitude":51.481634,"Longitude":-0.314427,"Action":0},{"StopId":5927,"StopCode":"6184","PointLetter":"W","StopName":"Syon Lane","Latitude":51.480116,"Longitude":-0.318256,"Action":0},{"StopId":2914,"StopCode":"6188","PointLetter":"V","StopName":"Busch Corner","Latitude":51.478758,"Longitude":-0.322641,"Action":0},{"StopId":5906,"StopCode":"6402","PointLetter":"TE","StopName":"Teesdale Gardens","Latitude":51.476367,"Longitude":-0.324658,"Action":0},{"StopId":5912,"StopCode":"6461","PointLetter":"HB","StopName":"Twickenham Rd / West Middlesex Hospital","Latitude":51.474369,"Longitude":-0.327035,"Action":0},{"StopId":5826,"StopCode":"6405","PointLetter":"TF","StopName":"Mandeville Road","Latitude":51.472019,"Longitude":-0.328115,"Action":0},{"StopId":4436,"StopCode":"15225","PointLetter":"TH","StopName":"Isleworth War Memorial","Latitude":51.470279,"Longitude":-0.328380,"Action":0},{"StopId":5758,"StopCode":"20513","PointLetter":"TM","StopName":"Isleworth Library","Latitude":51.467174,"Longitude":-0.329487,"Action":0},{"StopId":5730,"StopCode":"27558","PointLetter":"","StopName":"Brantwood Avenue","Latitude":51.465227,"Longitude":-0.330451,"Action":0},{"StopId":5717,"StopCode":"6373","PointLetter":"A","StopName":"Lynton Close","Latitude":51.462916,"Longitude":-0.331672,"Action":0},{"StopId":5715,"StopCode":"6412","PointLetter":"B","StopName":"Mogden Lane","Latitude":51.460194,"Longitude":-0.331267,"Action":0},{"StopId":5914,"StopCode":"6413","PointLetter":"C","StopName":"Crane Avenue","Latitude":51.458521,"Longitude":-0.330566,"Action":0},{"StopId":5798,"StopCode":"20708","PointLetter":"D","StopName":"Chertsey Road","Latitude":51.456577,"Longitude":-0.330464,"Action":0},{"StopId":5986,"StopCode":"R0242","PointLetter":"E","StopName":"Hill View Road","Latitude":51.454159,"Longitude":-0.329890,"Action":0},{"StopId":5803,"StopCode":"27567","PointLetter":"F","StopName":"Whitton Road","Latitude":51.451413,"Longitude":-0.330911,"Action":0},{"StopId":3755,"StopCode":"14713","PointLetter":"C","StopName":"Twickenham Station","Latitude":51.450216,"Longitude":-0.330912,"Action":0},{"StopId":3889,"StopCode":"25606","PointLetter":"F","StopName":"Twickenham / London Road","Latitude":51.448519,"Longitude":-0.329203,"Action":0},{"StopId":3754,"StopCode":"14752","PointLetter":"L","StopName":"Twickenham / King Street","Latitude":51.445915,"Longitude":-0.328781,"Action":0},{"StopId":3800,"StopCode":"R0278","PointLetter":"U","StopName":"Heath Road / Copthall Gardens","Latitude":51.445104,"Longitude":-0.332465,"Action":0},{"StopId":3885,"StopCode":"2841","PointLetter":"GS","StopName":"Heath Road / Grove Avenue","Latitude":51.445266,"Longitude":-0.336302,"Action":0},{"StopId":3922,"StopCode":"6424","PointLetter":"GT","StopName":"Twickenham Green","Latitude":51.443812,"Longitude":-0.340902,"Action":0},{"StopId":3802,"StopCode":"R0124","PointLetter":"GB","StopName":"Twickenham / The Prince Albert","Latitude":51.442362,"Longitude":-0.343257,"Action":0},{"StopId":3738,"StopCode":"27526","PointLetter":"SC","StopName":"Trafalgar Road / Prince Of Wales","Latitude":51.439537,"Longitude":-0.347647,"Action":0},{"StopId":3913,"StopCode":"6428","PointLetter":"H","StopName":"Fulwell / Sixth Cross Road","Latitude":51.436847,"Longitude":-0.350089,"Action":0},{"StopId":20788,"StopCode":"27570","PointLetter":"","StopName":"Fulwell Bus Garage","Latitude":51.435046,"Longitude":-0.351204,"Action":0}], "Routes" : [{"Id":4074,"Route":"267","From":"Hammersmith Bus Station","Towards":"Fulwell Bus Garage","Run":"1","IsDay":1,"encodedLevels":"PA?CE@AEAAAF?CD?A??B@??AC?F?B@AB?@EB?A?AD?A?B@?@H@B@AD?AB?@BD@@BBE@B?D??B@A?@?C@@E?B@@B@E??@?C?@JBE?BAFA@A@CABA?A@AEB?A?DA@AAAAD@@?BC@@@?AHAD?BD@@BC@@F?@CBBEB?@AF?C?DD?@I@@CDCBD?AG@@?C@AC@?EBCBP","encodedPoints":"qahyH~xj@`BsBHQ@OhAH?r@MlCQd@SL{@?sEf@ALnAvSD~@MnSk@pME\\Ab@DTAVIFCt@{@zJS`Ba@vIClBIhLPlIZ~T\\|H\\xE^rLZpS`@nRPfNAzJa@zPGxD_@|IOnCEpG@z@PhDXhDz@fMJpCDvDTnGr@vPJ^PPn@^HApA|@DXDr@?tCKXEZC~@d@|BlApD~AxD~CrIl@b@x@|C?bAZfELpAjAzHJh@jAvDPt@~@|FvBrKn@jC`DzNvBhKZhBnAfDfCfIVjATlBdAbMjAnIPt@nAzJ@`BZzEl@pBD@hCfJb@nAnCpJl@bClCtMvD~PvC@fBb@pB`CrGpItFpGt@`@|@XRGTDnDlAnBf@`E^LMZTZMH@FFxC?h@N|A~@Nf@LVLNTJxBZJE`@AHLd@BHOZBHLn@N`I~CxB~@xF`D\\JLAPDNDRNbBPpFFdAIr@UdIyCvEaAX@FJf@?jIq@RSL]Z_@H?XRx@ThC]hIK|AVdBx@\\VbAfAh@r@rBrARSfHuInBsA~AkA~F_DTFZBbA`@Hb@`@r@fB~E\\|Dh@rKe@zPF~JNxAZtBhAbFh@~@n@v@|E`Ih@bAbBfDhA|CtE|JdC~ChDvEdBhCzBtBnInFvFbDjAN","Color":"993333","hasRunTwo":1,"startPoint":{"Latitude":51.492256,"Longitude":-0.224311},"endPoint":{"Latitude":51.435039,"Longitude":-0.351267}}]}


