{"Stops" : [{"StopId":20948,"StopCode":"BP5456","PointLetter":"HS","StopName":"Gateway Surgical Centre","Latitude":51.520747,"Longitude":0.039786,"Action":0},{"StopId":15915,"StopCode":"BP2364","PointLetter":"HA","StopName":"Newham University Hosp Main Entrance","Latitude":51.522173,"Longitude":0.036909,"Action":0},{"StopId":16559,"StopCode":"BP2365","PointLetter":"HB","StopName":"Newham University Hosp Emergency Dept","Latitude":51.522460,"Longitude":0.033332,"Action":0},{"StopId":15612,"StopCode":"8109","PointLetter":"HE","StopName":"Newham University Hospital","Latitude":51.522765,"Longitude":0.030794,"Action":0},{"StopId":15439,"StopCode":"8107","PointLetter":"GT","StopName":"Wigston Road","Latitude":51.523708,"Longitude":0.030360,"Action":0},{"StopId":15619,"StopCode":"747","PointLetter":"BA","StopName":"Plaistow / Prince Regent Lane","Latitude":51.525534,"Longitude":0.028769,"Action":0},{"StopId":15414,"StopCode":"1882","PointLetter":"BB","StopName":"Plaistow Police Station","Latitude":51.523944,"Longitude":0.026075,"Action":0},{"StopId":15716,"StopCode":"4891","PointLetter":"BC","StopName":"Balaam Street","Latitude":51.522560,"Longitude":0.023404,"Action":0},{"StopId":15365,"StopCode":"BP3756","PointLetter":"BD","StopName":"Chargeable Lane","Latitude":51.521462,"Longitude":0.020876,"Action":0},{"StopId":15388,"StopCode":"1878","PointLetter":"BE","StopName":"Croydon Road","Latitude":51.520351,"Longitude":0.018535,"Action":0},{"StopId":15560,"StopCode":"BP665","PointLetter":"P","StopName":"Rokeby School","Latitude":51.518887,"Longitude":0.015256,"Action":0},{"StopId":14467,"StopCode":"8148","PointLetter":"T","StopName":"Star Lane","Latitude":51.519298,"Longitude":0.012291,"Action":0},{"StopId":14882,"StopCode":"8146","PointLetter":"","StopName":"Blake Road","Latitude":51.521502,"Longitude":0.012287,"Action":0},{"StopId":13807,"StopCode":"8144","PointLetter":"","StopName":"Stephens Court","Latitude":51.523220,"Longitude":0.012219,"Action":0},{"StopId":14749,"StopCode":"8140","PointLetter":"","StopName":"Ladysmith Road","Latitude":51.524932,"Longitude":0.013635,"Action":0},{"StopId":14432,"StopCode":"8136","PointLetter":"","StopName":"Suffolk Road","Latitude":51.525530,"Longitude":0.017020,"Action":0},{"StopId":14778,"StopCode":"8132","PointLetter":"N","StopName":"Florence Road","Latitude":51.529409,"Longitude":0.018388,"Action":0},{"StopId":14591,"StopCode":"8041","PointLetter":"A","StopName":"Plaistow Station","Latitude":51.531192,"Longitude":0.018236,"Action":0},{"StopId":14150,"StopCode":"8037","PointLetter":"K","StopName":"Morley Road","Latitude":51.532542,"Longitude":0.015066,"Action":0},{"StopId":13984,"StopCode":"8035","PointLetter":"L","StopName":"Plaistow Grove","Latitude":51.533882,"Longitude":0.011896,"Action":0},{"StopId":14410,"StopCode":"8029","PointLetter":"N","StopName":"Church Street","Latitude":51.536064,"Longitude":0.006888,"Action":0},{"StopId":14752,"StopCode":"8027","PointLetter":"P","StopName":"Paul Street","Latitude":51.538103,"Longitude":0.005420,"Action":0},{"StopId":15676,"StopCode":"371","PointLetter":"J","StopName":"Old Town Hall","Latitude":51.540531,"Longitude":0.001244,"Action":0},{"StopId":15418,"StopCode":"20760","PointLetter":"J","StopName":"Stratford High St  / Carpenters Road","Latitude":51.537340,"Longitude":-0.002588,"Action":0},{"StopId":15681,"StopCode":"4897","PointLetter":"K","StopName":"Warton Road","Latitude":51.535801,"Longitude":-0.004631,"Action":0},{"StopId":15756,"StopCode":"2067","PointLetter":"L","StopName":"Abbey Lane","Latitude":51.533135,"Longitude":-0.008078,"Action":0},{"StopId":15690,"StopCode":"4875","PointLetter":"P","StopName":"Bow Flyover","Latitude":51.530228,"Longitude":-0.012169,"Action":0},{"StopId":18984,"StopCode":"2062","PointLetter":"J","StopName":"Bow Church","Latitude":51.528382,"Longitude":-0.017354,"Action":0},{"StopId":18069,"StopCode":"14503","PointLetter":"C","StopName":"Bow Bus Garage","Latitude":51.528547,"Longitude":-0.019668,"Action":0},{"StopId":19328,"StopCode":"18022","PointLetter":"FJ","StopName":"Tredegar Road","Latitude":51.532492,"Longitude":-0.023764,"Action":0},{"StopId":14032,"StopCode":"9249","PointLetter":"PK","StopName":"Roman Road Market","Latitude":51.533606,"Longitude":-0.026383,"Action":0},{"StopId":14529,"StopCode":"18020","PointLetter":"PL","StopName":"Old Ford Road","Latitude":51.535429,"Longitude":-0.027833,"Action":0},{"StopId":19329,"StopCode":"BP2301","PointLetter":"PM","StopName":"Waterside Close","Latitude":51.537228,"Longitude":-0.028909,"Action":0},{"StopId":19330,"StopCode":"18018","PointLetter":"JN","StopName":"Wick Lane","Latitude":51.538898,"Longitude":-0.027178,"Action":0},{"StopId":19200,"StopCode":"BP3461","PointLetter":"MP","StopName":"Wansbeck Road","Latitude":51.538421,"Longitude":-0.025526,"Action":0},{"StopId":19119,"StopCode":"BP2427","PointLetter":"A","StopName":"Hackney Wick Station","Latitude":51.542660,"Longitude":-0.025199,"Action":0},{"StopId":19129,"StopCode":"35574","PointLetter":"V","StopName":"Berkshire Road","Latitude":51.545043,"Longitude":-0.025716,"Action":0},{"StopId":19182,"StopCode":"35575","PointLetter":"S","StopName":"Osborne Road","Latitude":51.546477,"Longitude":-0.028105,"Action":0},{"StopId":16361,"StopCode":"35255","PointLetter":"P","StopName":"Trowbridge Estate","Latitude":51.547432,"Longitude":-0.028785,"Action":0},{"StopId":15904,"StopCode":"BP2717","PointLetter":"E","StopName":"Crowfoot Close","Latitude":51.549132,"Longitude":-0.028813,"Action":0},{"StopId":16235,"StopCode":"35256","PointLetter":"F","StopName":"Poplar Close","Latitude":51.550527,"Longitude":-0.030454,"Action":0},{"StopId":2608,"StopCode":"29456","PointLetter":"N","StopName":"Kingsmead Estate","Latitude":51.550273,"Longitude":-0.032990,"Action":0},{"StopId":2611,"StopCode":"29453","PointLetter":"P","StopName":"Marsh Hill","Latitude":51.549694,"Longitude":-0.035496,"Action":0},{"StopId":2664,"StopCode":"10260","PointLetter":"M","StopName":"Glyn Road","Latitude":51.548811,"Longitude":-0.039659,"Action":0},{"StopId":709,"StopCode":"BP3801","PointLetter":"HB","StopName":"Brooksby's Walk / Homerton Station","Latitude":51.549580,"Longitude":-0.042684,"Action":0},{"StopId":737,"StopCode":"BP1818","PointLetter":"F","StopName":"Homerton Hospital","Latitude":51.549891,"Longitude":-0.044055,"Action":0},{"StopId":2446,"StopCode":"18012","PointLetter":"A","StopName":"Banister House","Latitude":51.547996,"Longitude":-0.045304,"Action":0},{"StopId":2511,"StopCode":"17298","PointLetter":"T","StopName":"Ponsford Street","Latitude":51.546927,"Longitude":-0.049144,"Action":0},{"StopId":2532,"StopCode":"17296","PointLetter":"C","StopName":"Morning Lane / Trelawney Estate","Latitude":51.545987,"Longitude":-0.054290,"Action":0},{"StopId":806,"StopCode":"306","PointLetter":"A","StopName":"Hackney Town Hall","Latitude":51.545268,"Longitude":-0.055402,"Action":0},{"StopId":743,"StopCode":"37257","PointLetter":"K","StopName":"Hackney Central Station","Latitude":51.547899,"Longitude":-0.056804,"Action":0},{"StopId":692,"StopCode":"129","PointLetter":"L","StopName":"Amhurst Road / Hackney Downs Station","Latitude":51.548654,"Longitude":-0.058388,"Action":0},{"StopId":19110,"StopCode":"35758","PointLetter":"P","StopName":"Amhurst Road / Dalston Lane","Latitude":51.549610,"Longitude":-0.061261,"Action":0},{"StopId":19201,"StopCode":"35760","PointLetter":"E","StopName":"Sandringham Road","Latitude":51.550402,"Longitude":-0.063996,"Action":0},{"StopId":19202,"StopCode":"35762","PointLetter":"F","StopName":"Downs Park Road","Latitude":51.552048,"Longitude":-0.066191,"Action":0},{"StopId":19153,"StopCode":"35764","PointLetter":"G","StopName":"Shacklewell Lane","Latitude":51.554091,"Longitude":-0.067980,"Action":0},{"StopId":19120,"StopCode":"35766","PointLetter":"","StopName":"Rectory Road / Downs Road","Latitude":51.556011,"Longitude":-0.068245,"Action":0},{"StopId":255,"StopCode":"33413","PointLetter":"N","StopName":"Manse Road","Latitude":51.557206,"Longitude":-0.069796,"Action":0},{"StopId":127,"StopCode":"2087","PointLetter":"R","StopName":"Stoke Newington Police Station","Latitude":51.557877,"Longitude":-0.074528,"Action":0},{"StopId":199,"StopCode":"626","PointLetter":"S","StopName":"Brooke Road","Latitude":51.560369,"Longitude":-0.074048,"Action":0},{"StopId":7512,"StopCode":"BP5254","PointLetter":"F","StopName":"Stoke Newington High St / Garnham St","Latitude":51.562332,"Longitude":-0.073662,"Action":0},{"StopId":20,"StopCode":"BP3194","PointLetter":"D","StopName":"Northwold Road / Stoke Newington Common","Latitude":51.562977,"Longitude":-0.071831,"Action":0},{"StopId":1734,"StopCode":"16764","PointLetter":"J","StopName":"Stoke Newington Common","Latitude":51.562059,"Longitude":-0.068523,"Action":0}], "Routes" : [{"Id":4504,"Route":"276","From":"Gateway Surgical Centre","Towards":"Stoke Newington Common","Run":"1","IsDay":1,"encodedLevels":"PC@D@D@BA@AB@E@AA?C@E??@E@AGA?AH?DBBB??IF?B?@D@G?ABBA?CABA?F?A?AE@A?HCB@CAAD?@A?AI@C@A@C@A@A@@F?ADAACIA@C@AE@DEAC@GE@EE?FA@CBBF?AFAD?@AG?E?CE@BFI@C@A?F??E@EFCFABE?AE@?@D?AE?EA@AD@IAAABF?@D??A@D?B?FEC@B?G@A??AB@H?AB@@GBBAGA@DA@?P","encodedPoints":"}umyHkvFhA]FHD`@AHuA^EPFXHLLGFBFT?LMNG?KQq@DwAk@UMMHMZOnBYzGQlC}@`M?bAPbBrAbKqAp@gGvB}HvCcB|@dHzNrGjMlAfDv@nEnH`R`GvPTt@zNvb@_Pl@CvBCPEFy@nE_CpK?rCMrHo@Hw@DyCI}Bi@aFGaBKaH[wFDgJMyBJwAVG?OEIIoCuFyAmCkBiCq@[{F_BQCaIuBkAn@cAhDi@bA_@b@iA|@sGzD}BpBw@~@qCtDg@|@cEnEE@sA|Bd@hA|CfGf@b@z@h@`BbBxAjB|GhJ~GfKnClDhIjLlFzHlFjHh@dAhAhCn@hBdCxHCRvCjLnA~G^zFK^}IpKiBpBkCrCgC~BmElDn@jAr@nBiBxBgFrF{BdB_CrA{IpEyChA_@q@_EmLdEiFYQyAs@k@t@YTs@\\yHrA{BhA_CZ@a@Ey@}@yGs@t@kC`BO?IEuA_A_A_@kAr@sGlEC~@MtBsEtJg@w@[w@kAgGqSpVfCdIf@rBdAtI~BhPvAzLDl@JxC@tALjCeD|AqC|AbA`GzDiBxBAj@`FPxEE~HpADx@FnB`@GdBKfAO`Ae@nGBp@NlAbB`JvBrIRf@LJ\\K~AOrBEPrBCTCL[?wG[UKqE@oBzFyDdK{CzIIrAKj@Cb@cBhMQl@Un@kCdG_AnAaAjAkQ~NaEg@wBLmBZo@R}@b@GL?`@Dj@LtFDpCAnKAjASpEUFQ?gX{CqF}@oA_@a@CGk@tBwKl@iI~@qGVlBt@xCXp@j@~@pAnAd@VZT","Color":"993333","hasRunTwo":1,"startPoint":{"Latitude":51.521119,"Longitude":0.039589},"endPoint":{"Latitude":51.560769,"Longitude":-0.070521}}]}


