{"Stops" : [{"StopId":3314,"StopCode":"BP2817","PointLetter":"B","StopName":"Waltham Cross Bus Station","Latitude":51.685608,"Longitude":-0.031224,"Action":0},{"StopId":3292,"StopCode":"12243","PointLetter":"H","StopName":"Arlington Crescent","Latitude":51.682191,"Longitude":-0.033412,"Action":0},{"StopId":3545,"StopCode":"12245","PointLetter":"A","StopName":"Bullsmoor Lane","Latitude":51.678436,"Longitude":-0.034139,"Action":0},{"StopId":3415,"StopCode":"3511","PointLetter":"B","StopName":"Oakhurst Road","Latitude":51.676621,"Longitude":-0.035274,"Action":0},{"StopId":3331,"StopCode":"12251","PointLetter":"K","StopName":"Totteridge Road","Latitude":51.673908,"Longitude":-0.038182,"Action":0},{"StopId":3010,"StopCode":"12254","PointLetter":"L","StopName":"Turkey Street Station","Latitude":51.671300,"Longitude":-0.040291,"Action":0},{"StopId":3036,"StopCode":"12255","PointLetter":"M","StopName":"Albany Leisure Centre","Latitude":51.668825,"Longitude":-0.041251,"Action":0},{"StopId":3007,"StopCode":"12258","PointLetter":"N","StopName":"Ingersoll Road","Latitude":51.665731,"Longitude":-0.043394,"Action":0},{"StopId":3094,"StopCode":"12265","PointLetter":"EA","StopName":"Oatlands Road","Latitude":51.662001,"Longitude":-0.045623,"Action":0},{"StopId":3006,"StopCode":"12261","PointLetter":"EB","StopName":"Carterhatch Lane","Latitude":51.660556,"Longitude":-0.046364,"Action":0},{"StopId":3039,"StopCode":"1336","PointLetter":"EC","StopName":"Green Street","Latitude":51.658088,"Longitude":-0.047164,"Action":0},{"StopId":1954,"StopCode":"20595","PointLetter":"ED","StopName":"Durants Park","Latitude":51.654133,"Longitude":-0.048390,"Action":0},{"StopId":2013,"StopCode":"12273","PointLetter":"EE","StopName":"Enfield College","Latitude":51.652384,"Longitude":-0.047540,"Action":0},{"StopId":3574,"StopCode":"1344","PointLetter":"F","StopName":"Durants Road","Latitude":51.649134,"Longitude":-0.046234,"Action":0},{"StopId":3333,"StopCode":"12280","PointLetter":"J","StopName":"Southbury Road","Latitude":51.647386,"Longitude":-0.046584,"Action":0},{"StopId":3561,"StopCode":"12282","PointLetter":"L","StopName":"Ponders End Park","Latitude":51.644763,"Longitude":-0.046248,"Action":0},{"StopId":3984,"StopCode":"BP1579","PointLetter":"LA","StopName":"Nightingale Road","Latitude":51.640539,"Longitude":-0.047456,"Action":0},{"StopId":3344,"StopCode":"26239","PointLetter":"LC","StopName":"Cuckoo Hall Lane","Latitude":51.637058,"Longitude":-0.050121,"Action":0},{"StopId":3560,"StopCode":"12290","PointLetter":"LD","StopName":"Tramway Avenue","Latitude":51.635320,"Longitude":-0.052118,"Action":0},{"StopId":3559,"StopCode":"12294","PointLetter":"LE","StopName":"Forest Road / Jubilee Park","Latitude":51.632452,"Longitude":-0.054379,"Action":0},{"StopId":3558,"StopCode":"12298","PointLetter":"LF","StopName":"Bounces Road","Latitude":51.629424,"Longitude":-0.056127,"Action":0},{"StopId":3393,"StopCode":"BP3445","PointLetter":"LH","StopName":"Monmouth Road","Latitude":51.627549,"Longitude":-0.056424,"Action":0},{"StopId":433,"StopCode":"BP4957","PointLetter":"G","StopName":"Edmonton Green Bus Station","Latitude":51.625449,"Longitude":-0.058811,"Action":0},{"StopId":615,"StopCode":"12308","PointLetter":"J","StopName":"Edmonton Green Police Station","Latitude":51.622675,"Longitude":-0.061299,"Action":0},{"StopId":640,"StopCode":"12312","PointLetter":"K","StopName":"Shrubbery Road","Latitude":51.621146,"Longitude":-0.061783,"Action":0},{"StopId":642,"StopCode":"12314","PointLetter":"G","StopName":"Brettenham Road","Latitude":51.617877,"Longitude":-0.063136,"Action":0},{"StopId":338,"StopCode":"R0323","PointLetter":"E","StopName":"Angel Corner","Latitude":51.615759,"Longitude":-0.063948,"Action":0},{"StopId":621,"StopCode":"12319","PointLetter":"K","StopName":"Colyton Way","Latitude":51.611942,"Longitude":-0.064833,"Action":0},{"StopId":617,"StopCode":"12323","PointLetter":"L","StopName":"Nutfield Close","Latitude":51.609307,"Longitude":-0.066432,"Action":0},{"StopId":626,"StopCode":"29955","PointLetter":"M","StopName":"White Hart Lane Station","Latitude":51.605925,"Longitude":-0.068020,"Action":0},{"StopId":618,"StopCode":"12327","PointLetter":"N","StopName":"Tottenham Hotspur Football Club","Latitude":51.603530,"Longitude":-0.067833,"Action":0},{"StopId":613,"StopCode":"960","PointLetter":"P","StopName":"Tottenham Sports Centre","Latitude":51.601792,"Longitude":-0.067690,"Action":0},{"StopId":639,"StopCode":"4840","PointLetter":"A","StopName":"Lordship Lane","Latitude":51.599421,"Longitude":-0.067849,"Action":0},{"StopId":185,"StopCode":"BP1985","PointLetter":"B","StopName":"Scotland Green","Latitude":51.597257,"Longitude":-0.068056,"Action":0},{"StopId":66,"StopCode":"1234","PointLetter":"C","StopName":"Tottenham High Road / Bruce Grove Stn","Latitude":51.593056,"Longitude":-0.069620,"Action":0},{"StopId":48,"StopCode":"R0307","PointLetter":"D","StopName":"Tottenham Police Station","Latitude":51.591261,"Longitude":-0.069841,"Action":0},{"StopId":188,"StopCode":"10944","PointLetter":"N","StopName":"Philip Lane","Latitude":51.587929,"Longitude":-0.070631,"Action":0},{"StopId":139,"StopCode":"10946","PointLetter":"P","StopName":"Tottenham Town Hall","Latitude":51.586832,"Longitude":-0.071140,"Action":0},{"StopId":262,"StopCode":"670","PointLetter":"G","StopName":"Seven Sisters Station","Latitude":51.585706,"Longitude":-0.071563,"Action":0},{"StopId":3517,"StopCode":"4842","PointLetter":"A","StopName":"Stonebridge Road / Seven Sisters Station","Latitude":51.582488,"Longitude":-0.073344,"Action":0},{"StopId":3521,"StopCode":"1301","PointLetter":"TR","StopName":"Elizabeth Road","Latitude":51.581027,"Longitude":-0.076899,"Action":0},{"StopId":3540,"StopCode":"803","PointLetter":"TS","StopName":"St Ann's Road","Latitude":51.579771,"Longitude":-0.079839,"Action":0},{"StopId":3286,"StopCode":"1299","PointLetter":"TT","StopName":"Heysham Road","Latitude":51.576628,"Longitude":-0.083897,"Action":0},{"StopId":3573,"StopCode":"34890","PointLetter":"","StopName":"Vartry Road","Latitude":51.575398,"Longitude":-0.085146,"Action":0},{"StopId":803,"StopCode":"740","PointLetter":"U","StopName":"Seven Sisters Road / Amhurst Park","Latitude":51.573529,"Longitude":-0.087461,"Action":0},{"StopId":780,"StopCode":"6650","PointLetter":"V","StopName":"Woodberry Grove","Latitude":51.572138,"Longitude":-0.091459,"Action":0},{"StopId":3392,"StopCode":"6648","PointLetter":"AP","StopName":"Manor House Station","Latitude":51.571213,"Longitude":-0.094326,"Action":0}], "Routes" : [{"Id":9871,"Route":"279","From":"Waltham Cross Bus Station","Towards":"Manor House Station","Run":"1","IsDay":1,"encodedLevels":"PBB?D?BA?B?D?B?@G?ABBCAE?AC@?CFAAABF?ACAACAEC@?AD?A?BDAA?HAD@B?F?BC?BFC?ABDADABG@D?B??BD??@EC@AACAFAC?C?A?C?G@AAA@@DB??E?CCBG?@BC?AD??@FBADA?BD?C@I?AAFAB?@F@@AP","encodedPoints":"gzmzH|dELiCa@[PqDASCQO]YDOCOIEMEW?WHc@LOTQTIJ?NHHPtBEjB\\|@t@j@~@Vl@Tv@`@hCHdBFhGDj@r@z@xJ`BrGt@b@C`HdArAh@~Az@~A~@hB|ArDlDlAbBbG~G|HlGjFhDdFjBf@HfCRz@DjA^~DxC~IhG^PlF`DfBbBxD~AjJbDjHrBdA^zD`@xHZlDlAdGfCxAL^@b@CPG|FuD|Ak@`G}BpEgAdDCJD|Dt@dA`@|CZjDgAjDe@nD\\xGnAtLrCzFtB\\TbBrA|@~@~BrCn@|@tGhIrEfEj@Z~EfDh@b@`KtGrFvCb@J|ANzBEtBLnAX|DlBfBvBvCbFPrAb@fCF?VKLBFDN`@nAbCjCr@dGrBxAPlHvBfCz@lK~CvG|BxJnBvFt@pALvG~@xBdAfB~@nHnFfAnB`Bx@f@NtAV|@HdINbAElIq@hHQx@BnDFfHZnJVjFpA~HvCrDz@|C\\jFV`CPrOpBfD~@fIhCzGjAlHzAJPh@vArRbm@vAbDbCnDrFjGxA~A|QfRLVTh@fAfEjDlNhGbX","Color":"993333","hasRunTwo":1,"startPoint":{"Latitude":51.685641,"Longitude":-0.031667},"endPoint":{"Latitude":51.571137,"Longitude":-0.094729}},{"Id":9881,"Route":"N279","From":"Waltham Cross Bus Station","Towards":"Trafalgar Square / Charing Cross Stn","Run":"1","IsDay":0,"encodedLevels":"PBB?D?BA?B?D?B?@G?ABBCAE?AC@?CFAAABF?ACAACAEC@?AD?A?BDAA?HAD@B?F?BC?BFC?ABDADABG@D?B??BD??@EC@AACAFAC?C?A?C?G@AAA@@DB??E?CCBG?@BC?AD??@FBADA?BD?C@J?AAFAB?@F@@ABFADB?FA@DACA@D@??B@F@@A?B?@BC?F@??@@CADADA@J@A??AG?B@@C?F?B@EAB?E?DA@B?G@C@@D@F?CA?G?B?CG@B@@DAAABDB?A?D?@P","encodedPoints":"gzmzH|dELiCa@[PqDASCQO]YDOCOIEMEW?WHc@LOTQTIJ?NHHPtBEjB\\|@t@j@~@Vl@Tv@`@hCHdBFhGDj@r@z@xJ`BrGt@b@C`HdArAh@~Az@~A~@hB|ArDlDlAbBbG~G|HlGjFhDdFjBf@HfCRz@DjA^~DxC~IhG^PlF`DfBbBxD~AjJbDjHrBdA^zD`@xHZlDlAdGfCxAL^@b@CPG|FuD|Ak@`G}BpEgAdDCJD|Dt@dA`@|CZjDgAjDe@nD\\xGnAtLrCzFtB\\TbBrA|@~@~BrCn@|@tGhIrEfEj@Z~EfDh@b@`KtGrFvCb@J|ANzBEtBLnAX|DlBfBvBvCbFPrAb@fCF?VKLBFDN`@nAbCjCr@dGrBxAPlHvBfCz@lK~CvG|BxJnBvFt@pALvG~@xBdAfB~@nHnFfAnB`Bx@f@NtAV|@HdINbAElIq@hHQx@BnDFfHZnJVjFpA~HvCrDz@|C\\jFV`CPrOpBfD~@fIhCzGjAlHzAJPh@vArRbm@vAbDbCnDrFjGxA~A|QfRLVTh@fAfEjDlNhGbXbC~H~PvVlFnIpHbNhCxGlElKHLj@HvCr@v@bAhIfH~AzB^dA|@hAXFT?bAERB`@PRTP^x@vDNPpB~IxA`GRj@`BrDNf@HzA|Ond@tArDbC|CLFHHDNbEjF~MpP~]rj@jEdGhFtEhE|EvApEhBhEHDNAhA_A`HwGr@k@tFgFrGqFF?HH^`CDv@XzBNDr@F^@HA^c@`EaDLNXjDPJNBTAnJmBz@LfEGjN@\\A|Da@Z[d@QDe@\\aA@UA_@uAyHlHcIt`@sc@xEgEpGgFp@e@Ff@j@dIArCCVpBtFjBk@xGqCHBp@YlGiBTFNGVHxBCfAUdAu@JMn@_BTUNGNEzCUfCO","Color":"663366","hasRunTwo":1,"startPoint":{"Latitude":51.685641,"Longitude":-0.031667},"endPoint":{"Latitude":51.507794,"Longitude":-0.127130}}]}


