{"Stops" : [{"StopId":3967,"StopCode":"26194","PointLetter":"O","StopName":"Brunel Road","Latitude":51.519768,"Longitude":-0.250837,"Action":0},{"StopId":3780,"StopCode":"20975","PointLetter":"A","StopName":"The Fairway","Latitude":51.518258,"Longitude":-0.250347,"Action":0},{"StopId":3820,"StopCode":"26503","PointLetter":"B","StopName":"East Acton Station  / Erconwald Street","Latitude":51.515619,"Longitude":-0.249468,"Action":0},{"StopId":3757,"StopCode":"11576","PointLetter":"C","StopName":"East Acton Station / Fitzneal Street","Latitude":51.515324,"Longitude":-0.247736,"Action":0},{"StopId":3759,"StopCode":"11572","PointLetter":"A","StopName":"Wulfstan Street","Latitude":51.515678,"Longitude":-0.241928,"Action":0},{"StopId":3929,"StopCode":"11568","PointLetter":"B","StopName":"Hammersmith Hospital","Latitude":51.516261,"Longitude":-0.234684,"Action":0},{"StopId":3760,"StopCode":"11566","PointLetter":"C","StopName":"Latymer Upper School / Playing Fields","Latitude":51.516873,"Longitude":-0.228117,"Action":0},{"StopId":2075,"StopCode":"8907","PointLetter":"L","StopName":"Cavell House","Latitude":51.516374,"Longitude":-0.226681,"Action":0},{"StopId":3930,"StopCode":"25694","PointLetter":"V","StopName":"White City Estate","Latitude":51.514551,"Longitude":-0.232214,"Action":0},{"StopId":6765,"StopCode":"36737","PointLetter":"U","StopName":"Westway","Latitude":51.513833,"Longitude":-0.235254,"Action":0},{"StopId":3932,"StopCode":"36741","PointLetter":"LN","StopName":"Janet Adegoke Leisure Centre","Latitude":51.511188,"Longitude":-0.234607,"Action":0},{"StopId":6769,"StopCode":"36736","PointLetter":"LS","StopName":"Ellerslie Road","Latitude":51.508317,"Longitude":-0.234459,"Action":0},{"StopId":3917,"StopCode":"848","PointLetter":"LC","StopName":"Bloemfontein Road","Latitude":51.506543,"Longitude":-0.233648,"Action":0},{"StopId":6330,"StopCode":"3029","PointLetter":"LD","StopName":"Loftus Road","Latitude":51.506297,"Longitude":-0.231078,"Action":0},{"StopId":5159,"StopCode":"3025","PointLetter":"R","StopName":"Shepherds Bush Market Station","Latitude":51.505553,"Longitude":-0.226438,"Action":0},{"StopId":2031,"StopCode":"24294","PointLetter":"U","StopName":"Shepherds Bush Green","Latitude":51.504625,"Longitude":-0.221028,"Action":0},{"StopId":1611,"StopCode":"24994","PointLetter":"F","StopName":"Shepherds Bush Station","Latitude":51.503889,"Longitude":-0.219947,"Action":0},{"StopId":2094,"StopCode":"843","PointLetter":"G","StopName":"Goldhawk Road","Latitude":51.502736,"Longitude":-0.222758,"Action":0},{"StopId":2050,"StopCode":"8895","PointLetter":"A","StopName":"Blythe Road","Latitude":51.499353,"Longitude":-0.222011,"Action":0},{"StopId":2098,"StopCode":"8995","PointLetter":"B","StopName":"Brook Green","Latitude":51.496868,"Longitude":-0.222987,"Action":0},{"StopId":3849,"StopCode":"14637","PointLetter":"R","StopName":"Hammersmith Library","Latitude":51.494308,"Longitude":-0.223821,"Action":0},{"StopId":15798,"StopCode":"BP5005","PointLetter":"K","StopName":"Hammersmith Bus Station","Latitude":51.492460,"Longitude":-0.222899,"Action":0},{"StopId":3837,"StopCode":"29954","PointLetter":"S","StopName":"Hammersmith Bridge Road","Latitude":51.491494,"Longitude":-0.226797,"Action":0},{"StopId":3795,"StopCode":"BP3191","PointLetter":"L","StopName":"Hammersmith Bridge","Latitude":51.489972,"Longitude":-0.228469,"Action":0},{"StopId":3875,"StopCode":"4609","PointLetter":"K","StopName":"Lonsdale Road","Latitude":51.485332,"Longitude":-0.233287,"Action":0},{"StopId":3830,"StopCode":"15236","PointLetter":"L","StopName":"The Spinney","Latitude":51.483695,"Longitude":-0.235007,"Action":0},{"StopId":3960,"StopCode":"986","PointLetter":"M","StopName":"Washington Road","Latitude":51.480246,"Longitude":-0.237055,"Action":0},{"StopId":3832,"StopCode":"15239","PointLetter":"WN","StopName":"Newport Road","Latitude":51.477431,"Longitude":-0.238287,"Action":0},{"StopId":3761,"StopCode":"1468","PointLetter":"BA","StopName":"Barnes / Red Lion","Latitude":51.475043,"Longitude":-0.240337,"Action":0},{"StopId":6763,"StopCode":"15249","PointLetter":"BB","StopName":"Glebe Road","Latitude":51.474074,"Longitude":-0.244104,"Action":0},{"StopId":3911,"StopCode":"BP1926","PointLetter":"BC","StopName":"Barnes Pond","Latitude":51.473590,"Longitude":-0.246585,"Action":0}], "Routes" : [{"Id":4091,"Route":"283","From":"Brunel Road","Towards":"Barnes Pond","Run":"1","IsDay":1,"encodedLevels":"P?C@F?ABBG?@CA?@B?H?@AFABH@AC@I@A?D??B@CJAG@A?B@FCE?@D@F?AA?C@AAC@DAH?B?D@CA?AC?EA?BG@@?BF?BGA?B?A?B?@B?P","encodedPoints":"gnmyH|hp@AcALiEPc@h@q@LDXDl@ExE}@rPaE_Ay_@o@cYa@qM{AiZSeICsB[cISsCs@mHjAg@t@c@rFsBXBTjHIjEpBph@zKiAvG{@pHg@bDEzK@?{APaGp@kNV}Dv@oItBeRdB}PV_D^uIp@KxBlT`@pBFC\\?p@c@~GqDpASP?dKd@pIhBLDNNtFbFtKGpADLAl@SZe@RKJCHg@T_@b@Yd@y@Be@Gm@rA[fBMJRFZ@`AClIKh@MXSL{@?I@STCP?tBFx@Jl@L\\`CpE^VvF|F~NpOpXvYnBxA`A^lg@rPtBlAZfDLn@z@bDZlCRfCV|Ap@dDFnA@d@r@xGdAvEHf@","Color":"993333","hasRunTwo":1,"startPoint":{"Latitude":51.519890,"Longitude":-0.252468},"endPoint":{"Latitude":51.473413,"Longitude":-0.247376}}]}


