{"Stops" : [{"StopId":18795,"StopCode":"29659","PointLetter":"D","StopName":"Greenwich Town Centre / Cutty Sark","Latitude":51.481619,"Longitude":-0.008294,"Action":0},{"StopId":13880,"StopCode":"8624","PointLetter":"F","StopName":"National Maritime Museum","Latitude":51.481563,"Longitude":-0.007144,"Action":0},{"StopId":14801,"StopCode":"13824","PointLetter":"S","StopName":"Trafalgar Estate","Latitude":51.483246,"Longitude":-0.001958,"Action":0},{"StopId":14649,"StopCode":"13826","PointLetter":"H","StopName":"Trafalgar Road / Maze Hill","Latitude":51.484161,"Longitude":0.001394,"Action":0},{"StopId":13886,"StopCode":"13828","PointLetter":"K","StopName":"King William Lane","Latitude":51.484923,"Longitude":0.003646,"Action":0},{"StopId":14891,"StopCode":"13830","PointLetter":"J","StopName":"Tyler Street","Latitude":51.485571,"Longitude":0.006209,"Action":0},{"StopId":13387,"StopCode":"34293","PointLetter":"D","StopName":"Vanbrugh Hill","Latitude":51.486332,"Longitude":0.008504,"Action":0},{"StopId":13365,"StopCode":"18820","PointLetter":"P","StopName":"Marlton Street","Latitude":51.486154,"Longitude":0.013653,"Action":0},{"StopId":13318,"StopCode":"34284","PointLetter":"E","StopName":"East Greenwich Library","Latitude":51.486398,"Longitude":0.016227,"Action":0},{"StopId":13342,"StopCode":"33912","PointLetter":"G","StopName":"Westcombe Hill Police Station","Latitude":51.485962,"Longitude":0.018023,"Action":0},{"StopId":13334,"StopCode":"17820","PointLetter":"B","StopName":"Westcombe Park Station","Latitude":51.483087,"Longitude":0.019941,"Action":0},{"StopId":13302,"StopCode":"17822","PointLetter":"","StopName":"Kirkside Road","Latitude":51.481054,"Longitude":0.019981,"Action":0},{"StopId":14194,"StopCode":"44007","PointLetter":"BD","StopName":"Blackheath / Royal Standard","Latitude":51.477710,"Longitude":0.020438,"Action":0},{"StopId":18738,"StopCode":"29251","PointLetter":"BJ","StopName":"Stratheden Road / Old Dover Road","Latitude":51.476539,"Longitude":0.018946,"Action":0},{"StopId":18828,"StopCode":"BP756","PointLetter":"W","StopName":"Stratheden Road / Shooters Hill Road","Latitude":51.474517,"Longitude":0.016783,"Action":0},{"StopId":12203,"StopCode":"19694","PointLetter":"P","StopName":"Shooters Hill Road / Stratheden Road","Latitude":51.473865,"Longitude":0.017589,"Action":0},{"StopId":17174,"StopCode":"36534","PointLetter":"L","StopName":"Annesley Road","Latitude":51.472454,"Longitude":0.022740,"Action":0},{"StopId":17234,"StopCode":"36552","PointLetter":"G","StopName":"Kidbrooke Park Close","Latitude":51.470644,"Longitude":0.023927,"Action":0},{"StopId":21345,"StopCode":"BP5633","PointLetter":"R","StopName":"Dover Patrol","Latitude":51.466480,"Longitude":0.028148,"Action":0},{"StopId":18764,"StopCode":"44020","PointLetter":"K","StopName":"Kidbrooke Way","Latitude":51.465493,"Longitude":0.031632,"Action":0},{"StopId":18778,"StopCode":"20328","PointLetter":"A","StopName":"Rochester Way / Broad Walk","Latitude":51.464679,"Longitude":0.034000,"Action":0},{"StopId":18718,"StopCode":"20326","PointLetter":"B","StopName":"Rochester Way / Wendover Road","Latitude":51.461884,"Longitude":0.040052,"Action":0},{"StopId":18853,"StopCode":"20324","PointLetter":"C","StopName":"Appleton Road","Latitude":51.460500,"Longitude":0.045187,"Action":0},{"StopId":18781,"StopCode":"20322","PointLetter":"D","StopName":"Westhorne Avenue / St Barnabas Church","Latitude":51.460231,"Longitude":0.047177,"Action":0},{"StopId":17495,"StopCode":"25746","PointLetter":"S","StopName":"Well Hall Road / Kidbrooke Lane","Latitude":51.458246,"Longitude":0.050125,"Action":0},{"StopId":17493,"StopCode":"25749","PointLetter":"D","StopName":"Eltham Station  / Sherard Road","Latitude":51.455213,"Longitude":0.051314,"Action":0},{"StopId":16220,"StopCode":"25751","PointLetter":"E","StopName":"Eltham Station  / Lassa Road","Latitude":51.453769,"Longitude":0.051623,"Action":0},{"StopId":16448,"StopCode":"26666","PointLetter":"G","StopName":"Eltham Church / Well Hall Road","Latitude":51.451455,"Longitude":0.052282,"Action":0},{"StopId":13267,"StopCode":"16674","PointLetter":"L","StopName":"Eltham High Street / Well Hall Road","Latitude":51.450825,"Longitude":0.053362,"Action":0},{"StopId":13277,"StopCode":"12924","PointLetter":"Q","StopName":"Eltham High Street / Pound Place","Latitude":51.450847,"Longitude":0.058746,"Action":0},{"StopId":11650,"StopCode":"16666","PointLetter":"","StopName":"Eltham High Street / Westmount Road","Latitude":51.450831,"Longitude":0.061739,"Action":0},{"StopId":10887,"StopCode":"16668","PointLetter":"AH","StopName":"Bexley Road / Glenesk Road","Latitude":51.451758,"Longitude":0.067293,"Action":0},{"StopId":13268,"StopCode":"16670","PointLetter":"AJ","StopName":"University Of Greenwich / Mansion Site","Latitude":51.451798,"Longitude":0.075715,"Action":0},{"StopId":13289,"StopCode":"16672","PointLetter":"AK","StopName":"Riefield Road","Latitude":51.451078,"Longitude":0.079295,"Action":0},{"StopId":18672,"StopCode":"19014","PointLetter":"AN","StopName":"University Of Greenwich / Southwood Site","Latitude":51.447848,"Longitude":0.081379,"Action":0},{"StopId":18786,"StopCode":"16665","PointLetter":"AP","StopName":"Restons Crescent","Latitude":51.444985,"Longitude":0.082112,"Action":0},{"StopId":18717,"StopCode":"16663","PointLetter":"AR","StopName":"Days Lane","Latitude":51.441398,"Longitude":0.086597,"Action":0},{"StopId":18841,"StopCode":"16661","PointLetter":"","StopName":"Corbylands Road","Latitude":51.439989,"Longitude":0.088403,"Action":0},{"StopId":11651,"StopCode":"16659","PointLetter":"","StopName":"Hollies Avenue","Latitude":51.438187,"Longitude":0.094681,"Action":0},{"StopId":11652,"StopCode":"16657","PointLetter":"","StopName":"Halfway Street / Old Farm Road East","Latitude":51.437014,"Longitude":0.099390,"Action":0},{"StopId":11427,"StopCode":"25998","PointLetter":"G","StopName":"Sidcup Station","Latitude":51.432637,"Longitude":0.102786,"Action":0},{"StopId":11820,"StopCode":"15183","PointLetter":"M","StopName":"Station Road / Crescent Road","Latitude":51.430534,"Longitude":0.102171,"Action":0},{"StopId":7460,"StopCode":"20437","PointLetter":"S","StopName":"Elm Road / Sidcup Police Station","Latitude":51.425439,"Longitude":0.100988,"Action":0},{"StopId":7689,"StopCode":"16651","PointLetter":"W","StopName":"The Green","Latitude":51.424204,"Longitude":0.101118,"Action":0},{"StopId":20771,"StopCode":"BP5395","PointLetter":"","StopName":"Queen Mary's Hospital / Frognal Avenue","Latitude":51.419407,"Longitude":0.099302,"Action":0}], "Routes" : [{"Id":10484,"Route":"286","From":"Greenwich Town Centre / Cutty Sark","Towards":"Queen Mary's Hospital / Frognal Avenue","Run":"1","IsDay":1,"encodedLevels":"PD?C@BAABAAE@A?D@B@B@IAE@B??ADEDAAFAAD?@B??G@A@HAD?A@B@I?B@@G?@?DABEABGABDAAC?AF?B?EBCH@C?C?D@@C@@BIA?A?AE@B@FA@ADAA@BAAH@CABADC?@GA?CB?@F??B@D@AAI@C?AF??C@AD@B?@CA@E?@@@D?BC?C?G?A@CP","encodedPoints":"k_fyHxs@|A}@[_BkIs]WqA_AoH}AaIuAcFgDyOSmBmCoMcAcHB}DXsJ?iDJqM[wCyA}IODIEKY@]vAiBJFHL@^ALITOz@JpAlBUKqC~BmCpFoFRClEFt@KzGGtATtE~@nHjAL@b@IP?CsAOkAiBqJIaAjBfFbDpHPHd@`@hCzCxGfHh@f@dDdCLOHU_AkQe@{GKgDh@WvBkAhF{CbMeHxA]`DUzBs@d@e@lEsI`A}C@w@lF}XbC{JzCeJnDkItDmKZeArBoIfBkJjAuId@}D\\aG@g@EoBoAgG{@mA`@q@NGrAZZBpC[zLeBzDmA\\U~FeBrGaAvH{Az@KpCgAHiIEeNOsSFgEHuDIsIg@cEwDcVa@{E?{@TuIAmF^_O\\{FVuCL_@FaBNoATwAPWlBwKn@XN?rDaApEw@tMaBhAWvF{A\\Ub@a@vBaCbA_C|EoI`I}MfDuDr@oAZw@j@_BFk@ToEZcErC}VrAaKZsAtAaF|CeKV]X[lBmA|A_@rFaBd@CrGz@pJvAhANl@PhAp@bEpAh@Md@CRBhBf@vCb@`F@pH_@P@D@NLhCnC\\f@n@b@n@RlB\\pGb@^e@JE`Ad@|Bz@R]Pe@`AgFZiAjFqL","Color":"993333","hasRunTwo":1,"startPoint":{"Latitude":51.481666,"Longitude":-0.008446},"endPoint":{"Latitude":51.417378,"Longitude":0.103197}}]}


