{"Stops" : [{"StopId":13872,"StopCode":"BP096","PointLetter":"H","StopName":"Barking Station","Latitude":51.539172,"Longitude":0.081304,"Action":0},{"StopId":14045,"StopCode":"LE142","PointLetter":"C","StopName":"Barking Town Centre","Latitude":51.538055,"Longitude":0.078384,"Action":0},{"StopId":13723,"StopCode":"BP4825","PointLetter":"B","StopName":"Broadway Theatre","Latitude":51.535947,"Longitude":0.077062,"Action":0},{"StopId":13781,"StopCode":"LE173","PointLetter":"U","StopName":"Sunningdale Avenue","Latitude":51.536051,"Longitude":0.081839,"Action":0},{"StopId":14562,"StopCode":"18393","PointLetter":"V","StopName":"King Edwards Road","Latitude":51.534238,"Longitude":0.085217,"Action":0},{"StopId":13986,"StopCode":"4285","PointLetter":"D","StopName":"Blake Avenue","Latitude":51.535651,"Longitude":0.095231,"Action":0},{"StopId":13771,"StopCode":"20500","PointLetter":"E","StopName":"Tudor Road","Latitude":51.535768,"Longitude":0.100284,"Action":0},{"StopId":14846,"StopCode":"18391","PointLetter":"F","StopName":"Rippleside Cemetery","Latitude":51.535341,"Longitude":0.103508,"Action":0},{"StopId":13930,"StopCode":"20521","PointLetter":"G","StopName":"Barking Industrial Park","Latitude":51.533588,"Longitude":0.106023,"Action":0},{"StopId":3318,"StopCode":"BP4382","PointLetter":"N","StopName":"Lodge Avenue","Latitude":51.532981,"Longitude":0.110739,"Action":0},{"StopId":3486,"StopCode":"18340","PointLetter":"K","StopName":"Renwick Road","Latitude":51.532441,"Longitude":0.118774,"Action":0},{"StopId":3581,"StopCode":"20880","PointLetter":"L","StopName":"Castle Green Recreation Ground","Latitude":51.531757,"Longitude":0.123746,"Action":0},{"StopId":3471,"StopCode":"4283","PointLetter":"M","StopName":"Gale Street / Goresbrook Leisure Centre","Latitude":51.531866,"Longitude":0.129619,"Action":0},{"StopId":3485,"StopCode":"18341","PointLetter":"N","StopName":"Dagenham Leisure Park","Latitude":51.531715,"Longitude":0.133966,"Action":0},{"StopId":3542,"StopCode":"4303","PointLetter":"P","StopName":"Pooles Lane","Latitude":51.531041,"Longitude":0.138895,"Action":0},{"StopId":3457,"StopCode":"1709","PointLetter":"C","StopName":"Chequers Lane / Merrilands Retail Park","Latitude":51.531615,"Longitude":0.146362,"Action":0},{"StopId":15065,"StopCode":"27950","PointLetter":"D","StopName":"Ballards Road / Princess Parade","Latitude":51.529824,"Longitude":0.153804,"Action":0},{"StopId":15063,"StopCode":"25125","PointLetter":"E","StopName":"Ford's East Entrance","Latitude":51.527560,"Longitude":0.159565,"Action":0},{"StopId":15053,"StopCode":"14718","PointLetter":"MB","StopName":"Thames Avenue","Latitude":51.526872,"Longitude":0.163223,"Action":0},{"StopId":15080,"StopCode":"BP4668","PointLetter":"MF","StopName":"South Street","Latitude":51.526026,"Longitude":0.167162,"Action":0},{"StopId":14054,"StopCode":"BP4562","PointLetter":"J","StopName":"Askwith Road","Latitude":51.525125,"Longitude":0.171618,"Action":0},{"StopId":14468,"StopCode":"8510","PointLetter":"K","StopName":"Spencer Road","Latitude":51.524580,"Longitude":0.174331,"Action":0},{"StopId":13933,"StopCode":"18387","PointLetter":"L","StopName":"Betterton Road","Latitude":51.524088,"Longitude":0.176628,"Action":0},{"StopId":14736,"StopCode":"26560","PointLetter":"Z","StopName":"Manor Way","Latitude":51.522889,"Longitude":0.182121,"Action":0},{"StopId":14578,"StopCode":"18384","PointLetter":"H","StopName":"Dovers Corner","Latitude":51.522037,"Longitude":0.186319,"Action":0},{"StopId":13941,"StopCode":"BP776","PointLetter":"F","StopName":"Rainham Tesco","Latitude":51.519479,"Longitude":0.190910,"Action":0},{"StopId":14542,"StopCode":"18447","PointLetter":"E","StopName":"Rainham Village School","Latitude":51.519539,"Longitude":0.196808,"Action":0},{"StopId":14700,"StopCode":"18449","PointLetter":"","StopName":"Brights Avenue","Latitude":51.519955,"Longitude":0.201513,"Action":0},{"StopId":14316,"StopCode":"9755","PointLetter":"","StopName":"New Road","Latitude":51.520468,"Longitude":0.204824,"Action":0},{"StopId":14866,"StopCode":"20806","PointLetter":"","StopName":"Allen Road","Latitude":51.521378,"Longitude":0.210000,"Action":0},{"StopId":14935,"StopCode":"9757","PointLetter":"","StopName":"King Edward Avenue","Latitude":51.522231,"Longitude":0.213861,"Action":0},{"StopId":14403,"StopCode":"18451","PointLetter":"","StopName":"Acer Avenue","Latitude":51.522830,"Longitude":0.217854,"Action":0},{"StopId":14148,"StopCode":"33791","PointLetter":"","StopName":"Lake Avenue","Latitude":51.525727,"Longitude":0.217318,"Action":0},{"StopId":13935,"StopCode":"33793","PointLetter":"","StopName":"King Edward Avenue","Latitude":51.525768,"Longitude":0.213716,"Action":0},{"StopId":14904,"StopCode":"33794","PointLetter":"","StopName":"Briscoe Road","Latitude":51.526367,"Longitude":0.211553,"Action":0},{"StopId":13870,"StopCode":"33795","PointLetter":"","StopName":"Abbey Wood Lane","Latitude":51.529369,"Longitude":0.213501,"Action":0}], "Routes" : [{"Id":7054,"Route":"287","From":"Barking Station","Towards":"Abbey Wood Lane","Run":"1","IsDay":1,"encodedLevels":"PAE@BE?A?CAF??BAGBCB@H@BAD?C?C@FBA?BF?C@B@EA??ACAAF@ABBC@FA@BB?B@D?AAF?AC?@@B?AD@??E@??C@B?AH?B@C@AC@F@??B@BE@BD@B@@@F@?A?D?@CB@@F@B?AB@B@IA@?B@D@BA@D@@C@@HA@G@AGA?AF@AB?P","encodedPoints":"yiqyH{}NzBzCr@xAk@zAkBrGLx@HTNPHBNCZe@jDwBDTBl@h@vGf@rDNTf@JnFqBzBiAhA_AdBeBNUNgAHcAIe@eAuCqB_FgBYEE_@oAASDa@r@g@~BuC|EyGDa@@gAIwEq@cFwBiN}@}HKmBSeHKkLBy@GoFa@cKCkEPuCAkMD_@Z{@zA{CjCgD`DcGTw@l@wDJiBCcEDwE^EDw@H_DRcOFuKNsDToDxCu^^}IBgBA}Bg@mS@gAJkDJaB`@}L?kBIqGNsKJ{AZsCJo@jAoKKa@Cc@k@cFMaBKaE?mGc@aJc@yKDwAFu@VaB|EeRfDuLz@qBfAqBpCcHb@sB`@wCvEy`@bCsRnEe_@jCwSfDsVtB{Ph@aA~@{IvAiPXiHDiEE}@O_AGGSwABMHWDINKFCP@FBNLz@pAvBXzB~@DJf@JHGXo@B]JaA`@oBFBHPVw@De@B}@Ea@EIIKRqCZmI_@}BkA{LkBo_@u@eKy@kNwBcQwA}JmCcTYmC]gFe@iImE|@wK|Cm@JZpFj@jMz@rJiAZeDj@uJzAcAAMUMaAm@oGCgA?eB","Color":"993333","hasRunTwo":1,"startPoint":{"Latitude":51.539659,"Longitude":0.081748},"endPoint":{"Latitude":51.529311,"Longitude":0.213703}}]}


