{"Stops" : [{"StopId":21183,"StopCode":"BP5555","PointLetter":"A","StopName":"Elmers End Interchange","Latitude":51.398462,"Longitude":-0.048453,"Action":0},{"StopId":8736,"StopCode":"18796","PointLetter":"F","StopName":"Elmers End / Tesco","Latitude":51.396648,"Longitude":-0.048587,"Action":0},{"StopId":8641,"StopCode":"18798","PointLetter":"","StopName":"The Glade","Latitude":51.392355,"Longitude":-0.052162,"Action":0},{"StopId":8757,"StopCode":"20502","PointLetter":"","StopName":"Longheath Gardens","Latitude":51.391187,"Longitude":-0.053319,"Action":0},{"StopId":8737,"StopCode":"18799","PointLetter":"","StopName":"Arena Tram Stop","Latitude":51.389840,"Longitude":-0.055604,"Action":0},{"StopId":8738,"StopCode":"18801","PointLetter":"","StopName":"Longhurst Road","Latitude":51.387346,"Longitude":-0.060309,"Action":0},{"StopId":6879,"StopCode":"17338","PointLetter":"WQ","StopName":"Ashburton Park","Latitude":51.384868,"Longitude":-0.063762,"Action":0},{"StopId":6877,"StopCode":"17340","PointLetter":"AK","StopName":"Brockenhurst Road","Latitude":51.383168,"Longitude":-0.065932,"Action":0},{"StopId":6931,"StopCode":"9812","PointLetter":"AL","StopName":"Parkview Road","Latitude":51.381896,"Longitude":-0.069464,"Action":0},{"StopId":7071,"StopCode":"17342","PointLetter":"AM","StopName":"Addiscombe Tram Stop","Latitude":51.380443,"Longitude":-0.072428,"Action":0},{"StopId":6875,"StopCode":"17344","PointLetter":"AN","StopName":"Ashburton Road","Latitude":51.379271,"Longitude":-0.075021,"Action":0},{"StopId":7164,"StopCode":"27837","PointLetter":"AP","StopName":"Havelock Road","Latitude":51.378630,"Longitude":-0.078122,"Action":0},{"StopId":7102,"StopCode":"1846","PointLetter":"AQ","StopName":"Canning Road","Latitude":51.379409,"Longitude":-0.082301,"Action":0},{"StopId":7103,"StopCode":"1847","PointLetter":"","StopName":"Morland Road","Latitude":51.379996,"Longitude":-0.085208,"Action":0},{"StopId":8697,"StopCode":"16631","PointLetter":"","StopName":"Davidson Road","Latitude":51.380778,"Longitude":-0.089041,"Action":0},{"StopId":8779,"StopCode":"16630","PointLetter":"","StopName":"Lansdowne Road","Latitude":51.381501,"Longitude":-0.092589,"Action":0},{"StopId":8781,"StopCode":"16628","PointLetter":"S","StopName":"Spurgeon's Bridge","Latitude":51.382133,"Longitude":-0.097708,"Action":0},{"StopId":8264,"StopCode":"6542","PointLetter":"T","StopName":"Bedford Hall","Latitude":51.381035,"Longitude":-0.099319,"Action":0},{"StopId":6946,"StopCode":"R0852","PointLetter":"B4","StopName":"West Croydon Bus Station","Latitude":51.379251,"Longitude":-0.101348,"Action":0},{"StopId":7344,"StopCode":"809","PointLetter":"WS","StopName":"West Croydon Station","Latitude":51.378381,"Longitude":-0.103108,"Action":0},{"StopId":7227,"StopCode":"15112","PointLetter":"LD","StopName":"Montague Road","Latitude":51.380443,"Longitude":-0.104977,"Action":0},{"StopId":7128,"StopCode":"4417","PointLetter":"LE","StopName":"Sumner Road","Latitude":51.383772,"Longitude":-0.108404,"Action":0},{"StopId":7242,"StopCode":"15110","PointLetter":"LF","StopName":"Broad Green Avenue","Latitude":51.385269,"Longitude":-0.109822,"Action":0},{"StopId":6980,"StopCode":"25866","PointLetter":"B","StopName":"Canterbury Road","Latitude":51.386899,"Longitude":-0.111020,"Action":0},{"StopId":7228,"StopCode":"15108","PointLetter":"D","StopName":"Croydon University Hospital","Latitude":51.390283,"Longitude":-0.112318,"Action":0},{"StopId":8755,"StopCode":"26981","PointLetter":"J","StopName":"Thornton Heath Pond","Latitude":51.393099,"Longitude":-0.114113,"Action":0},{"StopId":8802,"StopCode":"12916","PointLetter":"K","StopName":"Thornton Heath Pond / Fairlands Avenue","Latitude":51.392909,"Longitude":-0.115702,"Action":0},{"StopId":8711,"StopCode":"7709","PointLetter":"R","StopName":"Croydon Crematorium","Latitude":51.391243,"Longitude":-0.118890,"Action":0},{"StopId":8745,"StopCode":"17376","PointLetter":"S","StopName":"Peall Road","Latitude":51.389323,"Longitude":-0.120866,"Action":0},{"StopId":8720,"StopCode":"7710","PointLetter":"T","StopName":"Lombard Roundabout","Latitude":51.386931,"Longitude":-0.120849,"Action":0},{"StopId":8670,"StopCode":"17379","PointLetter":"","StopName":"Drake Road","Latitude":51.384092,"Longitude":-0.121066,"Action":0},{"StopId":8702,"StopCode":"17380","PointLetter":"A","StopName":"Newman Road","Latitude":51.381784,"Longitude":-0.120672,"Action":0},{"StopId":8668,"StopCode":"17382","PointLetter":"B","StopName":"Purley Way / Beddington Farm Road","Latitude":51.376996,"Longitude":-0.119891,"Action":0},{"StopId":8812,"StopCode":"BP3911","PointLetter":"C","StopName":"Waddon Marsh Tram Stop","Latitude":51.376664,"Longitude":-0.118209,"Action":0},{"StopId":8686,"StopCode":"SL35","PointLetter":"D","StopName":"The Purley Way Centre","Latitude":51.374670,"Longitude":-0.117845,"Action":0},{"StopId":9897,"StopCode":"14975","PointLetter":"E","StopName":"Commerce Way","Latitude":51.373877,"Longitude":-0.118309,"Action":0},{"StopId":8498,"StopCode":"9660","PointLetter":"SV","StopName":"Purley Way / Waddon Road","Latitude":51.370602,"Longitude":-0.117035,"Action":0},{"StopId":8722,"StopCode":"7715","PointLetter":"SU","StopName":"Alton Road","Latitude":51.368742,"Longitude":-0.118246,"Action":0},{"StopId":8712,"StopCode":"7717","PointLetter":"SD","StopName":"Waddon Station","Latitude":51.366015,"Longitude":-0.118157,"Action":0},{"StopId":8718,"StopCode":"37258","PointLetter":"SE","StopName":"Waddon Leisure Centre, Fiveways","Latitude":51.364198,"Longitude":-0.118088,"Action":0},{"StopId":8650,"StopCode":"17466","PointLetter":"SF","StopName":"Coldharbour Road","Latitude":51.362333,"Longitude":-0.117891,"Action":0},{"StopId":8654,"StopCode":"25582","PointLetter":"","StopName":"Imperial Way","Latitude":51.359028,"Longitude":-0.117050,"Action":0},{"StopId":8614,"StopCode":"BP2468","PointLetter":"","StopName":"The Colonnades / Croydon Airport","Latitude":51.356207,"Longitude":-0.114997,"Action":0},{"StopId":8782,"StopCode":"25586","PointLetter":"","StopName":"Battle Of Britain War Memorial","Latitude":51.351261,"Longitude":-0.114999,"Action":0},{"StopId":8777,"StopCode":"25673","PointLetter":"X","StopName":"Edgehill Road","Latitude":51.345123,"Longitude":-0.114088,"Action":0},{"StopId":8803,"StopCode":"R0719","PointLetter":"C","StopName":"Purley Cross","Latitude":51.339238,"Longitude":-0.117258,"Action":0},{"StopId":8422,"StopCode":"4401","PointLetter":"M","StopName":"Purley Station  / Purley High Street","Latitude":51.337772,"Longitude":-0.116141,"Action":0},{"StopId":8618,"StopCode":"BP445","PointLetter":"Z2","StopName":"Purley Station","Latitude":51.338786,"Longitude":-0.113213,"Action":0}], "Routes" : [{"Id":5521,"Route":"289","From":"Elmers End Interchange","Towards":"Purley Station","Run":"1","IsDay":1,"encodedLevels":"PAABAF@@C@AD?@C@@BEB@BC?@?G??CA@EBAAF@C?@?C?CABC@AI?AC?@GBAD??D?@E?D@C@H@@@CA@C@F@B?@@D@@ABHAB??AAK@BCAC?AD?@D?@?BDAGABBEAE?G?AB@@BAFABBC@F?BD@F?B?@?@AD??B@AAF?A@@@C@ACF@@AAB@G?@AAFAB?B@C@BFAB?D@AD?AG?BAAADA@F?A?C@B?FD?B@F@AC?P","encodedPoints":"swuxHbqHIY`@aC@eB\\{BNGFBLl@`AzBNFbALfAd@JNPr@xA|Dv@~@TL|E|ExA~Bx@l@dBCZB~Cv@f@T|A`ArAbANP~J|SVb@~EdK~ChIzAbFZn@nDbFxDpE|CrCvCpD~CpIjAnDFtAAd@FnAFV|A`DvE~Jt@zD`ApDbEdK\\vALx@d@dF@rAEhCWdDwJlx@cB~NeGjf@Tj@`Ad@`@d@DP?d@J~CjAb@zA^jGnBBZdAlG`Bt@pBdA`@nAFf@ORE?sKpJwHlGmG~GwE`GIRoDrCyGzEaAj@sAf@oBf@aI~BCE{FdBcAl@mDdCcDlBqBl@_Av@GVXr@zChHh@dAxEzKf@fBvD`It@`@XBbH@zOMb@JNYLIVAFBPX|@|@vAKtBMrGi@zGq@hGGhAt@lA^d@KzDyCzCg@rCiBBYoAsHh@a@dFeDVPJLh@pAh@tBJz@LXT`@b@Pt@O`Bw@nCwB~B{@nBOlCa@fBBPBlAf@pCvBjFnEf@EL@DCLOJERErCcBz@SZAj@BbGJTO^EJHpDFrAQrFy@fIuA@Ij@C|I_Bb@Qh@k@zBeA`GaACg@Qu@S_DKAGo@BGPCFJBJAPKRh@|F~Ci@rF[^@vAJlKgB|ASvQwA~LgAjGKt@HvAh@^Rn@f@d@j@nB`DfBnBd@T|EjBbFtA\\Af@M`Ae@r@u@f@Ip@e@l@y@hA_CBQKIKAY@iCKeBg@qAm@[WMSkByDfAsANWj@qBJOJEND^XPXbE~H","Color":"993333","hasRunTwo":1,"startPoint":{"Latitude":51.398509,"Longitude":-0.048978},"endPoint":{"Latitude":51.338010,"Longitude":-0.114618}}]}


