{"Stops" : [{"StopId":224,"StopCode":"BP1795","PointLetter":"G","StopName":"Lordship Lane","Latitude":51.596633,"Longitude":-0.109218,"Action":0},{"StopId":151,"StopCode":"BP2778","PointLetter":"KA","StopName":"Brampton Park Road","Latitude":51.593139,"Longitude":-0.106663,"Action":0},{"StopId":896,"StopCode":"375","PointLetter":"M","StopName":"Turnpike Lane Station","Latitude":51.590842,"Longitude":-0.103640,"Action":0},{"StopId":914,"StopCode":"9986","PointLetter":"Z","StopName":"West Green Road","Latitude":51.588065,"Longitude":-0.101533,"Action":0},{"StopId":892,"StopCode":"804","PointLetter":"H","StopName":"Falkland Road","Latitude":51.586306,"Longitude":-0.100610,"Action":0},{"StopId":881,"StopCode":"9988","PointLetter":"","StopName":"Beresford Road","Latitude":51.584389,"Longitude":-0.100011,"Action":0},{"StopId":912,"StopCode":"1042","PointLetter":"HK","StopName":"St Ann's Road","Latitude":51.582982,"Longitude":-0.099738,"Action":0},{"StopId":880,"StopCode":"9990","PointLetter":"HN","StopName":"Mattison Road","Latitude":51.580556,"Longitude":-0.099276,"Action":0},{"StopId":900,"StopCode":"4838","PointLetter":"HO","StopName":"Harringay Green Lanes Station","Latitude":51.577859,"Longitude":-0.098768,"Action":0},{"StopId":878,"StopCode":"9992","PointLetter":"HB","StopName":"Endymion Road","Latitude":51.575974,"Longitude":-0.098428,"Action":0},{"StopId":917,"StopCode":"BP842","PointLetter":"HC","StopName":"Rowley Gardens","Latitude":51.573004,"Longitude":-0.097210,"Action":0},{"StopId":1117,"StopCode":"BP4608","PointLetter":"B","StopName":"Manor House Station","Latitude":51.572006,"Longitude":-0.096660,"Action":0},{"StopId":765,"StopCode":"BP199","PointLetter":"R","StopName":"Portland Rise","Latitude":51.569713,"Longitude":-0.097160,"Action":0},{"StopId":769,"StopCode":"1609","PointLetter":"P","StopName":"Alexandra Grove","Latitude":51.567379,"Longitude":-0.100229,"Action":0},{"StopId":826,"StopCode":"377","PointLetter":"M","StopName":"Finsbury Park / Blackstock Road","Latitude":51.565254,"Longitude":-0.103391,"Action":0},{"StopId":789,"StopCode":"BP3912","PointLetter":"S","StopName":"Finsbury Park Station","Latitude":51.563799,"Longitude":-0.106265,"Action":0},{"StopId":802,"StopCode":"3513","PointLetter":"W","StopName":"Isledon Road","Latitude":51.562196,"Longitude":-0.107803,"Action":0},{"StopId":797,"StopCode":"33320","PointLetter":"NM","StopName":"Berriman Road","Latitude":51.559657,"Longitude":-0.110376,"Action":0},{"StopId":778,"StopCode":"33321","PointLetter":"NN","StopName":"Hornsey Road / Sobell Centre","Latitude":51.557999,"Longitude":-0.111829,"Action":0},{"StopId":933,"StopCode":"33322","PointLetter":"R","StopName":"Holloway Road","Latitude":51.556387,"Longitude":-0.116195,"Action":0},{"StopId":932,"StopCode":"33325","PointLetter":"X","StopName":"Caledonian Road","Latitude":51.555359,"Longitude":-0.118791,"Action":0},{"StopId":943,"StopCode":"33326","PointLetter":"M","StopName":"Hillmarton Road / H M Prison Holloway","Latitude":51.553665,"Longitude":-0.122539,"Action":0},{"StopId":939,"StopCode":"1286","PointLetter":"A","StopName":"Hilldrop Road","Latitude":51.550950,"Longitude":-0.126516,"Action":0},{"StopId":926,"StopCode":"4714","PointLetter":"B","StopName":"Brecknock Road","Latitude":51.549370,"Longitude":-0.128370,"Action":0},{"StopId":929,"StopCode":"1284","PointLetter":"C","StopName":"Camden Park Road","Latitude":51.547063,"Longitude":-0.131450,"Action":0},{"StopId":941,"StopCode":"1691","PointLetter":"D","StopName":"Sandall Road","Latitude":51.545990,"Longitude":-0.132965,"Action":0},{"StopId":924,"StopCode":"1282","PointLetter":"","StopName":"Murray Street","Latitude":51.544134,"Longitude":-0.135565,"Action":0},{"StopId":928,"StopCode":"331","PointLetter":"F","StopName":"Camden Road Station","Latitude":51.542317,"Longitude":-0.137817,"Action":0},{"StopId":935,"StopCode":"324","PointLetter":"S","StopName":"Camden Town Station","Latitude":51.539801,"Longitude":-0.141323,"Action":0},{"StopId":1210,"StopCode":"33260","PointLetter":"V","StopName":"Pratt Street","Latitude":51.537164,"Longitude":-0.139498,"Action":0},{"StopId":1209,"StopCode":"33291","PointLetter":"C","StopName":"Mornington Crescent Station","Latitude":51.533445,"Longitude":-0.138598,"Action":0},{"StopId":1157,"StopCode":"1277","PointLetter":"W","StopName":"Silverdale","Latitude":51.530747,"Longitude":-0.138578,"Action":0},{"StopId":1229,"StopCode":"1275","PointLetter":"","StopName":"Robert Street","Latitude":51.528795,"Longitude":-0.138542,"Action":0},{"StopId":1206,"StopCode":"33549","PointLetter":"R","StopName":"Warren Street Station / Euston Road","Latitude":51.525708,"Longitude":-0.138409,"Action":0},{"StopId":254,"StopCode":"29674","PointLetter":"N","StopName":"University College Hospital","Latitude":51.524105,"Longitude":-0.134308,"Action":0},{"StopId":150,"StopCode":"BP2167","PointLetter":"C","StopName":"Torrington Place","Latitude":51.522916,"Longitude":-0.133016,"Action":0},{"StopId":76,"StopCode":"29676","PointLetter":"D","StopName":"Chenies Street","Latitude":51.521213,"Longitude":-0.131168,"Action":0},{"StopId":181,"StopCode":"29735","PointLetter":"R","StopName":"Great Russell Street","Latitude":51.518395,"Longitude":-0.128098,"Action":0},{"StopId":18027,"StopCode":"BP5283","PointLetter":"S","StopName":"Tottenham Court Road Station","Latitude":51.515550,"Longitude":-0.128460,"Action":0},{"StopId":558,"StopCode":"R0085","PointLetter":"D","StopName":"Cambridge Circus","Latitude":51.513520,"Longitude":-0.129177,"Action":0},{"StopId":608,"StopCode":"7824","PointLetter":"J","StopName":"Leicester Square Station","Latitude":51.511618,"Longitude":-0.128304,"Action":0},{"StopId":595,"StopCode":"BP3536","PointLetter":"K","StopName":"St Martin's Place","Latitude":51.509858,"Longitude":-0.127901,"Action":0},{"StopId":588,"StopCode":"143","PointLetter":"D","StopName":"Trafalgar Square / Charing Cross Stn","Latitude":51.508189,"Longitude":-0.127047,"Action":0}], "Routes" : [{"Id":6702,"Route":"29","From":"Lordship Lane","Towards":"Trafalgar Square / Charing Cross Stn","Run":"1","IsDay":1,"encodedLevels":"P@CABE@A?ADC@A@G@A@B@EA??E@@B@J@AADBAFD?AAABD??B@F@@A?B?@BC?F@??@@CADADA@J@A??AG?B@@C?F?B@EAB?E?DA@B?G@C@@D@F?CA?G?B?CG@B@@DAAABDB?A?D?@P","encodedPoints":"{p|yHxlTx@s@~@g@TBbGcAxAo@~@eAvBuCnEcH~@_B|DsFtHkIv@i@nB_ARMT]^OXAnFgCfHqCx@W~AY~c@gFbLkAzHs@bBQx@WbAk@|KcFjGiDh@c@^n@Nf@hT`[dDzFlHfNvDbKjCvFvDl@r@`Aj@n@zCfCpF|F^dAvApAT?bAERB`@PRTP^x@vDNPpB~IxA`GRj@`BrDNf@HzA|Ond@tArDbC|CLFHHDNbEjF~MpP~]rj@jEdGhFtEhE|EvApEhBhEHDNAhA_A`HwGr@k@tFgFrGqFF?HH^`CDv@XzBNDr@F^@HA^c@`EaDLNXjDPJNBTAnJmBz@LfEGjN@\\A|Da@Z[d@QDe@\\aA@UA_@uAyHlHcIt`@sc@xEgEpGgFp@e@Ff@j@dIArCCVpBtFjBk@xGqCHBp@YlGiBTFNGVHxBCfAUdAu@JMn@_BTUNGNEzCUfCO","Color":"993333","hasRunTwo":1,"startPoint":{"Latitude":51.597101,"Longitude":-0.109727},"endPoint":{"Latitude":51.507794,"Longitude":-0.127130}},{"Id":8144,"Route":"N29","From":"Little Park Gardens","Towards":"Trafalgar Square / Charing Cross Stn","Run":"1","IsDay":0,"encodedLevels":"P?@?BD@CC@CHAD@??B?DAF@A@F?BD@@ABF@CAAI?ACAE@B@CA@EA?D@AGB?@ADA?BB?@A?CADABF?AC?ABAH?BAA?@AB?@DB?F@ADB@AE@C???D@CAAI?AC?B@@B@DABF@A?ADC@A@G@A@B@EA??E@@B@J@AADBAFD?AAABD??B@F@@A?B?@BC?F@??@@CADADA@J@A??AG?B@@C?F?B@EAB?E?DA@B?G@C@@D@F?CA?G?B?CG@B@@DAAABDB?A?D?@P","encodedPoints":"ilgzHhyOBXANCXIP\\b@R_@d@yAh@c[QuA[mGx@[zAa@~BWJLHVDVb@pA\\LR@fRiB\\Bf@TXRxCvCnF~EdA{Av@aAnC_C\\UpBq@rCwAh@m@bDeAdBpAr@ZpC|@pAPrFfBnAbAj@j@~B~CfAzCh@hCR`CLjCFvEC`BUdGg@pFi@bMfA`AtB|CHPL\\Hv@XhEb@n@zA`@lDr@~AVxErAXl@LMB?HR@HEREBLz@HN|BzB|DzCpCzAzPjHfEpCX`@`A`B|CjGd@nARv@p@`D`BxEd@h@tAfA~FjEt@^JEHDHPLDFEXT`DhBlBpA|DhDt@pAbBhCdCTzHlAvCLhDFfCI`Ha@bBHnDh@rGpAbCt@rE~AlBr@vGxBlHHrAHt@Nn@`@|AVv@U`H}B`LqClAq@nCcBXYLe@FIx@s@~@g@TBbGcAxAo@~@eAvBuCnEcH~@_B|DsFtHkIv@i@nB_ARMT]^OXAnFgCfHqCx@W~AY~c@gFbLkAzHs@bBQx@WbAk@|KcFjGiDh@c@^n@Nf@hT`[dDzFlHfNvDbKjCvFvDl@r@`Aj@n@zCfCpF|F^dAvApAT?bAERB`@PRTP^x@vDNPpB~IxA`GRj@`BrDNf@HzA|Ond@tArDbC|CLFHHDNbEjF~MpP~]rj@jEdGhFtEhE|EvApEhBhEHDNAhA_A`HwGr@k@tFgFrGqFF?HH^`CDv@XzBNDr@F^@HA^c@`EaDLNXjDPJNBTAnJmBz@LfEGjN@\\A|Da@Z[d@QDe@\\aA@UA_@uAyHlHcIt`@sc@xEgEpGgFp@e@Ff@j@dIArCCVpBtFjBk@xGqCHBp@YlGiBTFNGVHxBCfAUdAu@JMn@_BTUNGNEzCUfCO","Color":"663366","hasRunTwo":1,"startPoint":{"Latitude":51.652693,"Longitude":-0.086121},"endPoint":{"Latitude":51.507794,"Longitude":-0.127130}}]}


