{"Stops" : [{"StopId":13653,"StopCode":"BP5100","PointLetter":"B","StopName":"Arnos Grove Station","Latitude":51.615991,"Longitude":-0.133734,"Action":0},{"StopId":944,"StopCode":"BP4848","PointLetter":"C","StopName":"Ravenscraig Road","Latitude":51.616233,"Longitude":-0.135934,"Action":0},{"StopId":1017,"StopCode":"15423","PointLetter":"D","StopName":"Betstyle Circus","Latitude":51.616243,"Longitude":-0.139430,"Action":0},{"StopId":1176,"StopCode":"29699","PointLetter":"F","StopName":"Betstyle Road","Latitude":51.618203,"Longitude":-0.139985,"Action":0},{"StopId":1194,"StopCode":"29701","PointLetter":"","StopName":"Brookdale","Latitude":51.619913,"Longitude":-0.137806,"Action":0},{"StopId":1263,"StopCode":"17779","PointLetter":"U","StopName":"Ye Olde Cherry Tree","Latitude":51.625315,"Longitude":-0.124654,"Action":0},{"StopId":1425,"StopCode":"17777","PointLetter":"V","StopName":"Meadway","Latitude":51.627287,"Longitude":-0.125974,"Action":0},{"StopId":1333,"StopCode":"17775","PointLetter":"A","StopName":"Southgate College","Latitude":51.630591,"Longitude":-0.127918,"Action":0},{"StopId":1273,"StopCode":"994","PointLetter":"G","StopName":"Southgate Station","Latitude":51.632458,"Longitude":-0.128203,"Action":0},{"StopId":1382,"StopCode":"17772","PointLetter":"M","StopName":"Southgate Police Station","Latitude":51.633327,"Longitude":-0.131433,"Action":0},{"StopId":1370,"StopCode":"19262","PointLetter":"N","StopName":"Osidge Jimi School","Latitude":51.634106,"Longitude":-0.133496,"Action":0},{"StopId":1364,"StopCode":"17770","PointLetter":"S","StopName":"Avenue Road","Latitude":51.636196,"Longitude":-0.137688,"Action":0},{"StopId":1487,"StopCode":"19264","PointLetter":"T","StopName":"Monkfrith Way","Latitude":51.638041,"Longitude":-0.140604,"Action":0},{"StopId":1275,"StopCode":"17768","PointLetter":"U","StopName":"Cat Hill Campus","Latitude":51.641361,"Longitude":-0.144139,"Action":0},{"StopId":1442,"StopCode":"17767","PointLetter":"K","StopName":"Bramley Road","Latitude":51.644541,"Longitude":-0.146206,"Action":0},{"StopId":1486,"StopCode":"17764","PointLetter":"C","StopName":"Freston Gardens","Latitude":51.648242,"Longitude":-0.147674,"Action":0},{"StopId":1327,"StopCode":"17762","PointLetter":"A","StopName":"Cockfosters Station","Latitude":51.651688,"Longitude":-0.150078,"Action":0},{"StopId":1391,"StopCode":"R0419","PointLetter":"","StopName":"Trent Country Park","Latitude":51.655704,"Longitude":-0.152676,"Action":0},{"StopId":1428,"StopCode":"19279","PointLetter":"","StopName":"Coombehurst Close","Latitude":51.659726,"Longitude":-0.154002,"Action":0},{"StopId":1267,"StopCode":"16916","PointLetter":"","StopName":"Green Oak Place","Latitude":51.662329,"Longitude":-0.154821,"Action":0},{"StopId":1402,"StopCode":"16920","PointLetter":"C","StopName":"Beech Hill","Latitude":51.667372,"Longitude":-0.157610,"Action":0},{"StopId":1481,"StopCode":"16921","PointLetter":"","StopName":"Waggon Road","Latitude":51.671896,"Longitude":-0.161071,"Action":0},{"StopId":1455,"StopCode":"16923","PointLetter":"","StopName":"Slopers Pond Farm","Latitude":51.674262,"Longitude":-0.162291,"Action":0},{"StopId":1396,"StopCode":"OC20","PointLetter":"","StopName":"Stagg Hill","Latitude":51.684827,"Longitude":-0.169691,"Action":0},{"StopId":1368,"StopCode":"OC01","PointLetter":"","StopName":"Park Avenue","Latitude":51.689235,"Longitude":-0.174446,"Action":0},{"StopId":1427,"StopCode":"OC02","PointLetter":"","StopName":"Potters Bar Lion","Latitude":51.691366,"Longitude":-0.177298,"Action":0},{"StopId":3714,"StopCode":"OC03","PointLetter":"","StopName":"Potters Bar Tesco","Latitude":51.692781,"Longitude":-0.182117,"Action":0},{"StopId":1279,"StopCode":"OC04","PointLetter":"","StopName":"Darkes Lane","Latitude":51.694689,"Longitude":-0.192777,"Action":0},{"StopId":21186,"StopCode":"OC35","PointLetter":"C","StopName":"Potters Bar Station","Latitude":51.697648,"Longitude":-0.192168,"Action":0},{"StopId":1465,"StopCode":"OC06","PointLetter":"","StopName":"Laurel Avenue","Latitude":51.697959,"Longitude":-0.198363,"Action":0},{"StopId":9158,"StopCode":"OC27","PointLetter":"","StopName":"Cranborne Road Triangle","Latitude":51.699835,"Longitude":-0.204019,"Action":0},{"StopId":9030,"StopCode":"OC31","PointLetter":"","StopName":"Cranborne Road","Latitude":51.704999,"Longitude":-0.202469,"Action":0},{"StopId":1413,"StopCode":"OC30","PointLetter":"","StopName":"Cranborne Road Industrial Estate","Latitude":51.706386,"Longitude":-0.201401,"Action":0}], "Routes" : [{"Id":8817,"Route":"298","From":"Arnos Grove Station","Towards":"Cranborne Road Industrial Estate","Run":"1","IsDay":1,"encodedLevels":"PBC@@CB@?C?B@H@B@AAACA?C?AE@C?@CBG?A@ACA?AD?C@??HA?BD?FCADAADB@IB@E?@B@FAC?@AHACA@E@A?@D@D?AAFB?DB?CAAE?B@AD?C@D@AH?AC@AC@BD?A@D??BG?@C?D@?B@DA?@FAG@D??A?D??A?G@D@G?@C?BE@C?@B?HA@C?DFAD@B?G?F?@D@P","encodedPoints":"_g`zHn~Xa@pMm@vECdDJxB?tKk@nD@|@H^@TGXKX[NS?_@IGIIa@SU]U_@CYW@aAIe@EG_C{CgFaH{LqQmALKACEGU?i@{EkBqDcCG[Gq@AwEDgAMoGc@oGGc@a@cBg@uE?[|@oPKi@O_@C?CI]`@uEhBODyCtBcEpE_FfFqDh@iCKiGw@[VCZe@`Ak@BIEUe@{@vI[pAoBnMM`@c@hAgGjMwDhLcBjE{AhD_BjC_@`@aFjGaJlKyBlBoI`FgIhEwAvAKXW`@KDSCOKGK_A_@cCx@}IfCuFbDeEhC_[dS_A^m[dHmANyEd@mBd@m@ZqGlDaCr@{AJsDlAcCxA}FvDeGvE{A|AuEpDsInEyDfB}e@`RwH|Cw@f@}E~DuDpDg@r@yBvD}BjCaBbAo@Vw@v@Ov@Wn@{F|HMFQB[CgBLgBjCiK~NyFhIeEzHIXKhA}AfWOnQEdAGt@Ij@M`@_C~DQj@KfA@x@Bj@IfF}C`O_A~CkDcDuFsEEJCRWt@MNOHEAIOCIAWDY^a@^KdG~EjDbDO\\e@tA{C~GkDhE_ApAkAbCgA~CsAzEOv@o@dFs@vDsB~Gw@|BUPm@NQA_JoAoGaAeJ}Fk@lDcArCWZo@`@e@JiARUyBu@qJDGFEnCu@XF|CpB","Color":"993333","hasRunTwo":1,"startPoint":{"Latitude":51.616004,"Longitude":-0.133035},"endPoint":{"Latitude":51.705431,"Longitude":-0.202127}}]}


