{"Stops" : [{"StopId":16274,"StopCode":"BP2636","PointLetter":"Z","StopName":"Wordsworth Health Centre","Latitude":51.541511,"Longitude":0.049640,"Action":0},{"StopId":15662,"StopCode":"9065","PointLetter":"T","StopName":"Plashet School","Latitude":51.540156,"Longitude":0.049940,"Action":0},{"StopId":14768,"StopCode":"2899","PointLetter":"A","StopName":"East Ham Station","Latitude":51.539659,"Longitude":0.051115,"Action":0},{"StopId":14071,"StopCode":"BP132","PointLetter":"N","StopName":"Bendish Road","Latitude":51.537562,"Longitude":0.051727,"Action":0},{"StopId":15469,"StopCode":"BP758","PointLetter":"K","StopName":"Ron Leighton Way","Latitude":51.535371,"Longitude":0.051542,"Action":0},{"StopId":15417,"StopCode":"20770","PointLetter":"S","StopName":"High Street North","Latitude":51.532965,"Longitude":0.053366,"Action":0},{"StopId":15698,"StopCode":"BP781","PointLetter":"O","StopName":"Newham Town Hall","Latitude":51.533270,"Longitude":0.055470,"Action":0},{"StopId":15393,"StopCode":"1897","PointLetter":"X","StopName":"Altmore Avenue","Latitude":51.533639,"Longitude":0.058544,"Action":0},{"StopId":16148,"StopCode":"BP4643","PointLetter":"J","StopName":"Langdon Road","Latitude":51.533454,"Longitude":0.062890,"Action":0},{"StopId":16284,"StopCode":"BP4645","PointLetter":"K","StopName":"Sussex Road","Latitude":51.531998,"Longitude":0.063386,"Action":0},{"StopId":16283,"StopCode":"BP4647","PointLetter":"L","StopName":"Langdon Crescent","Latitude":51.530297,"Longitude":0.063973,"Action":0},{"StopId":16594,"StopCode":"BP5093","PointLetter":"","StopName":"Flanders Road","Latitude":51.529411,"Longitude":0.064264,"Action":0},{"StopId":16499,"StopCode":"BP4650","PointLetter":"","StopName":"Brighton Road","Latitude":51.527102,"Longitude":0.066697,"Action":0},{"StopId":15949,"StopCode":"BP4652","PointLetter":"J","StopName":"Blaney Crescent","Latitude":51.525640,"Longitude":0.067467,"Action":0},{"StopId":16498,"StopCode":"BP4654","PointLetter":"","StopName":"Wolsey Avenue","Latitude":51.525051,"Longitude":0.066201,"Action":0},{"StopId":15950,"StopCode":"BP4655","PointLetter":"","StopName":"Charlemont Road","Latitude":51.526215,"Longitude":0.063918,"Action":0},{"StopId":15952,"StopCode":"BP4659","PointLetter":"S","StopName":"Becket Avenue","Latitude":51.526652,"Longitude":0.061083,"Action":0},{"StopId":15951,"StopCode":"BP4657","PointLetter":"T","StopName":"Vicarage Primary School","Latitude":51.525729,"Longitude":0.057798,"Action":0},{"StopId":14829,"StopCode":"2886","PointLetter":"BK","StopName":"Vicarage Lane","Latitude":51.525193,"Longitude":0.057096,"Action":0},{"StopId":14416,"StopCode":"2884","PointLetter":"BL","StopName":"East Ham Fire Station","Latitude":51.523656,"Longitude":0.057589,"Action":0},{"StopId":14179,"StopCode":"2882","PointLetter":"BM","StopName":"Lonsdale Avenue","Latitude":51.521256,"Longitude":0.058504,"Action":0},{"StopId":3528,"StopCode":"2880","PointLetter":"BN","StopName":"Albatross Close","Latitude":51.518894,"Longitude":0.059868,"Action":0},{"StopId":3514,"StopCode":"2878","PointLetter":"E","StopName":"Tollgate Road","Latitude":51.516257,"Longitude":0.060527,"Action":0},{"StopId":19592,"StopCode":"BP5196","PointLetter":"C","StopName":"Beckton Bus Station","Latitude":51.514308,"Longitude":0.059373,"Action":0},{"StopId":15759,"StopCode":"LE216","PointLetter":"BP","StopName":"Kingsford Way","Latitude":51.516000,"Longitude":0.055154,"Action":0},{"StopId":15644,"StopCode":"36834","PointLetter":"BQ","StopName":"Swallow Street","Latitude":51.516130,"Longitude":0.052868,"Action":0},{"StopId":15720,"StopCode":"36832","PointLetter":"BR","StopName":"Dove Approach","Latitude":51.516392,"Longitude":0.046668,"Action":0},{"StopId":15719,"StopCode":"36829","PointLetter":"CR","StopName":"Beckton District Park","Latitude":51.516549,"Longitude":0.043288,"Action":0},{"StopId":16413,"StopCode":"FC25","PointLetter":"","StopName":"Fulmer Road","Latitude":51.514011,"Longitude":0.042396,"Action":0},{"StopId":16414,"StopCode":"FC23","PointLetter":"","StopName":"Will Thorne Pavilion","Latitude":51.511785,"Longitude":0.046274,"Action":0},{"StopId":16273,"StopCode":"FC36","PointLetter":"A","StopName":"Jake Russell Walk","Latitude":51.510163,"Longitude":0.047498,"Action":0},{"StopId":16071,"StopCode":"BP861","PointLetter":"T","StopName":"Prince Regent Bus Station","Latitude":51.509503,"Longitude":0.035306,"Action":0},{"StopId":16451,"StopCode":"8123","PointLetter":"L","StopName":"Victoria Dock Road","Latitude":51.510229,"Longitude":0.033883,"Action":0},{"StopId":16192,"StopCode":"35038","PointLetter":"P","StopName":"Tree Road","Latitude":51.512372,"Longitude":0.032177,"Action":0},{"StopId":15945,"StopCode":"BP4485","PointLetter":"S","StopName":"Newham Way","Latitude":51.515177,"Longitude":0.031696,"Action":0},{"StopId":15686,"StopCode":"8113","PointLetter":"T","StopName":"Bennett Road","Latitude":51.519451,"Longitude":0.032059,"Action":0},{"StopId":15612,"StopCode":"8109","PointLetter":"HE","StopName":"Newham University Hospital","Latitude":51.522765,"Longitude":0.030794,"Action":0},{"StopId":15439,"StopCode":"8107","PointLetter":"GT","StopName":"Wigston Road","Latitude":51.523708,"Longitude":0.030360,"Action":0},{"StopId":15619,"StopCode":"747","PointLetter":"BA","StopName":"Plaistow / Prince Regent Lane","Latitude":51.525534,"Longitude":0.028769,"Action":0},{"StopId":15414,"StopCode":"1882","PointLetter":"BB","StopName":"Plaistow Police Station","Latitude":51.523944,"Longitude":0.026075,"Action":0},{"StopId":15716,"StopCode":"4891","PointLetter":"BC","StopName":"Balaam Street","Latitude":51.522560,"Longitude":0.023404,"Action":0},{"StopId":15365,"StopCode":"BP3756","PointLetter":"BD","StopName":"Chargeable Lane","Latitude":51.521462,"Longitude":0.020876,"Action":0},{"StopId":15388,"StopCode":"1878","PointLetter":"BE","StopName":"Croydon Road","Latitude":51.520351,"Longitude":0.018535,"Action":0},{"StopId":15560,"StopCode":"BP665","PointLetter":"P","StopName":"Rokeby School","Latitude":51.518887,"Longitude":0.015256,"Action":0},{"StopId":14371,"StopCode":"20773","PointLetter":"M","StopName":"Hermit Road","Latitude":51.517666,"Longitude":0.012550,"Action":0},{"StopId":13982,"StopCode":"8153","PointLetter":"N","StopName":"Rathbone Market","Latitude":51.516420,"Longitude":0.009699,"Action":0},{"StopId":14825,"StopCode":"BP2284","PointLetter":"A","StopName":"Canning Town Station","Latitude":51.514576,"Longitude":0.008133,"Action":0}], "Routes" : [{"Id":1009,"Route":"300","From":"Wordsworth Health Centre","Towards":"Canning Town Station","Run":"1","IsDay":1,"encodedLevels":"PGEA?AFB@@E@B@A@E?@C?AC@H@A@@?C?B@G@?BE@IAF@C@B??B?F@CC?@CHD@?D?@ADB@@JAF@ABCBBF?DBF?AAAA@@@AA?AAA@HCA?C?D@BFAB?@@BFA@C?@BBA?B@H?AB?@B?C@A?@DA@C?AB?D@@AD@I@?B@B@F?AC?@?CBF@DB@?AI?DBBB???EC@BD?B?@?BAEAP","encodedPoints":"wvqyHszH`BtPpFmBOaBCaA?_CUsEjC}@bFu@tBe@tC[\\fB^bA?IP@?FTBXIt@c@|DyA`ADzBBd@Oz@]lEeCO_@MuA@]i@eGcAgOm@eKMaD]cKHaA@mCtCk@lKiCtIoBdBs@hLqO~@cA|BHfDr@ChBGZcArCeEvJ{@lAa@`@GLIh@Cr@@l@z@tNr@bFLJt@`@LRz@rI`JcCV?PHnBZjBeAhG}CfCiAhGmD`QoCb@AhDa@jEYEl@~@`KI@KEIQ]sBYeDR]E_B{DV[De@`@c@tB]~Og@bS]tUHRKRQzJF@C`@E?O~IJJ?JKLIjDOdL?nDd@p@\\Yl@WTCf@A|EJz@O`Bi@~CkBh@u@fAeCPs@Nu@ViB`B_H|@yAbAy@h@Yp@UVClAExABjA[J]HGNGTDJJDFJZ?b@EXEJUjCG`HMhHF~BDjMFLFX?VE^KPQLW@_@CKKO\\I\\?f@\\fDNlEAdDc@~Ew@xGuAn@aBfAe@RkCrBkAhAqErCc@N}@PQ@yCAcAGsEc@uB[_Fe@u@VaIKsFv@mEv@aBhAyGnC[HuI`DoBbAdHzNrGjMlAfDv@nEnH`R`GvPTt@zNvb@tDpKd@`@PWh@c@VBXj@J^BL?b@Ad@ENTNFl@VAhBgB","Color":"993333","hasRunTwo":1,"startPoint":{"Latitude":51.541729,"Longitude":0.050503},"endPoint":{"Latitude":51.514468,"Longitude":0.008118}}]}


