{"Stops" : [{"StopId":8998,"StopCode":"R0790","PointLetter":"D","StopName":"Edgware Bus Station","Latitude":51.612948,"Longitude":-0.274613,"Action":0},{"StopId":2359,"StopCode":"3193","PointLetter":"A","StopName":"Edgware Station","Latitude":51.614773,"Longitude":-0.275801,"Action":0},{"StopId":2377,"StopCode":"11772","PointLetter":"N","StopName":"Broadfields Avenue","Latitude":51.618248,"Longitude":-0.271784,"Action":0},{"StopId":2386,"StopCode":"15643","PointLetter":"A","StopName":"Highview Gardens","Latitude":51.617847,"Longitude":-0.266541,"Action":0},{"StopId":2354,"StopCode":"15641","PointLetter":"B","StopName":"Cloister Gardens","Latitude":51.617193,"Longitude":-0.261279,"Action":0},{"StopId":12787,"StopCode":"15099","PointLetter":"J","StopName":"Sefton Avenue","Latitude":51.615312,"Longitude":-0.261119,"Action":0},{"StopId":12788,"StopCode":"15097","PointLetter":"K","StopName":"Laneside","Latitude":51.614185,"Longitude":-0.263994,"Action":0},{"StopId":12792,"StopCode":"BP600","PointLetter":"L","StopName":"Dryfield Road","Latitude":51.611544,"Longitude":-0.265365,"Action":0},{"StopId":9844,"StopCode":"15094","PointLetter":"M","StopName":"Ruddock Close","Latitude":51.608917,"Longitude":-0.265321,"Action":0},{"StopId":9646,"StopCode":"15093","PointLetter":"Q","StopName":"Norwich Walk","Latitude":51.606279,"Longitude":-0.264439,"Action":0},{"StopId":15840,"StopCode":"BP5114","PointLetter":"V","StopName":"Park Croft","Latitude":51.603524,"Longitude":-0.262999,"Action":0},{"StopId":7923,"StopCode":"9421","PointLetter":"S","StopName":"Burnt Oak Station","Latitude":51.602038,"Longitude":-0.264701,"Action":0},{"StopId":7873,"StopCode":"15091","PointLetter":"F","StopName":"Oak Gardens","Latitude":51.599910,"Longitude":-0.267930,"Action":0},{"StopId":9649,"StopCode":"15089","PointLetter":"E","StopName":"Holyrood Gardens","Latitude":51.598029,"Longitude":-0.270298,"Action":0},{"StopId":9651,"StopCode":"15087","PointLetter":"RA","StopName":"Carlisle Road","Latitude":51.594314,"Longitude":-0.267738,"Action":0},{"StopId":12797,"StopCode":"BP631","PointLetter":"RL","StopName":"Bacon Lane","Latitude":51.590742,"Longitude":-0.271888,"Action":0},{"StopId":12791,"StopCode":"BP630","PointLetter":"","StopName":"Eton Grove","Latitude":51.589791,"Longitude":-0.276298,"Action":0},{"StopId":2327,"StopCode":"26525","PointLetter":"D","StopName":"Kingsbury Circle","Latitude":51.586130,"Longitude":-0.282399,"Action":0}], "Routes" : [{"Id":7232,"Route":"305","From":"Edgware Bus Station","Towards":"Kingsbury Circle","Run":"1","IsDay":1,"encodedLevels":"PABF?BAABE?ACAB@G?C@B@D@B?@D@@E?BI@?D@B??AD?B?GAAD?A@@BAC??@F?A?B?DB?G??DCB@@H??DB@?@HA@C@@C??B?F@F?CP","encodedPoints":"er_zHtnt@_BpE?j@_BpEWU]WCHgE{@qAKgCkAQa@o@kB}A{CgAsAyBkBu@iAI]My@YsDNoBLqFGgDDwF~@oBb@aBNq@J_ADmAAuBKcA]}IFy@Jg@|D{Il@NpClAr@^AFt@hDNXrA`E`AzC`CvFZXLHZH|APhFd@fCAbI`@DMHIHAJHXAVUlCo@P@NDf@B`@Ax@S~Ai@bEqBt@[hF{Ap@OpBeA`@i@|@wAnBhEvFjMzCtGr@u@fEbMlBrD^n@LHRAvAYzDm@~HsFdFqEtFuFzCqC\\SPzEj@pG^pC^xBpBfIrCrMHl@nAxNrA`Nd@vB\\jAdDlKxBdGbAI~AUtEaC","Color":"993333","hasRunTwo":1,"startPoint":{"Latitude":51.612674,"Longitude":-0.273865},"endPoint":{"Latitude":51.585749,"Longitude":-0.282305}}]}


