{"Stops" : [{"StopId":7190,"StopCode":"9791","PointLetter":"GD","StopName":"South Croydon Bus Garage","Latitude":51.355300,"Longitude":-0.097827,"Action":0},{"StopId":7305,"StopCode":"1390","PointLetter":"GE","StopName":"Haling Park Road","Latitude":51.358502,"Longitude":-0.097839,"Action":0},{"StopId":7225,"StopCode":"15116","PointLetter":"GF","StopName":"Upland Road","Latitude":51.360565,"Longitude":-0.098069,"Action":0},{"StopId":6992,"StopCode":"19220","PointLetter":"M","StopName":"Swan & Sugar Loaf","Latitude":51.364464,"Longitude":-0.098942,"Action":0},{"StopId":6925,"StopCode":"20450","PointLetter":"T","StopName":"Spice's Yard","Latitude":51.366518,"Longitude":-0.099130,"Action":0},{"StopId":6861,"StopCode":"25868","PointLetter":"KT","StopName":"Croydon Flyover","Latitude":51.370337,"Longitude":-0.100078,"Action":0},{"StopId":7087,"StopCode":"BP1550","PointLetter":"KM","StopName":"Croydon Library","Latitude":51.372412,"Longitude":-0.098829,"Action":0},{"StopId":7135,"StopCode":"33309","PointLetter":"KC","StopName":"Fairfield Halls","Latitude":51.372802,"Longitude":-0.096844,"Action":0},{"StopId":6785,"StopCode":"26842","PointLetter":"E4","StopName":"Cherry Orchard Road / East Croydon Stn","Latitude":51.375707,"Longitude":-0.091321,"Action":0},{"StopId":6874,"StopCode":"17346","PointLetter":"E9","StopName":"Cross Road","Latitude":51.378041,"Longitude":-0.091037,"Action":0},{"StopId":7339,"StopCode":"17345","PointLetter":"","StopName":"Leslie Grove","Latitude":51.379829,"Longitude":-0.087672,"Action":0},{"StopId":6774,"StopCode":"17857","PointLetter":"","StopName":"Gordon Crescent","Latitude":51.382336,"Longitude":-0.082020,"Action":0},{"StopId":7039,"StopCode":"9808","PointLetter":"","StopName":"Northway Road","Latitude":51.384349,"Longitude":-0.075900,"Action":0},{"StopId":7277,"StopCode":"17856","PointLetter":"WA","StopName":"Blackhorse Lane","Latitude":51.385537,"Longitude":-0.072703,"Action":0},{"StopId":6854,"StopCode":"17854","PointLetter":"WD","StopName":"Woodside Green","Latitude":51.387537,"Longitude":-0.069111,"Action":0},{"StopId":6776,"StopCode":"17852","PointLetter":"WH","StopName":"Spring Lane","Latitude":51.388938,"Longitude":-0.066839,"Action":0},{"StopId":6990,"StopCode":"17334","PointLetter":"WJ","StopName":"Croydon Arena","Latitude":51.390859,"Longitude":-0.065493,"Action":0},{"StopId":6881,"StopCode":"17333","PointLetter":"","StopName":"South Norwood Swimming Pool","Latitude":51.392831,"Longitude":-0.066775,"Action":0},{"StopId":6883,"StopCode":"17331","PointLetter":"","StopName":"Harrington Road","Latitude":51.395868,"Longitude":-0.068789,"Action":0},{"StopId":6901,"StopCode":"18728","PointLetter":"R","StopName":"Doyle Road","Latitude":51.397536,"Longitude":-0.072299,"Action":0},{"StopId":7143,"StopCode":"33130","PointLetter":"S","StopName":"Norwood Junction Station","Latitude":51.397591,"Longitude":-0.074036,"Action":0}], "Routes" : [{"Id":11449,"Route":"312","From":"South Croydon Bus Garage","Towards":"Norwood Junction Station","Run":"1","IsDay":1,"encodedLevels":"PC@?EABC??BDA?@C@IBAFAB?E?A?C@AF?C?ACADB@C@G@@B?D@C?@?E??DB@ACAE@D?@C??AB@@I?@B@CAF@?EDFACP","encodedPoints":"qgmxHbbReWBuCLwIn@_Jl@mDr@KVkE`AsBBqD?y@AyF`@eGjBqAVeGrAmA\\{@ByBMCqJU}HM]iBCoCR{@VIFAeAUqEo@wIs@uH@q@Lm@B}FoAAK@KLITGt@UR}@RWKoAZ_Gx@a@W[_@e@gAQo@qF_MmEuIGEBu@Eq@CEgFqO{DsK[cA]gBaD{Qm@wC}@wCq@qA_BgCo@iBiBwN[kAkAcAsDsDOg@WaBaAcDu@}AoBkDcEcIIe@UUKW{@eAO@WLuEdAwAbAeEdCuGjByFrBY\\qFxKwFtKpEjHkA~BQFqDaBoAkB","Color":"993333","hasRunTwo":1,"startPoint":{"Latitude":51.354977,"Longitude":-0.097779},"endPoint":{"Latitude":51.398567,"Longitude":-0.073127}}]}


