{"Stops" : [{"StopId":2396,"StopCode":"34018","PointLetter":"D","StopName":"Chingford Station","Latitude":51.633492,"Longitude":0.009854,"Action":0},{"StopId":2411,"StopCode":"1135","PointLetter":"E","StopName":"Station Road / Chingford Station","Latitude":51.633035,"Longitude":0.008678,"Action":0},{"StopId":2418,"StopCode":"15985","PointLetter":"G","StopName":"Stanley Road","Latitude":51.631781,"Longitude":0.005242,"Action":0},{"StopId":2407,"StopCode":"26995","PointLetter":"J","StopName":"Station Road / The Green","Latitude":51.630890,"Longitude":0.002139,"Action":0},{"StopId":2408,"StopCode":"19970","PointLetter":"N","StopName":"Chingford Police Station","Latitude":51.631636,"Longitude":-0.001556,"Action":0},{"StopId":2415,"StopCode":"19972","PointLetter":"U","StopName":"Pole Hill Road","Latitude":51.632170,"Longitude":-0.005449,"Action":0},{"StopId":2420,"StopCode":"19974","PointLetter":"D","StopName":"Hawksmouth","Latitude":51.633523,"Longitude":-0.008872,"Action":0},{"StopId":3665,"StopCode":"19976","PointLetter":"E","StopName":"Kings Head Hill / Sewardstone Road","Latitude":51.635842,"Longitude":-0.012513,"Action":0},{"StopId":3674,"StopCode":"20253","PointLetter":"F","StopName":"King George Sailing Club","Latitude":51.637299,"Longitude":-0.016814,"Action":0},{"StopId":3675,"StopCode":"20251","PointLetter":"PJ","StopName":"Wharf Road","Latitude":51.641625,"Longitude":-0.028549,"Action":0},{"StopId":3672,"StopCode":"33174","PointLetter":"PK","StopName":"Ponders End Station","Latitude":51.645492,"Longitude":-0.034466,"Action":0},{"StopId":3676,"StopCode":"20243","PointLetter":"PL","StopName":"Scotland Green Road","Latitude":51.647083,"Longitude":-0.038690,"Action":0},{"StopId":3677,"StopCode":"20242","PointLetter":"E","StopName":"Ponders End High Street","Latitude":51.648353,"Longitude":-0.045284,"Action":0},{"StopId":2029,"StopCode":"13525","PointLetter":"D","StopName":"Glyn Road","Latitude":51.648508,"Longitude":-0.048111,"Action":0},{"StopId":1975,"StopCode":"13523","PointLetter":"B","StopName":"Enfield Bus Garage / Southbury Station","Latitude":51.648643,"Longitude":-0.050288,"Action":0},{"StopId":1924,"StopCode":"14817","PointLetter":"T","StopName":"Crown Road","Latitude":51.649005,"Longitude":-0.055274,"Action":0},{"StopId":2014,"StopCode":"4541","PointLetter":"H","StopName":"Baird Road","Latitude":51.649076,"Longitude":-0.057945,"Action":0},{"StopId":1966,"StopCode":"3491","PointLetter":"J","StopName":"Great Cambridge Road","Latitude":51.649761,"Longitude":-0.061848,"Action":0},{"StopId":1976,"StopCode":"15871","PointLetter":"K","StopName":"Percival Road","Latitude":51.650511,"Longitude":-0.065314,"Action":0},{"StopId":1988,"StopCode":"4005","PointLetter":"L","StopName":"Cecil Avenue","Latitude":51.651380,"Longitude":-0.069513,"Action":0},{"StopId":2022,"StopCode":"15873","PointLetter":"","StopName":"Ladysmith Road","Latitude":51.652189,"Longitude":-0.074928,"Action":0},{"StopId":1977,"StopCode":"20414","PointLetter":"N","StopName":"Enfield Town Station","Latitude":51.652344,"Longitude":-0.078362,"Action":0},{"StopId":3256,"StopCode":"BP4975","PointLetter":"W","StopName":"Enfield Town / Cecil Road","Latitude":51.650604,"Longitude":-0.081428,"Action":0},{"StopId":1953,"StopCode":"16800","PointLetter":"CA","StopName":"Enfield Chase Station","Latitude":51.653548,"Longitude":-0.091004,"Action":0},{"StopId":3680,"StopCode":"30877","PointLetter":"P","StopName":"Slades Hill","Latitude":51.654877,"Longitude":-0.098119,"Action":0},{"StopId":3715,"StopCode":"5974","PointLetter":"R","StopName":"Culloden Road","Latitude":51.657411,"Longitude":-0.099097,"Action":0},{"StopId":3693,"StopCode":"5976","PointLetter":"S","StopName":"Drapers Road","Latitude":51.660678,"Longitude":-0.101462,"Action":0},{"StopId":3649,"StopCode":"70336","PointLetter":"C","StopName":"Harefield Close","Latitude":51.664994,"Longitude":-0.102005,"Action":0},{"StopId":11036,"StopCode":"70337","PointLetter":"A","StopName":"Chase Farm Hospital","Latitude":51.664615,"Longitude":-0.104696,"Action":0},{"StopId":3735,"StopCode":"18884","PointLetter":"Q","StopName":"Hadley Road","Latitude":51.665570,"Longitude":-0.107042,"Action":0},{"StopId":3685,"StopCode":"5978","PointLetter":"","StopName":"Roundhedge Way","Latitude":51.667182,"Longitude":-0.109968,"Action":0},{"StopId":3684,"StopCode":"5980","PointLetter":"","StopName":"Botany Bay / The Robin Hood","Latitude":51.676099,"Longitude":-0.126014,"Action":0},{"StopId":3618,"StopCode":"22191","PointLetter":"","StopName":"Holly Cottage","Latitude":51.678688,"Longitude":-0.131606,"Action":0},{"StopId":3706,"StopCode":"5982","PointLetter":"","StopName":"Windrush","Latitude":51.681031,"Longitude":-0.138743,"Action":0},{"StopId":3718,"StopCode":"5984","PointLetter":"","StopName":"St John's Senior School","Latitude":51.680863,"Longitude":-0.147979,"Action":0},{"StopId":3682,"StopCode":"5986","PointLetter":"","StopName":"New Cottage Farm","Latitude":51.684222,"Longitude":-0.159748,"Action":0},{"StopId":1368,"StopCode":"OC01","PointLetter":"","StopName":"Park Avenue","Latitude":51.689235,"Longitude":-0.174446,"Action":0},{"StopId":1427,"StopCode":"OC02","PointLetter":"","StopName":"Potters Bar Lion","Latitude":51.691366,"Longitude":-0.177298,"Action":0},{"StopId":3714,"StopCode":"OC03","PointLetter":"","StopName":"Potters Bar Tesco","Latitude":51.692781,"Longitude":-0.182117,"Action":0},{"StopId":1279,"StopCode":"OC04","PointLetter":"","StopName":"Darkes Lane","Latitude":51.694689,"Longitude":-0.192777,"Action":0},{"StopId":1367,"StopCode":"OC05","PointLetter":"D","StopName":"Potters Bar Station","Latitude":51.697488,"Longitude":-0.191697,"Action":0},{"StopId":1465,"StopCode":"OC06","PointLetter":"","StopName":"Laurel Avenue","Latitude":51.697959,"Longitude":-0.198363,"Action":0},{"StopId":3601,"StopCode":"OC07","PointLetter":"","StopName":"Dugdale Hill Lane","Latitude":51.698461,"Longitude":-0.201252,"Action":0},{"StopId":3600,"StopCode":"OC09","PointLetter":"","StopName":"Elmfield Road","Latitude":51.694506,"Longitude":-0.203680,"Action":0},{"StopId":3653,"StopCode":"OC10","PointLetter":"","StopName":"Santers Lane","Latitude":51.692777,"Longitude":-0.205283,"Action":0},{"StopId":3595,"StopCode":"OC11","PointLetter":"","StopName":"Dame Alice Owens School","Latitude":51.691537,"Longitude":-0.207126,"Action":0}], "Routes" : [{"Id":6500,"Route":"313","From":"Chingford Station","Towards":"Dame Alice Owens School","Run":"1","IsDay":1,"encodedLevels":"P?@CB?BBAGAAD?@C?AE@A@CAE?B?B@F?AEA@@CA?A@BA?HA@DAA@@BB@A@@EAAA?AF@BAE@AC?F@B@F@B?AC@@?E?AD@FA?B@I?@AE@?@GA@@F@DH@?DACAF?AB@ACB@D@A?HA?A??BFBD@D?A@F@B?DBACF@@?CA@?C@?GAADA@D??BG?@C@?E?A@DA?@DAG@D??A?D??A?H@D@G?@C?BD@B?G?A@ADBE@AAC@P","encodedPoints":"osczHk~@CRKZW`@tEtO|CdM~@hETpC`B`HbAdCgAvA_CdEUv@Il@SnC{@fPq@tEcB~J_@vA_@~@o@bAm@p@wFzHqDfHg@xAWjAeChJiAbGiEbTkLne@}CfLe@`Ac@r@aRhXQ`@G^@b@I\\KRUDG?]`@Q\\yE~NkDjLEVaDjVm@bFaAhKQvHFRAh@Kb@e@zJ{@f_@GpCG|MCn@If@[fJk@pFm@fCeA`I{Fje@qBtOu@fIWtJSnDIxJRvJx@[zAa@~BWJLHVL~AVhJFxEEzGMz@MVMXi@n@}@lBMf@OzBMp@GJMHKBiEXgC|EOd@OnAI~UIfMG~Dc@hKw@XeGjBwLjDyG`C}AtA}IpJwKdLQHGa@HcA@iEJgGgB[Y@{E~CPpAn@rCbAnFy@`AC^l@f@Ph@WZaDpFwEdJsExKeG|MiDpGaDrFgDbEs@dAgLzWoExJq@~A_CjGc@jBqEbMaChH{@rCmIhWqE|Me@lCgBnUIpEr@nIr@fMCfFEhB_A``@OjCWdCYlBeAvEa@zAoCrH{CvGwE|IeGtREx@@fBVxU@bDJhA`@n@^|@BNDp@CXG`@Wn@wC~DcChCcAGi@FUHgBjCiK~NyFhIeEzHIXKhA}AfWOnQEdAGt@Ij@M`@_C~DQj@KfA@x@Bj@IfF}C`O_A~CkDcDuFsEEJCRWt@MNOHEAIOCIAWDY^a@^KdG~EjDbDO\\e@tA{C~GkDhE_ApAkAbCgA~CsAzEOv@o@dFLHv@p@`BtBVj@lApAtLlBfAh@v@`ApCxC`FtEhE|EXp@b@tB","Color":"993333","hasRunTwo":1,"startPoint":{"Latitude":51.633361,"Longitude":0.010142},"endPoint":{"Latitude":51.691467,"Longitude":-0.207481}}]}


