{"Stops" : [{"StopId":17835,"StopCode":"40168","PointLetter":"A","StopName":"Biggin Hill Valley","Latitude":51.310185,"Longitude":0.026474,"Action":0},{"StopId":16493,"StopCode":"R0664","PointLetter":"B","StopName":"Rosehill Road","Latitude":51.310038,"Longitude":0.027659,"Action":0},{"StopId":16238,"StopCode":"40169","PointLetter":"C","StopName":"Stock Hill","Latitude":51.312484,"Longitude":0.028728,"Action":0},{"StopId":16163,"StopCode":"40165","PointLetter":"V","StopName":"Biggin Hill Post Office","Latitude":51.310951,"Longitude":0.034687,"Action":0},{"StopId":16356,"StopCode":"40150","PointLetter":"W","StopName":"Maple Leaf Close","Latitude":51.312568,"Longitude":0.033739,"Action":0},{"StopId":16237,"StopCode":"40148","PointLetter":"A","StopName":"Biggin Hill / Black Horse","Latitude":51.316161,"Longitude":0.032937,"Action":0},{"StopId":16236,"StopCode":"40145","PointLetter":"B","StopName":"Main Road / Sunningvale Avenue","Latitude":51.322132,"Longitude":0.027274,"Action":0},{"StopId":16357,"StopCode":"40144","PointLetter":"C","StopName":"Main Road / Saltbox Hill","Latitude":51.325465,"Longitude":0.023301,"Action":0},{"StopId":17836,"StopCode":"40141","PointLetter":"D","StopName":"Hanbury Drive","Latitude":51.328711,"Longitude":0.023344,"Action":0},{"StopId":17837,"StopCode":"40140","PointLetter":"E","StopName":"Biggin Hill Airport / Passenger Terminal","Latitude":51.330754,"Longitude":0.026908,"Action":0},{"StopId":17789,"StopCode":"40135","PointLetter":"F","StopName":"Leaves Green / The Kings Arms","Latitude":51.336228,"Longitude":0.030179,"Action":0},{"StopId":17765,"StopCode":"40137","PointLetter":"G","StopName":"Leaves Green / Ashmore Lane","Latitude":51.339386,"Longitude":0.030649,"Action":0},{"StopId":17788,"StopCode":"40134","PointLetter":"","StopName":"Blackness Lane","Latitude":51.343611,"Longitude":0.032300,"Action":0},{"StopId":17487,"StopCode":"40132","PointLetter":"KH","StopName":"Keston Church","Latitude":51.348573,"Longitude":0.036066,"Action":0},{"StopId":17839,"StopCode":"40129","PointLetter":"WS","StopName":"Westerham Road / Heathfield Road","Latitude":51.354659,"Longitude":0.033592,"Action":0},{"StopId":17787,"StopCode":"40128","PointLetter":"WT","StopName":"Westerham Road / Keston Common","Latitude":51.356506,"Longitude":0.036518,"Action":0},{"StopId":17840,"StopCode":"40126","PointLetter":"WU","StopName":"Fishponds Road","Latitude":51.360076,"Longitude":0.038543,"Action":0},{"StopId":18019,"StopCode":"40124","PointLetter":"WV","StopName":"Rolinsden Way","Latitude":51.362766,"Longitude":0.039036,"Action":0},{"StopId":18017,"StopCode":"40122","PointLetter":"WX","StopName":"Westerham Road / The Keston Mark","Latitude":51.366581,"Longitude":0.038918,"Action":0},{"StopId":18260,"StopCode":"BP649","PointLetter":"WY","StopName":"Gravel Road","Latitude":51.370057,"Longitude":0.039116,"Action":0},{"StopId":18226,"StopCode":"40120","PointLetter":"","StopName":"Oakley Road / The Limes","Latitude":51.372716,"Longitude":0.039305,"Action":0},{"StopId":15704,"StopCode":"3923","PointLetter":"BS","StopName":"Bromley Common / Holy Trinity Church","Latitude":51.380118,"Longitude":0.041833,"Action":0},{"StopId":15395,"StopCode":"18199","PointLetter":"BT","StopName":"Bromley Common / Turpington Lane","Latitude":51.383487,"Longitude":0.039424,"Action":0},{"StopId":13525,"StopCode":"19773","PointLetter":"BU","StopName":"Bromley Common / The Crown","Latitude":51.389939,"Longitude":0.034522,"Action":0},{"StopId":13614,"StopCode":"18197","PointLetter":"BV","StopName":"Southlands Road","Latitude":51.392981,"Longitude":0.030229,"Action":0},{"StopId":13649,"StopCode":"3911","PointLetter":"","StopName":"Homesdale Road","Latitude":51.394666,"Longitude":0.026897,"Action":0},{"StopId":13642,"StopCode":"19277","PointLetter":"","StopName":"Bertha James Day Centre","Latitude":51.397058,"Longitude":0.022748,"Action":0},{"StopId":13648,"StopCode":"BP087","PointLetter":"H","StopName":"Cromwell Avenue","Latitude":51.398521,"Longitude":0.019247,"Action":0},{"StopId":13540,"StopCode":"14797","PointLetter":"A","StopName":"Bromley South Station","Latitude":51.400198,"Longitude":0.016905,"Action":0},{"StopId":13577,"StopCode":"BP041","PointLetter":"V","StopName":"Elmfield Road / The Glades","Latitude":51.402799,"Longitude":0.016761,"Action":0},{"StopId":13573,"StopCode":"BP054","PointLetter":"S","StopName":"Bromley Civic Centre","Latitude":51.404799,"Longitude":0.018660,"Action":0},{"StopId":13595,"StopCode":"40105","PointLetter":"P","StopName":"Bromley Town Hall","Latitude":51.406052,"Longitude":0.016918,"Action":0},{"StopId":13624,"StopCode":"R0558","PointLetter":"O","StopName":"Bromley / Market Square","Latitude":51.405629,"Longitude":0.014858,"Action":0},{"StopId":13575,"StopCode":"BP052","PointLetter":"LA","StopName":"Bromley / The Greyhound","Latitude":51.406363,"Longitude":0.012949,"Action":0},{"StopId":13616,"StopCode":"18195","PointLetter":"F","StopName":"Bromley / Magistrates Court","Latitude":51.407804,"Longitude":0.011229,"Action":0},{"StopId":13617,"StopCode":"18194","PointLetter":"","StopName":"Farwig Lane","Latitude":51.411253,"Longitude":0.009411,"Action":0},{"StopId":13596,"StopCode":"18192","PointLetter":"","StopName":"Warner Road","Latitude":51.413349,"Longitude":0.007792,"Action":0},{"StopId":13626,"StopCode":"3619","PointLetter":"DD","StopName":"Park Avenue","Latitude":51.416263,"Longitude":0.005173,"Action":0},{"StopId":13609,"StopCode":"27961","PointLetter":"DE","StopName":"Bromley Court Hotel","Latitude":51.417639,"Longitude":0.003061,"Action":0},{"StopId":13608,"StopCode":"18190","PointLetter":"DF","StopName":"Bromley Hill Cemetery","Latitude":51.419281,"Longitude":0.000659,"Action":0},{"StopId":13622,"StopCode":"4748","PointLetter":"DJ","StopName":"Ashgrove Road","Latitude":51.422231,"Longitude":-0.002578,"Action":0},{"StopId":12918,"StopCode":"26268","PointLetter":"DK","StopName":"Bromley Road / Downham Way","Latitude":51.424788,"Longitude":-0.004322,"Action":0},{"StopId":12953,"StopCode":"2005","PointLetter":"SU","StopName":"Old Bromley Road","Latitude":51.426107,"Longitude":-0.006782,"Action":0},{"StopId":12952,"StopCode":"4749","PointLetter":"SV","StopName":"Bromley Road / The Pond","Latitude":51.426725,"Longitude":-0.009833,"Action":0},{"StopId":12912,"StopCode":"BP661","PointLetter":"SW","StopName":"Southend Lane","Latitude":51.428925,"Longitude":-0.013895,"Action":0},{"StopId":12944,"StopCode":"7566","PointLetter":"BA","StopName":"Catford Police Station","Latitude":51.430978,"Longitude":-0.015633,"Action":0},{"StopId":12943,"StopCode":"1999","PointLetter":"BB","StopName":"Bellingham Road","Latitude":51.432582,"Longitude":-0.017391,"Action":0},{"StopId":10331,"StopCode":"33056","PointLetter":"BC","StopName":"Newquay Road","Latitude":51.436594,"Longitude":-0.018541,"Action":0},{"StopId":10229,"StopCode":"2127","PointLetter":"BD","StopName":"Inchmery Road","Latitude":51.438450,"Longitude":-0.019266,"Action":0},{"StopId":10280,"StopCode":"1995","PointLetter":"","StopName":"Bargery Road","Latitude":51.440542,"Longitude":-0.020687,"Action":0},{"StopId":12937,"StopCode":"14625","PointLetter":"W","StopName":"Bromley Road / Lewisham Town Hall","Latitude":51.443811,"Longitude":-0.020431,"Action":0},{"StopId":15989,"StopCode":"110","PointLetter":"T","StopName":"Catford Road / Lewisham Town Hall","Latitude":51.444756,"Longitude":-0.020994,"Action":0},{"StopId":18405,"StopCode":"40089","PointLetter":"AA","StopName":"Catford Bridge Station","Latitude":51.444738,"Longitude":-0.024189,"Action":0}], "Routes" : [{"Id":5770,"Route":"320","From":"Biggin Hill Valley","Towards":"Catford Bridge Station","Run":"1","IsDay":1,"encodedLevels":"P?A??A?DAE@GE@BG@??A@C?AE@?BIBE?@@CB?F@BBD@AC??@D@?AE?AI@CB?EA?@B@F?AC?@BE?C@@C@FACBABAF@A?B?E@BH@AA?F@B@DBA?HA?D?BE?BAC?BGAD??FAACAJ??B@?AA?DBGAB@@BAAE@D?@AH@C@AD?@F@B?A@B@AF??BG?CAB@E@AGAC@@AC?FAB@AB?EC?BGA?CAABEC@?HB@AE@CA@AC@DB?@FACA@@?F?A?BC?FCA?P","encodedPoints":"_nexH{~CPIHKDMF}@FSJQNIrFuA~@KnMbAtC\\l@_GqCw@mKqDyCgB?MJSFAZq@p@aCtDkLt@_Bd@y@~BkDDYAYEQeA_CkDjDyDhCm@NYBoE\\eHr@cF~@]N{@j@s@n@gArAqGfLaC|CeAl@U?oCtA}@x@wCvCcAv@iG`GyAvBqAtBu@pAwDdFcANk@JmC?gCk@i@YiBeAW][i@U}@Ga@Ci@eAaIUi@US{@g@}@a@cFeBi@I{AO_F]gCw@c@WmB}AeAuAi@eA{BgDgBw@q@QeEe@kDMwG?}F`@kATiAGc@Q]YqAyAeA{AiG}HcBmCyDqGaCwAmBaA{DkAi@B{@T{KvDSHONWn@Y~Aq@~HU|A}AtDSTWJO@e@Ky@k@}GaEiDaGaIuNkCmDw@a@u@WiCO_B_@gGqDkAw@eBi@gb@b@wGEeMe@yIS_Ng@_AMiBo@sCsAgLiHmFsCk@Xe@\\mNrI_LvHuD|BuDbCiGvEyGbEYNeEnDgFjGiBfC}BhE}AfDaF~LgC`G}B|EsEbIsBxEcC~GkEpKA`@Gj@}AnLQTYTiAf@UDmBQSJ]PgAz@qHbFOg@m@qEEe@A_CBk@FIM[OgAAoAe@?gAEwFCeIb@Dh@|@hQZJLb@R`B@h@EZk@xAwDbIgBxBk@\\}BfAsGhCUBqGzC}BbBcVzPuBzB_AxAgCdEmFzJeHxKeChDgBvBmDtDwEvC{KpG{A|Ao@nA{@nC}A|Fo@|DMpCcAbHe@tAkGbNQF_@p@yDnFiBx@oGrGe@p@}DrD{@TuAn@QE_C\\uBLeG~@aBn@iIzBuClAe@b@c@h@aDdC_BVoA?QKaIs@yIk@[GMAKFGJGRATElIX`Ed@tEaIp@q@AoDq@i@O","Color":"993333","hasRunTwo":1,"startPoint":{"Latitude":51.315048,"Longitude":0.025586},"endPoint":{"Latitude":51.447452,"Longitude":-0.024010}}]}


