{"Stops" : [{"StopId":6954,"StopCode":"BP2418","PointLetter":"D","StopName":"Crystal Palace Bus Station","Latitude":51.420426,"Longitude":-0.077995,"Action":0},{"StopId":7106,"StopCode":"13222","PointLetter":"G","StopName":"Westow Hill","Latitude":51.419018,"Longitude":-0.079363,"Action":0},{"StopId":7248,"StopCode":"BP3761","PointLetter":"H","StopName":"Westow Street","Latitude":51.417841,"Longitude":-0.082145,"Action":0},{"StopId":12500,"StopCode":"BP1705","PointLetter":"S","StopName":"Central Hill","Latitude":51.420251,"Longitude":-0.083266,"Action":0},{"StopId":12694,"StopCode":"BP1706","PointLetter":"T","StopName":"Highland Road","Latitude":51.422305,"Longitude":-0.083454,"Action":0},{"StopId":12768,"StopCode":"BP1707","PointLetter":"B","StopName":"Gipsy Hill Station","Latitude":51.425026,"Longitude":-0.083757,"Action":0},{"StopId":12693,"StopCode":"BP1708","PointLetter":"C","StopName":"Gipsy Hill / Gipsy Road","Latitude":51.427576,"Longitude":-0.085708,"Action":0},{"StopId":12692,"StopCode":"BP1709","PointLetter":"","StopName":"Oaks Avenue","Latitude":51.427155,"Longitude":-0.088041,"Action":0},{"StopId":12560,"StopCode":"BP1710","PointLetter":"Q","StopName":"Salter's Hill","Latitude":51.427184,"Longitude":-0.090946,"Action":0},{"StopId":20761,"StopCode":"HC129","PointLetter":"","StopName":"Hail & Ride Section","Latitude":51.434779,"Longitude":-0.093434,"Action":0},{"StopId":12784,"StopCode":"13273","PointLetter":"","StopName":"Martell Road","Latitude":51.434859,"Longitude":-0.095575,"Action":0},{"StopId":12769,"StopCode":"13271","PointLetter":"","StopName":"Robson Road","Latitude":51.434206,"Longitude":-0.099702,"Action":0},{"StopId":12595,"StopCode":"476","PointLetter":"R","StopName":"Robson Road / Norwood Road","Latitude":51.433726,"Longitude":-0.102830,"Action":0},{"StopId":6984,"StopCode":"26301","PointLetter":"N","StopName":"Norwood Road / Robson Road","Latitude":51.434075,"Longitude":-0.103823,"Action":0},{"StopId":6892,"StopCode":"26402","PointLetter":"K","StopName":"Lancaster Avenue","Latitude":51.436766,"Longitude":-0.105064,"Action":0},{"StopId":10827,"StopCode":"BP3388","PointLetter":"F","StopName":"Tulse Hill Station","Latitude":51.440725,"Longitude":-0.106296,"Action":0},{"StopId":8743,"StopCode":"13260","PointLetter":"B","StopName":"Thurlow Park Road","Latitude":51.442119,"Longitude":-0.105763,"Action":0},{"StopId":8742,"StopCode":"13258","PointLetter":"","StopName":"Deronda Road","Latitude":51.444481,"Longitude":-0.105003,"Action":0},{"StopId":10774,"StopCode":"26403","PointLetter":"Q","StopName":"Brockwell Park Gardens","Latitude":51.446574,"Longitude":-0.104845,"Action":0},{"StopId":8741,"StopCode":"13255","PointLetter":"A","StopName":"Rosendale Road","Latitude":51.449087,"Longitude":-0.101747,"Action":0},{"StopId":21134,"StopCode":"BP5534","PointLetter":"H","StopName":"Brockwell Park","Latitude":51.451542,"Longitude":-0.101214,"Action":0},{"StopId":8810,"StopCode":"437","PointLetter":"L","StopName":"Herne Hill Station","Latitude":51.452536,"Longitude":-0.103144,"Action":0},{"StopId":12780,"StopCode":"13335","PointLetter":"","StopName":"Regent Road","Latitude":51.454743,"Longitude":-0.103945,"Action":0},{"StopId":12638,"StopCode":"12930","PointLetter":"","StopName":"Effra Parade","Latitude":51.458211,"Longitude":-0.108753,"Action":0},{"StopId":12781,"StopCode":"13329","PointLetter":"","StopName":"Kellett Road","Latitude":51.460212,"Longitude":-0.110729,"Action":0},{"StopId":12726,"StopCode":"BP4618","PointLetter":"LA","StopName":"Brixton Station","Latitude":51.463093,"Longitude":-0.114310,"Action":0},{"StopId":7238,"StopCode":"421","PointLetter":"C","StopName":"Brixton Academy","Latitude":51.464976,"Longitude":-0.115039,"Action":0},{"StopId":6893,"StopCode":"26341","PointLetter":"","StopName":"Stansfield Road","Latitude":51.466566,"Longitude":-0.117205,"Action":0},{"StopId":12603,"StopCode":"BP4543","PointLetter":"","StopName":"Stockwell Green","Latitude":51.467967,"Longitude":-0.119868,"Action":0},{"StopId":12727,"StopCode":"BP4542","PointLetter":"","StopName":"Lambeth Hospital","Latitude":51.466411,"Longitude":-0.123762,"Action":0},{"StopId":12516,"StopCode":"BP4541","PointLetter":"Q","StopName":"Fenwick Place","Latitude":51.465419,"Longitude":-0.128122,"Action":0},{"StopId":11691,"StopCode":"BP2979","PointLetter":"D","StopName":"Clapham North Station","Latitude":51.464799,"Longitude":-0.129299,"Action":0},{"StopId":7340,"StopCode":"2157","PointLetter":"H","StopName":"St Luke's Avenue","Latitude":51.463235,"Longitude":-0.133826,"Action":0},{"StopId":21815,"StopCode":"BP5774","PointLetter":"B","StopName":"Nelson's Row","Latitude":51.462562,"Longitude":-0.135638,"Action":0},{"StopId":6981,"StopCode":"25990","PointLetter":"K","StopName":"Clapham Common Station","Latitude":51.461514,"Longitude":-0.138171,"Action":0},{"StopId":8689,"StopCode":"BP1328","PointLetter":"T","StopName":"Clapham Common Old Town","Latitude":51.464064,"Longitude":-0.141278,"Action":0}], "Routes" : [{"Id":39,"Route":"322","From":"Crystal Palace Bus Station","Towards":"Clapham Common Old Town","Run":"1","IsDay":1,"encodedLevels":"PAB@DAA?D?BAG?BB@E@BE@A?H?D??D?H?@DD@CFFH??DAIA?DAB@D@C@G@C@DB@CBF@AAB@EDBH?BD?A?ECBF@C??AE?BA?E@BAEEAD@A@IB?A@E@B?@@D?AEDE@BA@ACAF?CG?@@C@A?D??A@F@B@P","encodedPoints":"gbzxH|dNXNJVDx@C`@\\JlA@^HJFx@lAbC|CfChB`F~EUd@MLkHrDsFtBq@NiCRkSr@iFj@k@RwAz@yGjEMLS\\mAhCNr@lA`F`BxHaBrPu@bIOD_BLuIhACsBq@VyBb@iJFD_HkRbHJb@b@zA`CzH~Djg@TxFcBN{FbAe@JaBv@mHxEaAb@_Bb@aARmEj@a@EyFBg@QsFgD_@OcCa@yCUeADuC`@iCGeAa@[Qi@o@kCqEiBcC}DsEq@i@cEcDiBMgBTYNcA|@iCjDCz@Kx@_AfFi@~BwDeDk@ZqAYqCrDqFlGWb@{A~C{E|IoB|CmA|@kErD_HvDe@\\_@^a@p@yA`DyB`H[|AcGsBy@xAiE|JSFeAx@}DtDq@v@]p@BL@RK\\w@`K`@h@xBxE\\pA`CrHf@pAb@dBz@bIt@zHdAvGfDCoAxF`@|@vDfLnD~MhArFR|An@rB|CbFNt@?nBOdVe@NGAc@Ma@_@WGWAs@PO?KEKIQ_@SU[MeBsB@i@DUpCcGVc@","Color":"993333","hasRunTwo":1,"startPoint":{"Latitude":51.420684,"Longitude":-0.077749},"endPoint":{"Latitude":51.462451,"Longitude":-0.140518}}]}


