{"Stops" : [{"StopId":14858,"StopCode":"BP2281","PointLetter":"E","StopName":"Canning Town Bus Station","Latitude":51.514288,"Longitude":0.008668,"Action":0},{"StopId":13829,"StopCode":"37127","PointLetter":"L","StopName":"Star Lane Station","Latitude":51.521926,"Longitude":0.004334,"Action":0},{"StopId":14363,"StopCode":"BP3737","PointLetter":"H","StopName":"South Crescent Business Centre","Latitude":51.521139,"Longitude":0.000883,"Action":0},{"StopId":14334,"StopCode":"BP3741","PointLetter":"","StopName":"Twelvetrees Crescent","Latitude":51.520965,"Longitude":-0.005265,"Action":0},{"StopId":14400,"StopCode":"BP3743","PointLetter":"","StopName":"Prologis Park","Latitude":51.523206,"Longitude":-0.005340,"Action":0},{"StopId":13912,"StopCode":"BP3721","PointLetter":"BH","StopName":"Bromley By Bow Station","Latitude":51.523311,"Longitude":-0.012067,"Action":0},{"StopId":13913,"StopCode":"BP3722","PointLetter":"BJ","StopName":"Devons Road Station","Latitude":51.522870,"Longitude":-0.015748,"Action":0},{"StopId":14563,"StopCode":"BP3723","PointLetter":"BK","StopName":"Watts Grove","Latitude":51.520021,"Longitude":-0.020139,"Action":0},{"StopId":13934,"StopCode":"BP3724","PointLetter":"MJ","StopName":"St Pauls Way School","Latitude":51.519201,"Longitude":-0.023749,"Action":0},{"StopId":14867,"StopCode":"BP3725","PointLetter":"MK","StopName":"Ackroyd Drive","Latitude":51.520313,"Longitude":-0.026281,"Action":0},{"StopId":14267,"StopCode":"BP3726","PointLetter":"ML","StopName":"Eric Street","Latitude":51.521569,"Longitude":-0.031993,"Action":0},{"StopId":13910,"StopCode":"14485","PointLetter":"MD","StopName":"Bow Common Lane","Latitude":51.522170,"Longitude":-0.034043,"Action":0},{"StopId":14078,"StopCode":"1423","PointLetter":"B","StopName":"Mile End Station","Latitude":51.523752,"Longitude":-0.034508,"Action":0}], "Routes" : [{"Id":1587,"Route":"323","From":"Canning Town Bus Station","Towards":"Mile End Station","Run":"1","IsDay":1,"encodedLevels":"PAADAC@E@?BFAC?D@@HB?E?CF?B@@C@@A??F@B@?C?AG?@C??B@EAG?BD@?AC?@G?@C@AADF@ACADCH?AB@DE@@B?@FAA@@P","encodedPoints":"}glyHyx@_@LuBvBgFjEi@S{@Cc@NeC~AU^Wp@eDhHk@b@eCt@eEp@kBNyFVw@I}Bi@y@KA`CBDLH|B\\fCZxCY[vEoAlOg@tIElD]~Fc@h@ALORQh@?LGT`At@xDnBN?NGF@LP@L?XEJOJG?OMCKmBkBg@]aCeA_G~CoA^?jGFjLXvBg@VU@ODOTKXGf@@f@Hf@l@zBZr@\\XTDd@CDPjCrc@Pb@fAvArBvBbA`@~EdEpHrNZ|Ba@P]TyA~Ac@t@g@jAaFhSEfAkAtIgA|JInAWrGA|@[Tg@@a@PwE|@{B\\","Color":"993333","hasRunTwo":1,"startPoint":{"Latitude":51.513756,"Longitude":0.009254},"endPoint":{"Latitude":51.523978,"Longitude":-0.034464}}]}


