{"Stops" : [{"StopId":9285,"StopCode":"29842","PointLetter":"A","StopName":"Stanmore Station","Latitude":51.619668,"Longitude":-0.303769,"Action":0},{"StopId":9542,"StopCode":"3559","PointLetter":"E","StopName":"The Broadway","Latitude":51.617490,"Longitude":-0.309903,"Action":0},{"StopId":21148,"StopCode":"HC198","PointLetter":"","StopName":"Hail & Ride Section Starts Here","Latitude":51.615843,"Longitude":-0.314167,"Action":0},{"StopId":21149,"StopCode":"HC199","PointLetter":"","StopName":"Hail & Ride Section","Latitude":51.596729,"Longitude":-0.303844,"Action":0},{"StopId":21150,"StopCode":"HC200","PointLetter":"","StopName":"Hail & Ride Section Ends Here","Latitude":51.595439,"Longitude":-0.302911,"Action":0},{"StopId":7874,"StopCode":"25453","PointLetter":"X","StopName":"Portland Crescent","Latitude":51.595570,"Longitude":-0.298329,"Action":0},{"StopId":4628,"StopCode":"9111","PointLetter":"C","StopName":"Queensbury Circle","Latitude":51.594973,"Longitude":-0.293110,"Action":0},{"StopId":4815,"StopCode":"16118","PointLetter":"CC","StopName":"The Honeypot","Latitude":51.593401,"Longitude":-0.290166,"Action":0},{"StopId":2332,"StopCode":"26529","PointLetter":"EE","StopName":"Queensbury Morrisons","Latitude":51.591722,"Longitude":-0.285364,"Action":0},{"StopId":2334,"StopCode":"26526","PointLetter":"X","StopName":"Princes Avenue","Latitude":51.588182,"Longitude":-0.283116,"Action":0},{"StopId":2327,"StopCode":"26525","PointLetter":"D","StopName":"Kingsbury Circle","Latitude":51.586130,"Longitude":-0.282399,"Action":0},{"StopId":2335,"StopCode":"17174","PointLetter":"A","StopName":"Kingsbury Station","Latitude":51.584908,"Longitude":-0.279977,"Action":0},{"StopId":8868,"StopCode":"17172","PointLetter":"L","StopName":"Valley Drive","Latitude":51.586028,"Longitude":-0.274189,"Action":0},{"StopId":8869,"StopCode":"26495","PointLetter":"A","StopName":"Roe Green Park","Latitude":51.585000,"Longitude":-0.269103,"Action":0},{"StopId":9290,"StopCode":"15082","PointLetter":"T","StopName":"Highfield Avenue","Latitude":51.584995,"Longitude":-0.265711,"Action":0},{"StopId":9289,"StopCode":"15083","PointLetter":"RH","StopName":"Fairfields Crescent","Latitude":51.586936,"Longitude":-0.265060,"Action":0},{"StopId":9580,"StopCode":"17045","PointLetter":"RP","StopName":"Stag Lane","Latitude":51.588166,"Longitude":-0.263642,"Action":0},{"StopId":9353,"StopCode":"17044","PointLetter":"CK","StopName":"Buck Lane","Latitude":51.588597,"Longitude":-0.259352,"Action":0},{"StopId":21151,"StopCode":"HC201","PointLetter":"","StopName":"Hail & Ride Section Starts Here","Latitude":51.591964,"Longitude":-0.254141,"Action":0},{"StopId":21152,"StopCode":"HC202","PointLetter":"","StopName":"Hail & Ride Section","Latitude":51.588472,"Longitude":-0.238915,"Action":0},{"StopId":21153,"StopCode":"HC203","PointLetter":"","StopName":"Hail & Ride Section Ends Here","Latitude":51.587894,"Longitude":-0.236310,"Action":0},{"StopId":12811,"StopCode":"14769","PointLetter":"M","StopName":"St Joseph's School","Latitude":51.586747,"Longitude":-0.231836,"Action":0},{"StopId":10686,"StopCode":"29581","PointLetter":"J","StopName":"Hendon War Memorial","Latitude":51.585786,"Longitude":-0.230141,"Action":0},{"StopId":10679,"StopCode":"3435","PointLetter":"G","StopName":"Hendon Central Station","Latitude":51.583664,"Longitude":-0.227756,"Action":0},{"StopId":10697,"StopCode":"15750","PointLetter":"","StopName":"Beaufort Gardens","Latitude":51.579894,"Longitude":-0.225247,"Action":0},{"StopId":11195,"StopCode":"35208","PointLetter":"F","StopName":"Prince Charles Drive","Latitude":51.576900,"Longitude":-0.219909,"Action":0},{"StopId":1418,"StopCode":"35214","PointLetter":"D","StopName":"Brent Cross Shopping Centre","Latitude":51.575717,"Longitude":-0.222553,"Action":0},{"StopId":21143,"StopCode":"BP5557","PointLetter":"Z","StopName":"Tesco Brent Cross","Latitude":51.574735,"Longitude":-0.214740,"Action":0}], "Routes" : [{"Id":441,"Route":"324","From":"Stanmore Station","Towards":"Tesco Brent Cross","Run":"1","IsDay":1,"encodedLevels":"PBB?DA?AD?B@D@BIC?D?C@A?CDB?BFB?CAAD?BC?@BF@CACAJ@CAC?B@?@F@B?BC?A@D??@G@B@EB?CA?D?CAH@C?AAC@BF@BBG@@D@BFA?@CA?FA?C@E@DE@B@G@B@?C?@?H@BBA?E@BDA@C@B?E?@C?AE?AC@@B?F@?@@D@?@BDCAF?ADBB??BH@A?CAB@EA?AAE?ADCDC@EGAC???B@D?@@H@AB@DAC@@D?@A@AC@A?C@C@FA?CAA@A@D@B??P","encodedPoints":"o~`zH|ez@PfBYh@Jr@`@nBz@pC~BjG`BdEt@vCDl@x@lG?jARvHjAnDnBpH?|@|@A|AiBlEsFtAs@^Mt@El@LX?NCdJ}EtCcCZ_@dCoDfC}BtFkB`GuAtCm@n@c@D[PMPFPN~JcBjA?fAD`AAxGk@?a@JWRG`@XtZuRbGkEXsADCeBmTw@aNLeFFyACy@G[CIG{@F[NWRCdA_@\\o@l@yAnCoHvAoCdCyG\\cBRqA`ByJTo@Z{@vBoDv@{@tAgAnDyBd@QdDcAbB]`Ea@~AUzAw@hFaDt@kCNM@oAUoHYqBOm@eBuFa@qBUoBO}B@_DDmAf@uFdGqd@^sFIEmBA{Fc@{@i@aGyCe@DUgBY_G?g@y@kOiAmLqAwJMq@e@_BUk@[g@GGk@Gg@z@wBxC{AcA[e@y@iBg@aBk@gCAeAJiAVcBn@iCF]`AyRp@sLPqEr@}NVu@fAuBrEcGfCyE^_A^mAXiAVkBt@}KEgAYqAa@iAMGM@OHGPGZAXDXJPLJj@F`@c@NUr@oB^wA\\}BdB_HtB}EVg@v@eARO|CiDrCuDzFqGPCh@Ax@Dd@E|@YbGyDrCuCr@sA\\{@t@aCdBmHnAgMMyCDo@?_@B{AT[R?LHDDJ^?f@a@rBHn@HPzBxAXH`@FxBhAPXRp@h@bC`BjJmAl@Oq@SgAL[t@{@zDdSZCNWBM@a@A_@By@H]P_@XU^U~EcCVYLYFg@Ac@Q}Aa@_B_@UU@KDUZg@XQYI_@m@uAeCyDKIy@uBHCHc@@[AYMWkCwBOWw@{CKu@?_@Hg@hA}DrC{HNi@B_@HEFBDVCFMT]b@EB","Color":"993333","hasRunTwo":1,"startPoint":{"Latitude":51.619765,"Longitude":-0.303181},"endPoint":{"Latitude":51.574851,"Longitude":-0.214802}}]}


