{"Stops" : [{"StopId":14109,"StopCode":"LE139","PointLetter":"K","StopName":"Wanstead Park Station","Latitude":51.551178,"Longitude":0.025294,"Action":0},{"StopId":15162,"StopCode":"29832","PointLetter":"B","StopName":"Forest Gate Station","Latitude":51.548873,"Longitude":0.024975,"Action":0},{"StopId":15255,"StopCode":"8074","PointLetter":"M","StopName":"Romford Road","Latitude":51.547038,"Longitude":0.025543,"Action":0},{"StopId":15228,"StopCode":"9047","PointLetter":"T","StopName":"St Dunstan's Road","Latitude":51.546261,"Longitude":0.031451,"Action":0},{"StopId":15284,"StopCode":"9049","PointLetter":"TT","StopName":"Studley Road","Latitude":51.543428,"Longitude":0.032493,"Action":0},{"StopId":15282,"StopCode":"9051","PointLetter":"","StopName":"Oakdale Road","Latitude":51.541481,"Longitude":0.032766,"Action":0},{"StopId":15281,"StopCode":"9055","PointLetter":"","StopName":"Plashet Road","Latitude":51.538336,"Longitude":0.033636,"Action":0},{"StopId":15270,"StopCode":"7059","PointLetter":"B","StopName":"Upton Park Station","Latitude":51.536051,"Longitude":0.035221,"Action":0},{"StopId":15279,"StopCode":"9060","PointLetter":"C","StopName":"Queens Market","Latitude":51.534149,"Longitude":0.036001,"Action":0},{"StopId":15294,"StopCode":"633","PointLetter":"F","StopName":"Upton Park / Boleyn","Latitude":51.530753,"Longitude":0.037897,"Action":0},{"StopId":15413,"StopCode":"1884","PointLetter":"S","StopName":"New City Road","Latitude":51.528598,"Longitude":0.033591,"Action":0},{"StopId":15619,"StopCode":"747","PointLetter":"BA","StopName":"Plaistow / Prince Regent Lane","Latitude":51.525534,"Longitude":0.028769,"Action":0},{"StopId":15414,"StopCode":"1882","PointLetter":"BB","StopName":"Plaistow Police Station","Latitude":51.523944,"Longitude":0.026075,"Action":0},{"StopId":15716,"StopCode":"4891","PointLetter":"BC","StopName":"Balaam Street","Latitude":51.522560,"Longitude":0.023404,"Action":0},{"StopId":15365,"StopCode":"BP3756","PointLetter":"BD","StopName":"Chargeable Lane","Latitude":51.521462,"Longitude":0.020876,"Action":0},{"StopId":15388,"StopCode":"1878","PointLetter":"BE","StopName":"Croydon Road","Latitude":51.520351,"Longitude":0.018535,"Action":0},{"StopId":15560,"StopCode":"BP665","PointLetter":"P","StopName":"Rokeby School","Latitude":51.518887,"Longitude":0.015256,"Action":0},{"StopId":14371,"StopCode":"20773","PointLetter":"M","StopName":"Hermit Road","Latitude":51.517666,"Longitude":0.012550,"Action":0},{"StopId":13982,"StopCode":"8153","PointLetter":"N","StopName":"Rathbone Market","Latitude":51.516420,"Longitude":0.009699,"Action":0},{"StopId":14825,"StopCode":"BP2284","PointLetter":"A","StopName":"Canning Town Station","Latitude":51.514576,"Longitude":0.008133,"Action":0}], "Routes" : [{"Id":4863,"Route":"330","From":"Wanstead Park Station","Towards":"Canning Town Station","Run":"1","IsDay":1,"encodedLevels":"P@?BD@G@@A?G?@@D?B@BFA@D@C?BAI@B?E??AC@@EC??B???EC@BD?B?@?BAEAP","encodedPoints":"musyHs|CjADvGt@h@HpEDpJ{B|@YIqBDc@GeCi@yOY{GbB]hHcBjAa@hH_Bj@CxEe@~@?dHVlAYfAa@|EkDfGwEtAi@nNoElC_BrEcCzFoBzBa@FjDZrELh@N^nB|DtEpIxEbJtElH|EfKhGzLzDtIbAlF^`Az@rBrEjL`GvPTt@zNvb@tDpKd@`@PWh@c@VBXj@J^BL?b@Ad@ENTNFl@VAhBgB","Color":"993333","hasRunTwo":1,"startPoint":{"Latitude":51.551754,"Longitude":0.025222},"endPoint":{"Latitude":51.514468,"Longitude":0.008118}}]}


