{"Stops" : [{"StopId":21367,"StopCode":"BP5603","PointLetter":"W","StopName":"Stratford City Bus Station","Latitude":51.543824,"Longitude":-0.004150,"Action":0},{"StopId":15756,"StopCode":"2067","PointLetter":"L","StopName":"Abbey Lane","Latitude":51.533135,"Longitude":-0.008078,"Action":0},{"StopId":15690,"StopCode":"4875","PointLetter":"P","StopName":"Bow Flyover","Latitude":51.530228,"Longitude":-0.012169,"Action":0},{"StopId":16855,"StopCode":"BP2687","PointLetter":"WQ","StopName":"Autumn Street","Latitude":51.534593,"Longitude":-0.021957,"Action":0},{"StopId":17141,"StopCode":"BP2688","PointLetter":"WR","StopName":"Fish Island","Latitude":51.536281,"Longitude":-0.022879,"Action":0},{"StopId":16856,"StopCode":"BP2689","PointLetter":"WS","StopName":"Maverton Road","Latitude":51.534985,"Longitude":-0.021753,"Action":0},{"StopId":17217,"StopCode":"BP3501","PointLetter":"TW","StopName":"Usher Road","Latitude":51.532005,"Longitude":-0.025833,"Action":0},{"StopId":17216,"StopCode":"BP3502","PointLetter":"TX","StopName":"Shetland Road","Latitude":51.530458,"Longitude":-0.029014,"Action":0},{"StopId":14075,"StopCode":"6366","PointLetter":"RR","StopName":"Ford Road","Latitude":51.532223,"Longitude":-0.032917,"Action":0},{"StopId":13976,"StopCode":"18024","PointLetter":"RS","StopName":"Medway Road","Latitude":51.531649,"Longitude":-0.036201,"Action":0},{"StopId":15215,"StopCode":"18213","PointLetter":"GC","StopName":"St Barnabas Church","Latitude":51.530285,"Longitude":-0.039604,"Action":0},{"StopId":15167,"StopCode":"14482","PointLetter":"","StopName":"Arbery Road","Latitude":51.528703,"Longitude":-0.038072,"Action":0},{"StopId":15165,"StopCode":"14484","PointLetter":"","StopName":"Lichfield Road","Latitude":51.527146,"Longitude":-0.036380,"Action":0},{"StopId":14200,"StopCode":"1422","PointLetter":"H","StopName":"Mile End Station / Bow Road","Latitude":51.525875,"Longitude":-0.035108,"Action":0},{"StopId":13510,"StopCode":"BP2895","PointLetter":"F","StopName":"Regents Canal","Latitude":51.524403,"Longitude":-0.036354,"Action":0},{"StopId":13508,"StopCode":"7725","PointLetter":"E","StopName":"Queen Mary / University Of London","Latitude":51.523173,"Longitude":-0.039117,"Action":0},{"StopId":17070,"StopCode":"BP2690","PointLetter":"Q","StopName":"Ernest Street","Latitude":51.522022,"Longitude":-0.039181,"Action":0},{"StopId":17140,"StopCode":"BP2693","PointLetter":"S","StopName":"Dongola Road","Latitude":51.519209,"Longitude":-0.038725,"Action":0},{"StopId":14674,"StopCode":"BP536","PointLetter":"T","StopName":"Harford Street","Latitude":51.517973,"Longitude":-0.039557,"Action":0},{"StopId":17139,"StopCode":"BP2695","PointLetter":"Y","StopName":"St Dunstan's Church","Latitude":51.516629,"Longitude":-0.044731,"Action":0},{"StopId":16810,"StopCode":"BP2696","PointLetter":"Z","StopName":"Jamaica Street","Latitude":51.516795,"Longitude":-0.049264,"Action":0},{"StopId":17137,"StopCode":"BP2698","PointLetter":"","StopName":"Musbury Street","Latitude":51.515913,"Longitude":-0.053006,"Action":0},{"StopId":17135,"StopCode":"BP2700","PointLetter":"","StopName":"Martha Street","Latitude":51.512450,"Longitude":-0.053486,"Action":0},{"StopId":16857,"StopCode":"BP2701","PointLetter":"D","StopName":"Shadwell Station","Latitude":51.512003,"Longitude":-0.056401,"Action":0}], "Routes" : [{"Id":4811,"Route":"339","From":"Stratford City Bus Station","Towards":"Shadwell Station","Run":"1","IsDay":1,"encodedLevels":"P@B@CAE?AC?@AE@C@AC?B?AB?G@?CA@CBG?A?@@H?ABFB@ACAAFA@ACB?EACA??CA@H??@AAECB?G@@?C@A?AG?@?F@A@I@B@?C?GBA@GADA@AH@E@@EE??@AGBAFP","encodedPoints":"ieryHlYj@CHGFSB[dA@zCh@j@`@n@n@fCjDf@bAp@dB^rAlA`C~@v@fAf@z@Jr@Al@R^Z~DdEJKFARHHV@NRCXOPOfBqDdCsG`AsBpAqBd@G\\\\~DnFjBrCjGbJlFjHh@dAhAhCn@hBdCxHEd@iApAoA|DaAvDmCpHsApCgD`J_EzIO?i@g@u@g@i@EsBMsBPq@JwAl@IT]jCAZ@p@CnAI@MQ?I@KDMPmA@[x@yDJG~Ek@|CR|An@LJBRRZLr@vA`Gn@jAdDnJP^~DvJnDrKMP{IxGu@d@gAx@hBzQvArM`@fDpApIfGqFfCgCpGeHlGyGfAcAbC}@TMvCdNvBvFvBhHF\\rAoAzA}@tDk@pFi@bEWnDe@r@~OPzGlAKfB?PEVhHClBOxDQnKWxRg@~LjPn@|Ep@lFZF|Q","Color":"993333","hasRunTwo":1,"startPoint":{"Latitude":51.544058,"Longitude":-0.004223},"endPoint":{"Latitude":51.512044,"Longitude":-0.056684}}]}


