{"Stops" : [{"StopId":16597,"StopCode":"BP4910","PointLetter":"R","StopName":"City Hall","Latitude":51.502927,"Longitude":-0.078027,"Action":0},{"StopId":14679,"StopCode":"BP3965","PointLetter":"M","StopName":"Tooley Street / City Hall","Latitude":51.503548,"Longitude":-0.080292,"Action":0},{"StopId":14809,"StopCode":"2197","PointLetter":"S","StopName":"London Bridge Station","Latitude":51.505693,"Longitude":-0.086023,"Action":0},{"StopId":10204,"StopCode":"BP4481","PointLetter":"","StopName":"Southwark Street","Latitude":51.504037,"Longitude":-0.090934,"Action":0},{"StopId":10390,"StopCode":"2135","PointLetter":"H","StopName":"Union Street","Latitude":51.502403,"Longitude":-0.092199,"Action":0},{"StopId":10232,"StopCode":"26353","PointLetter":"A","StopName":"Borough Station","Latitude":51.500564,"Longitude":-0.094149,"Action":0},{"StopId":21567,"StopCode":"91531","PointLetter":"B","StopName":"Borough Police Station","Latitude":51.498656,"Longitude":-0.097412,"Action":0},{"StopId":10322,"StopCode":"33625","PointLetter":"G","StopName":"Elephant & Castle / Newington Causeway","Latitude":51.496934,"Longitude":-0.099299,"Action":0},{"StopId":1655,"StopCode":"33614","PointLetter":"R","StopName":"Elephant & Castle Station","Latitude":51.493885,"Longitude":-0.100420,"Action":0},{"StopId":11547,"StopCode":"36960","PointLetter":"","StopName":"Hampton Street","Latitude":51.492566,"Longitude":-0.098372,"Action":0},{"StopId":16633,"StopCode":"36972","PointLetter":"RZ","StopName":"Larcom Street","Latitude":51.491749,"Longitude":-0.091246,"Action":0},{"StopId":16629,"StopCode":"36978","PointLetter":"K","StopName":"Balfour Street","Latitude":51.491310,"Longitude":-0.089176,"Action":0},{"StopId":16646,"StopCode":"36971","PointLetter":"L","StopName":"East Street","Latitude":51.490147,"Longitude":-0.087323,"Action":0},{"StopId":16622,"StopCode":"36970","PointLetter":"M","StopName":"Alsace Road","Latitude":51.486968,"Longitude":-0.084301,"Action":0},{"StopId":16621,"StopCode":"8443","PointLetter":"P","StopName":"Albany Road / Wells Way","Latitude":51.484132,"Longitude":-0.085155,"Action":0},{"StopId":16630,"StopCode":"36977","PointLetter":"G","StopName":"St George's Way / Burgess Park","Latitude":51.480979,"Longitude":-0.085373,"Action":0},{"StopId":16618,"StopCode":"36961","PointLetter":"A","StopName":"Sedgmoor Place","Latitude":51.477987,"Longitude":-0.082806,"Action":0},{"StopId":16632,"StopCode":"36973","PointLetter":"B","StopName":"Southampton Way Estate","Latitude":51.476758,"Longitude":-0.079703,"Action":0},{"StopId":16634,"StopCode":"36969","PointLetter":"C","StopName":"Southampton Way / Peckham Road","Latitude":51.475454,"Longitude":-0.078016,"Action":0},{"StopId":10190,"StopCode":"1963","PointLetter":"Q","StopName":"The Academy At Peckham","Latitude":51.473933,"Longitude":-0.073587,"Action":0},{"StopId":10332,"StopCode":"280","PointLetter":"B","StopName":"Peckham Library","Latitude":51.473422,"Longitude":-0.070412,"Action":0},{"StopId":10934,"StopCode":"33439","PointLetter":"K","StopName":"Clayton Road","Latitude":51.473315,"Longitude":-0.065535,"Action":0},{"StopId":3154,"StopCode":"33442","PointLetter":"P","StopName":"The Aylesham Centre","Latitude":51.471984,"Longitude":-0.069349,"Action":0},{"StopId":3246,"StopCode":"13781","PointLetter":"V","StopName":"Peckham Rye Station","Latitude":51.469317,"Longitude":-0.067964,"Action":0},{"StopId":3261,"StopCode":"1726","PointLetter":"EA","StopName":"Nigel Road","Latitude":51.466136,"Longitude":-0.065925,"Action":0},{"StopId":3231,"StopCode":"34022","PointLetter":"EC","StopName":"Peckham Rye / Nunhead Lane","Latitude":51.463151,"Longitude":-0.064899,"Action":0},{"StopId":10773,"StopCode":"26093","PointLetter":"EF","StopName":"Solomon's Passage","Latitude":51.460771,"Longitude":-0.061271,"Action":0},{"StopId":10983,"StopCode":"26070","PointLetter":"EH","StopName":"Rye Hill Park","Latitude":51.459373,"Longitude":-0.057746,"Action":0},{"StopId":10974,"StopCode":"13760","PointLetter":"EJ","StopName":"Stuart Road","Latitude":51.458065,"Longitude":-0.053714,"Action":0},{"StopId":10973,"StopCode":"13762","PointLetter":"","StopName":"Surrey Road","Latitude":51.456365,"Longitude":-0.050475,"Action":0},{"StopId":10819,"StopCode":"26095","PointLetter":"","StopName":"Merttins Road","Latitude":51.457427,"Longitude":-0.046731,"Action":0},{"StopId":10820,"StopCode":"26097","PointLetter":"","StopName":"St Norbert Road","Latitude":51.457914,"Longitude":-0.044148,"Action":0},{"StopId":10787,"StopCode":"26098","PointLetter":"","StopName":"Turnham Road","Latitude":51.460117,"Longitude":-0.043578,"Action":0},{"StopId":10749,"StopCode":"36585","PointLetter":"BN","StopName":"Brockill Crescent","Latitude":51.461422,"Longitude":-0.043652,"Action":0},{"StopId":10933,"StopCode":"40007","PointLetter":"BL","StopName":"St Asaph Road","Latitude":51.464044,"Longitude":-0.043958,"Action":0},{"StopId":10815,"StopCode":"36537","PointLetter":"BK","StopName":"Avignon Road / Drakefell Road","Latitude":51.465787,"Longitude":-0.043869,"Action":0},{"StopId":10925,"StopCode":"37056","PointLetter":"","StopName":"Kitto Road","Latitude":51.467687,"Longitude":-0.043989,"Action":0},{"StopId":16645,"StopCode":"37057","PointLetter":"","StopName":"Arbuthnot Road","Latitude":51.469833,"Longitude":-0.042155,"Action":0},{"StopId":16616,"StopCode":"27058","PointLetter":"","StopName":"Ommaney Road","Latitude":51.472051,"Longitude":-0.040346,"Action":0},{"StopId":16600,"StopCode":"37059","PointLetter":"N","StopName":"New Cross / Jerningham Road","Latitude":51.474167,"Longitude":-0.041048,"Action":0}], "Routes" : [{"Id":5415,"Route":"343","From":"City Hall","Towards":"New Cross / Jerningham Road","Run":"1","IsDay":1,"encodedLevels":"P@B@@C@BA@?AD@HABD@AE@@@@ACAF?BD@DDAJ?@A@D@E?E?B@BD?@H?B@D@AGB@GAB@@AC@@?H@A@BEADBF@DAB?E@D?AB@@H?ED?GBA?@C@@E@AE??AH?B?D?B@@D?AI@EAC?F?G@B@?AD@BCA@?FA@BBBF@BP","encodedPoints":"qcjyH~aN_@jCCp@@FNJDAS\\a@nAsBpKwAnE{C`Lc@pAqCbL[vDM|Db@dAhHlJzEfFzClBp@ZdFnDP\\D^RZx@jBlAxCzExJnCbEjDtD^VdEtDjBp@x@GjB]n@pBh@N`EOJGHMNe@^eCl@_CZ[xDqCUoB}CkTB[Ja@X[`BuC|@eDNsAp@aFrAyLvFyEbA}@lFqD\\MpAwA~JuMdCoCrEzRRVb@bAVARRx@SxBWnHkAfAGn@CZDj@CpJIViAZkCLuBnAsM\\aAnDsH`DeFvB{A~DyAKuGBoDNKvCsUFoADqBAi@sBuLKaCAgA@{EFMBo@JUjABzE@rAjXPBx@C`AYjF}DpEsC`Ag@jFoDrAkBBOl@k@LEx@PdGNPKzEoBxAs@vEqCrBeE~D}I\\{@bB{Ed@_BjDuM`BmH\\mB~AoH~@gBzCwGbDmIsCkHwCkI|B_DVo@DQ|@cGoEkBuHgDMRM@cMXoG\\mA@_Il@_@CcBc@kESgGj@g@HKNE?OO?]FIcAiAyJcLgFqEYG[BsM`D","Color":"993333","hasRunTwo":1,"startPoint":{"Latitude":51.502815,"Longitude":-0.077278},"endPoint":{"Latitude":51.474298,"Longitude":-0.041061}},{"Id":5635,"Route":"N343","From":"Trafalgar Square / Charing Cross Stn","Towards":"New Cross / Jerningham Road","Run":"1","IsDay":0,"encodedLevels":"PAD@C@?DAC@E@B@H?ABA?FA@@G@?A@HAC@DA@FC@@AB@DAEBAE@@@CE?B?I@BA?DF@DAAAE@@@@AB?FA?EC@DBD@I?@@D@E?E?B@BD?@H?B@D@AGB@GAB@@AC@@?H@A@BEADBF@DAB?E@D?AB@@H?ED?GBA?@CA?B?@EADBH?B?D?B@@D?AI@EAC?F?G@B@?AD@BCA@?FA@BBBF@BP","encodedPoints":"sgkyHbzWAaC[uFgCeGeC}G}@uCiCoJ{@oDwBUsAe@u@o@_@k@g@qAe@uBOoBAmBJ{AFa@f@yBJYDAP@^v@RnAP^vF`TJE~HoG~F_FvLkKtDkDN}@A_AyBwIoF{R]eDQkF@{BFmGTm@LO~@{Ch@eCdAaFdBsKnAcL|@gMZaLAmIKuAM]EeAMs@W{@aEqGDYj@kBPQxBkENMDBj@t@@RALwDvKxAdBlG|IdCpBlJ|FT^\\JP\\D^RZx@jBlAxC|DfI\\p@nCbEjDtD^VdEtDjBp@x@GjB]n@pBh@N`EOJGLWJ[^eCl@_CZ[xDqCUoB}CkTB[Ja@X[`BuC|@eDNsAp@aFrAyLvFyEbA}@lFqD\\MpAwA~JuMdCoCrEzRRVb@bAVARRx@SxBWnHkAfAGn@CZDj@CpJIViAZkCLuBnAsM\\aAnDsH`DeFvB{A~DyAKuGBoDNKvCsUFoADqBAi@sBuLKaCAgA@{EFMBo@JUjABzE@rAjXPBx@C`AYjF}DpEsC`Ag@jFoDx@kADWFONGFKr@e@x@PvGBvKyEtB{ArBeE~D}I\\{@bB{Ed@_BjDuM`BmH\\mB~AoH~@gBzCwGbDmIsCkHwCkI|B_DVo@DQ|@cGoEkBuHgDMRM@cMXoG\\mA@_Il@_@CcBc@kESgGj@g@HKNE?OO?]FIcAiAyJcLgFqEYG[BsM`D","Color":"663366","hasRunTwo":1,"startPoint":{"Latitude":51.508587,"Longitude":-0.127213},"endPoint":{"Latitude":51.474298,"Longitude":-0.041061}}]}


