{"Stops" : [{"StopId":1866,"StopCode":"8957","PointLetter":"G","StopName":"Falcon Road / Grant Road","Latitude":51.465811,"Longitude":-0.168879,"Action":0},{"StopId":1902,"StopCode":"140","PointLetter":"T","StopName":"Clapham Junction / The Falcon","Latitude":51.463085,"Longitude":-0.167663,"Action":0},{"StopId":1846,"StopCode":"35707","PointLetter":"Y","StopName":"Clapham Junction / The Northcote","Latitude":51.461271,"Longitude":-0.167218,"Action":0},{"StopId":10370,"StopCode":"12842","PointLetter":"","StopName":"Eccles Road","Latitude":51.461093,"Longitude":-0.162748,"Action":0},{"StopId":10361,"StopCode":"12844","PointLetter":"","StopName":"Sisters Avenue","Latitude":51.461377,"Longitude":-0.158533,"Action":0},{"StopId":10360,"StopCode":"12846","PointLetter":"U","StopName":"Forthbridge Road","Latitude":51.461320,"Longitude":-0.153770,"Action":0},{"StopId":10359,"StopCode":"12848","PointLetter":"V","StopName":"Cedars Road","Latitude":51.461360,"Longitude":-0.149997,"Action":0},{"StopId":10335,"StopCode":"9365","PointLetter":"Y","StopName":"Rookery Road","Latitude":51.461307,"Longitude":-0.144931,"Action":0},{"StopId":10334,"StopCode":"9368","PointLetter":"L","StopName":"Long Road / Clapham Common","Latitude":51.461219,"Longitude":-0.141120,"Action":0},{"StopId":10216,"StopCode":"25991","PointLetter":"E","StopName":"Clapham Common Station","Latitude":51.461433,"Longitude":-0.138722,"Action":0},{"StopId":7195,"StopCode":"4857","PointLetter":"H","StopName":"Park Hill","Latitude":51.459498,"Longitude":-0.133532,"Action":0},{"StopId":6976,"StopCode":"1667","PointLetter":"E","StopName":"Bedford Road","Latitude":51.459718,"Longitude":-0.130413,"Action":0},{"StopId":8541,"StopCode":"12830","PointLetter":"F","StopName":"Solon Road","Latitude":51.459648,"Longitude":-0.124327,"Action":0},{"StopId":8564,"StopCode":"12832","PointLetter":"G","StopName":"Belvedere Place","Latitude":51.460232,"Longitude":-0.119797,"Action":0},{"StopId":10196,"StopCode":"241","PointLetter":"U","StopName":"Lambeth Town Hall","Latitude":51.461072,"Longitude":-0.116653,"Action":0},{"StopId":6786,"StopCode":"231","PointLetter":"T","StopName":"Brixton Station","Latitude":51.462060,"Longitude":-0.115475,"Action":0},{"StopId":10197,"StopCode":"238","PointLetter":"H","StopName":"Gresham Road / Brixton Police Station","Latitude":51.465070,"Longitude":-0.113077,"Action":0},{"StopId":10386,"StopCode":"13286","PointLetter":"S","StopName":"Western Road","Latitude":51.464903,"Longitude":-0.110507,"Action":0},{"StopId":10385,"StopCode":"13287","PointLetter":"T","StopName":"Brixton Station Road","Latitude":51.463391,"Longitude":-0.108237,"Action":0},{"StopId":10210,"StopCode":"13289","PointLetter":"U","StopName":"Shakespeare Road","Latitude":51.464431,"Longitude":-0.104119,"Action":0},{"StopId":10286,"StopCode":"540","PointLetter":"A","StopName":"Loughborough Junction Station","Latitude":51.465941,"Longitude":-0.102387,"Action":0},{"StopId":10245,"StopCode":"26321","PointLetter":"F","StopName":"Pomfret Road","Latitude":51.466755,"Longitude":-0.100481,"Action":0},{"StopId":10299,"StopCode":"26322","PointLetter":"G","StopName":"Lilford Road","Latitude":51.468733,"Longitude":-0.098254,"Action":0},{"StopId":10233,"StopCode":"26324","PointLetter":"H7","StopName":"Caldecot Road","Latitude":51.470230,"Longitude":-0.095197,"Action":0},{"StopId":10384,"StopCode":"13297","PointLetter":"Y","StopName":"Valmar Road","Latitude":51.471529,"Longitude":-0.093789,"Action":0},{"StopId":10220,"StopCode":"263","PointLetter":"R","StopName":"Denmark Hill / Camberwell Green","Latitude":51.473401,"Longitude":-0.093265,"Action":0},{"StopId":10376,"StopCode":"26060","PointLetter":"E","StopName":"Camberwell Green","Latitude":51.474975,"Longitude":-0.093329,"Action":0},{"StopId":1602,"StopCode":"2616","PointLetter":"C","StopName":"Medlar Street","Latitude":51.476560,"Longitude":-0.093997,"Action":0},{"StopId":1587,"StopCode":"2614","PointLetter":"U","StopName":"Wyndham Road","Latitude":51.478497,"Longitude":-0.094204,"Action":0},{"StopId":1638,"StopCode":"2613","PointLetter":"Z","StopName":"Bowyer Place","Latitude":51.480578,"Longitude":-0.094434,"Action":0},{"StopId":1555,"StopCode":"658","PointLetter":"X","StopName":"Camberwell Road / Albany Road","Latitude":51.481676,"Longitude":-0.094518,"Action":0},{"StopId":10305,"StopCode":"656","PointLetter":"L","StopName":"Westmoreland Road","Latitude":51.484606,"Longitude":-0.093849,"Action":0},{"StopId":10237,"StopCode":"2608","PointLetter":"G","StopName":"East Street","Latitude":51.487266,"Longitude":-0.095394,"Action":0},{"StopId":12879,"StopCode":"BP4962","PointLetter":"D","StopName":"Larcom Street","Latitude":51.490434,"Longitude":-0.097193,"Action":0},{"StopId":10312,"StopCode":"2602","PointLetter":"","StopName":"Hampton Street","Latitude":51.492234,"Longitude":-0.098386,"Action":0},{"StopId":10345,"StopCode":"33619","PointLetter":"S","StopName":"Elephant & Castle Station","Latitude":51.493837,"Longitude":-0.100811,"Action":0},{"StopId":10323,"StopCode":"33624","PointLetter":"F","StopName":"Elephant & Castle / Newington Causeway","Latitude":51.496432,"Longitude":-0.099954,"Action":0},{"StopId":10222,"StopCode":"2137","PointLetter":"P","StopName":"Southwark Police Station","Latitude":51.498591,"Longitude":-0.097804,"Action":0},{"StopId":10221,"StopCode":"26352","PointLetter":"D","StopName":"Borough Station","Latitude":51.500770,"Longitude":-0.094126,"Action":0},{"StopId":10380,"StopCode":"BP851","PointLetter":"G","StopName":"Union Street","Latitude":51.503038,"Longitude":-0.091999,"Action":0},{"StopId":624,"StopCode":"978","PointLetter":"M","StopName":"London Bridge","Latitude":51.506710,"Longitude":-0.088301,"Action":0},{"StopId":625,"StopCode":"2123","PointLetter":"Q","StopName":"Monument Station","Latitude":51.509553,"Longitude":-0.087288,"Action":0},{"StopId":633,"StopCode":"BP3287","PointLetter":"M","StopName":"Fenchurch Street","Latitude":51.512302,"Longitude":-0.084954,"Action":0},{"StopId":622,"StopCode":"2120","PointLetter":"LN","StopName":"Threadneedle Street","Latitude":51.514111,"Longitude":-0.083926,"Action":0},{"StopId":631,"StopCode":"BP1575","PointLetter":"W","StopName":"Wormwood Street","Latitude":51.515863,"Longitude":-0.082152,"Action":0},{"StopId":3161,"StopCode":"768","PointLetter":"F","StopName":"Liverpool Street Station","Latitude":51.517492,"Longitude":-0.080613,"Action":0},{"StopId":614,"StopCode":"2114","PointLetter":"H","StopName":"Primrose Street","Latitude":51.519941,"Longitude":-0.079127,"Action":0},{"StopId":10309,"StopCode":"19259","PointLetter":"E","StopName":"Shoreditch High Street Station","Latitude":51.521933,"Longitude":-0.078322,"Action":0},{"StopId":10886,"StopCode":"37632","PointLetter":"ZA","StopName":"Curtain Road","Latitude":51.524907,"Longitude":-0.080388,"Action":0},{"StopId":533,"StopCode":"33347","PointLetter":"X","StopName":"Shoreditch Town Hall","Latitude":51.527302,"Longitude":-0.079437,"Action":0},{"StopId":16655,"StopCode":"36948","PointLetter":"Z2","StopName":"Shoreditch","Latitude":51.525616,"Longitude":-0.077518,"Action":0}], "Routes" : [{"Id":1063,"Route":"35","From":"Falcon Road / Grant Road","Towards":"Shoreditch","Run":"1","IsDay":1,"encodedLevels":"P?BC@@C@BG?@A@D@A@BECF?A?CF@@B?CA@HC@B@F?DG?B@?EAA?DCFAD?B?D?@D?BAD?J?B?ACE@BC??@B?CA?@EB@AAGC@@CAB@DAC?@@ECC?@ICADAC@DA@AE@A??BDAABF@B?BE?A@D?ABD@B?H@BABA@AFA?D@F@AG@C?F????C@P","encodedPoints":"{|byHx_`@RSbEiClEyAXBdEi@`AAlFoA|@]Dc@@q@G}Ce@}Re@oOSiE?sJLea@IcKAqN`@en@OeD}CcFFUf@eAlEwGzAiCzDcK?[g@yCIcAQoJOiEBkN`@iOAcAcA_QeAeHcB_Kk@qCiAiE{@YoR_Hc@aCEc@UeGBcCDoADYf@cAnDsER[f@kAzB}Fa@_BqDkLmDkJoAIUEKEWWWs@aBoFqBsFuA}Bu@cAeD{CsDqESg@wFoQYa@_@]WKuA_@oAw@g@yAgIPiAEwEf@g@PULGHcAb@{@NyBZ{HXmCPgE^ePn@qAMu@YiAs@qCcA_@EwCl@mBjA_ClBmBnAiEvA}FvCmDjB}M`I_A|@Sn@O`AI~@E~@[jBiGRg@vAKDK?a@I}@k@UaC[o@kBq@_EoCm@{@{EyFiCqEiDiHmAyCyCqFUKm@s@_Ai@aDcBgAo@wDaDc@w@_CoCW{@_EoEg@a@c@QoR_F{@YwEwB?UGk@[cAa@s@WMyKiGo@S}DqCS]qMoMcBwAeF{DyAi@qBi@UFuBUKQqFeB_@UiEmAYZQ`@cCvEHfDJl@yAEqIAyFP_@}@Km@Cw@F{Ht@@\\Cz@Br@@JAZKbCcB","Color":"993333","hasRunTwo":1,"startPoint":{"Latitude":51.465904,"Longitude":-0.169085},"endPoint":{"Latitude":51.525372,"Longitude":-0.077510}},{"Id":795,"Route":"N35","From":"Falcon Road / Grant Road","Towards":"Tottenham Court Road Station","Run":"1","IsDay":0,"encodedLevels":"P?BC@@C@BG?@A@D@A@BECF?A?CF@@B?CA@HC@B@F?DG?B@?EAA?DCGAD?B?D?@D?BAD?D?B?ACK@BC??@B?CA?@EB@@DAG@@CAB@EAC?@@ECC?@ICADAC@DA@BDB?BDAABG@B?BE?A@D?ABD@B?E@BABA@AKA?BAD?B@GC?@@D?@A?CAD?B@AE@A?B?DAF?AD@?AB@CE@EA@D@B@P","encodedPoints":"{|byHx_`@RSbEiClEyAXBdEi@`AAlFoA|@]Dc@@q@G}Ce@}Re@oOSiE?sJLea@IcKAqN`@en@OeD}CcFFUf@eAlEwGzAiCzDcK?[g@yCIcAQoJOiEBkN`@iOAcAcA_QeAeHcB_Kk@qCiAiE{@YoR_Hc@aCEc@UeGBcCDoADYf@cAnDsER[f@kAzB}Fa@_BqDkLmDkJoAIUEKEWWWs@aBoFqBsFuA}Bu@cAeD{CsDqESg@wFoQYa@_@]WKuA_@oAw@g@yAgIPiAEwEf@g@PULGHcAb@{@NyBZ{HXmCPgE^ePn@qAMu@YiAs@qCcA_@EwCl@mBjA_ClBmBnAiEvA}FvCmDjB}M`I_A|@Sn@O`AI~@E~@[jBiGRg@vAKDK?a@I}@k@UaC[o@kBq@_EoCm@{@{EyFiCqEiDiHmAyC{C{EaC_CaDcBgAo@wDaDc@w@_CoCW{@_EoEg@a@c@QoR_F{@YwEwB?UGk@[cAa@s@WMyKiGo@S}DqCS]qMoMcBwAeF{DyAi@qBi@UFuBUKQqFeB_@UiEmAYZQ`@{EhJqEvJmDvIMn@Iz@CdBHtBbArGL^Tb@j@l@NZ@^CXW|@I~@A`@r@lMfApLfA~Hz@hFpAjGZfAxEvWNjC^hQLdBl@bPNjLAf@R`DpBtNd@`DrChQpBnJh@jAJJv@zAvBjF`DfKtCvI`AvHr@o@lCaBV|BXpG?fAEx@M^m@rAMH","Color":"663366","hasRunTwo":1,"startPoint":{"Latitude":51.465904,"Longitude":-0.169085},"endPoint":{"Latitude":51.515995,"Longitude":-0.129388}}]}


