{"Stops" : [{"StopId":14175,"StopCode":"29164","PointLetter":"HM","StopName":"Chingdale Road","Latitude":51.619784,"Longitude":0.009003,"Action":0},{"StopId":2112,"StopCode":"17940","PointLetter":"HS","StopName":"Hatch Lane","Latitude":51.618611,"Longitude":0.003953,"Action":0},{"StopId":2134,"StopCode":"15994","PointLetter":"HW","StopName":"Mapleton Road","Latitude":51.618291,"Longitude":-0.002027,"Action":0},{"StopId":2114,"StopCode":"14700","PointLetter":"N","StopName":"Grove Road","Latitude":51.617747,"Longitude":-0.007627,"Action":0},{"StopId":2128,"StopCode":"15996","PointLetter":"M","StopName":"Larkswood School","Latitude":51.617127,"Longitude":-0.012435,"Action":0},{"StopId":2620,"StopCode":"BP998","PointLetter":"K","StopName":"Brook Crescent","Latitude":51.616891,"Longitude":-0.016519,"Action":0},{"StopId":2131,"StopCode":"7911","PointLetter":"J","StopName":"Hall Lane","Latitude":51.616634,"Longitude":-0.017324,"Action":0},{"StopId":2127,"StopCode":"7915","PointLetter":"U","StopName":"Larkswood Road","Latitude":51.613894,"Longitude":-0.017444,"Action":0},{"StopId":2130,"StopCode":"BP2958","PointLetter":"V","StopName":"Ainslie Wood Road","Latitude":51.612157,"Longitude":-0.017881,"Action":0},{"StopId":2125,"StopCode":"7919","PointLetter":"","StopName":"Leonard Road","Latitude":51.609588,"Longitude":-0.017502,"Action":0},{"StopId":2122,"StopCode":"7923","PointLetter":"","StopName":"Higham Station Avenue","Latitude":51.607327,"Longitude":-0.016791,"Action":0},{"StopId":2119,"StopCode":"7927","PointLetter":"CC","StopName":"Rowden Park Gardens","Latitude":51.605199,"Longitude":-0.016451,"Action":0},{"StopId":2113,"StopCode":"24339","PointLetter":"CD","StopName":"Walthamstow Stadium","Latitude":51.603481,"Longitude":-0.016381,"Action":0},{"StopId":1000,"StopCode":"33673","PointLetter":"CE","StopName":"Crooked Billet Roundabout","Latitude":51.599596,"Longitude":-0.015872,"Action":0},{"StopId":986,"StopCode":"7935","PointLetter":"CF","StopName":"Brettenham Road","Latitude":51.597924,"Longitude":-0.015353,"Action":0},{"StopId":1042,"StopCode":"7937","PointLetter":"BK","StopName":"Sir George Monoux College","Latitude":51.594848,"Longitude":-0.015862,"Action":0},{"StopId":1003,"StopCode":"7941","PointLetter":"BL","StopName":"Aveling Park Road","Latitude":51.593810,"Longitude":-0.017236,"Action":0},{"StopId":982,"StopCode":"7945","PointLetter":"BM","StopName":"Forest Road Bell Corner","Latitude":51.590619,"Longitude":-0.017288,"Action":0},{"StopId":247,"StopCode":"7949","PointLetter":"BN","StopName":"Jewel Road","Latitude":51.588502,"Longitude":-0.020281,"Action":0},{"StopId":77,"StopCode":"33832","PointLetter":"J","StopName":"Walthamstow Market","Latitude":51.585359,"Longitude":-0.019451,"Action":0},{"StopId":842,"StopCode":"R0036","PointLetter":"AP","StopName":"Walthamstow Central Station","Latitude":51.583099,"Longitude":-0.019809,"Action":0},{"StopId":1116,"StopCode":"BP4271","PointLetter":"B","StopName":"Walthamstow Bus Station","Latitude":51.583694,"Longitude":-0.020418,"Action":0},{"StopId":841,"StopCode":"11481","PointLetter":"K","StopName":"Grosvenor Park Road","Latitude":51.579571,"Longitude":-0.018028,"Action":0},{"StopId":847,"StopCode":"7962","PointLetter":"SJ","StopName":"Grove Road","Latitude":51.577773,"Longitude":-0.016489,"Action":0},{"StopId":855,"StopCode":"7964","PointLetter":"SK","StopName":"Bakers Avenue","Latitude":51.576207,"Longitude":-0.014768,"Action":0},{"StopId":1250,"StopCode":"10468","PointLetter":"EH","StopName":"Lea Bridge Road / Bakers Arms","Latitude":51.576309,"Longitude":-0.011762,"Action":0},{"StopId":1241,"StopCode":"14265","PointLetter":"EJ","StopName":"Leyton Green Road","Latitude":51.577680,"Longitude":-0.008310,"Action":0},{"StopId":1239,"StopCode":"14267","PointLetter":"EK","StopName":"Shernhall Street","Latitude":51.578834,"Longitude":-0.006398,"Action":0},{"StopId":1251,"StopCode":"14269","PointLetter":"EL","StopName":"Peterborough Road","Latitude":51.580024,"Longitude":-0.003416,"Action":0},{"StopId":1158,"StopCode":"14271","PointLetter":"A","StopName":"Whipps Cross / Wood Street","Latitude":51.581159,"Longitude":-0.000898,"Action":0},{"StopId":2520,"StopCode":"LE239","PointLetter":"K","StopName":"Whipps Cross Hospital / Main Entrance","Latitude":51.579553,"Longitude":0.001571,"Action":0},{"StopId":2670,"StopCode":"LE238","PointLetter":"L","StopName":"Whipps Cross Hospital / A & E","Latitude":51.577473,"Longitude":0.002779,"Action":0}], "Routes" : [{"Id":8678,"Route":"357","From":"Chingdale Road","Towards":"Whipps Cross Hospital / A & E","Run":"1","IsDay":1,"encodedLevels":"P?CBCAA@C?@F?A@CCD?@@@BE?@B?A?DA?ADBC@@@J@CB?@AC@A?E?DCAADA@B@D@BA@DA@@A??BGBE?AF?@BBAF?@@D@AGABC?C?AC?A?AFBC?CC?E@A?CB@E?ACIBABF@B?@CB@DAF??AE?B?A?H@BCDC??BE@C?A?E@AD?P","encodedPoints":"s`azHmv@lAA\\EHp@l@Dx@UP]NKL@HDFLFb@E\\UtFBfAMtJj@dHcA?Cl@?ZAPGFUrEBpIBLL^PNFf@`AvGT`Al@`D~@pXLhL?~AR|FzAxHr@dJFjCB`FCpAFpFdDInE?`G`@PDh@R\\T`Cf@hAOn@Av@DjHB`@QbJmDnXkBrDDRGxIV^SFa@b@w@n@q@HAV?PHVd@bAXP@j@KDKNCDDVKdFeA\\MzE]hLfBlDxALPFLtB~Il@Gd@IxFiA~FeBv@IRHXh@~BvFTv@tB~E~@~@`@V|@Xl@FlASnB}@RQhAaBv@QpI{AdBi@ZSXU^i@h@m@d@OVXCx@{@PKFKjBFl@JnCM@IEEKUYmC@IDITBVDHJBnD@ZQWyCIuEZa@d@OZCVHb@R~@PjAYbIIl@GdA_@fDsBPMpCqCl@k@hF{DLWdBaFNs@TaB^yALUc@oBUi@wEwHcEiSyEqHe@uAiAeE}CsKkFsNKi@}@{IHe@JYLOXQNEZHrB|@S`@k@vA","Color":"993333","hasRunTwo":1,"startPoint":{"Latitude":51.620109,"Longitude":0.008878},"endPoint":{"Latitude":51.581082,"Longitude":0.001455}}]}


