{"Stops" : [{"StopId":7363,"StopCode":"26966","PointLetter":"E","StopName":"Orpington Bus Station","Latitude":51.373447,"Longitude":0.089641,"Action":0},{"StopId":7534,"StopCode":"18952","PointLetter":"H","StopName":"Tubbenden Lane","Latitude":51.371870,"Longitude":0.091379,"Action":0},{"StopId":7779,"StopCode":"12239","PointLetter":"R","StopName":"High Street / Orpington War Memorial","Latitude":51.373886,"Longitude":0.097837,"Action":0},{"StopId":7654,"StopCode":"40232","PointLetter":"X","StopName":"Orpington / Walnuts Centre","Latitude":51.375394,"Longitude":0.100492,"Action":0},{"StopId":7377,"StopCode":"12240","PointLetter":"S","StopName":"High Street / Orpington War Memorial","Latitude":51.374148,"Longitude":0.098251,"Action":0},{"StopId":7641,"StopCode":"31173","PointLetter":"M","StopName":"Hillcrest Road","Latitude":51.371462,"Longitude":0.097108,"Action":0},{"StopId":7441,"StopCode":"19005","PointLetter":"D","StopName":"Sevenoaks Road / Tower Road","Latitude":51.367969,"Longitude":0.095814,"Action":0},{"StopId":7439,"StopCode":"19007","PointLetter":"E","StopName":"Sevenoaks Road / Orpington Hospital","Latitude":51.364776,"Longitude":0.093312,"Action":0},{"StopId":7409,"StopCode":"BP4868","PointLetter":"F","StopName":"Sevenoaks Road / Cloonmore Avenue","Latitude":51.362921,"Longitude":0.091417,"Action":0},{"StopId":7438,"StopCode":"19009","PointLetter":"G","StopName":"Crescent Way","Latitude":51.360821,"Longitude":0.089196,"Action":0},{"StopId":7436,"StopCode":"19011","PointLetter":"E","StopName":"Glentrammon Road","Latitude":51.356379,"Longitude":0.089167,"Action":0},{"StopId":18834,"StopCode":"12207","PointLetter":"K","StopName":"Farnborough Hill / Bus Garage","Latitude":51.356240,"Longitude":0.088385,"Action":0},{"StopId":18939,"StopCode":"18206","PointLetter":"J","StopName":"Farnborough Hill / Shire Lane","Latitude":51.358027,"Longitude":0.083970,"Action":0},{"StopId":18948,"StopCode":"30011","PointLetter":"K","StopName":"Durrant Way","Latitude":51.358460,"Longitude":0.081893,"Action":0},{"StopId":18926,"StopCode":"40251","PointLetter":"L","StopName":"Oleander Close","Latitude":51.358853,"Longitude":0.078980,"Action":0},{"StopId":18880,"StopCode":"24135","PointLetter":"M","StopName":"Tubbenden Lane South","Latitude":51.359495,"Longitude":0.073709,"Action":0},{"StopId":18976,"StopCode":"4075","PointLetter":"N","StopName":"Farnborough High Street / Church Road","Latitude":51.359305,"Longitude":0.070239,"Action":0},{"StopId":18935,"StopCode":"4083","PointLetter":"P","StopName":"Farnborough Green","Latitude":51.360229,"Longitude":0.064721,"Action":0},{"StopId":18907,"StopCode":"19038","PointLetter":"R","StopName":"Hilda Vale Road","Latitude":51.362705,"Longitude":0.058455,"Action":0},{"StopId":17335,"StopCode":"14342","PointLetter":"HD","StopName":"Farnborough Common / P R U Hospital","Latitude":51.365468,"Longitude":0.054211,"Action":0},{"StopId":15401,"StopCode":"19028","PointLetter":"","StopName":"Farnborough Park","Latitude":51.368630,"Longitude":0.049281,"Action":0},{"StopId":15627,"StopCode":"18203","PointLetter":"","StopName":"Lakeside Drive","Latitude":51.371455,"Longitude":0.046117,"Action":0},{"StopId":15524,"StopCode":"18200","PointLetter":"BP","StopName":"Bromley Bus Garage","Latitude":51.376161,"Longitude":0.043898,"Action":0},{"StopId":15704,"StopCode":"3923","PointLetter":"BS","StopName":"Bromley Common / Holy Trinity Church","Latitude":51.380118,"Longitude":0.041833,"Action":0},{"StopId":15395,"StopCode":"18199","PointLetter":"BT","StopName":"Bromley Common / Turpington Lane","Latitude":51.383487,"Longitude":0.039424,"Action":0},{"StopId":13525,"StopCode":"19773","PointLetter":"BU","StopName":"Bromley Common / The Crown","Latitude":51.389939,"Longitude":0.034522,"Action":0},{"StopId":13614,"StopCode":"18197","PointLetter":"BV","StopName":"Southlands Road","Latitude":51.392981,"Longitude":0.030229,"Action":0},{"StopId":13649,"StopCode":"3911","PointLetter":"","StopName":"Homesdale Road","Latitude":51.394666,"Longitude":0.026897,"Action":0},{"StopId":13642,"StopCode":"19277","PointLetter":"","StopName":"Bertha James Day Centre","Latitude":51.397058,"Longitude":0.022748,"Action":0},{"StopId":13648,"StopCode":"BP087","PointLetter":"H","StopName":"Cromwell Avenue","Latitude":51.398521,"Longitude":0.019247,"Action":0},{"StopId":13540,"StopCode":"14797","PointLetter":"A","StopName":"Bromley South Station","Latitude":51.400198,"Longitude":0.016905,"Action":0},{"StopId":13577,"StopCode":"BP041","PointLetter":"V","StopName":"Elmfield Road / The Glades","Latitude":51.402799,"Longitude":0.016761,"Action":0},{"StopId":13573,"StopCode":"BP054","PointLetter":"S","StopName":"Bromley Civic Centre","Latitude":51.404799,"Longitude":0.018660,"Action":0},{"StopId":13595,"StopCode":"40105","PointLetter":"P","StopName":"Bromley Town Hall","Latitude":51.406052,"Longitude":0.016918,"Action":0},{"StopId":13624,"StopCode":"R0558","PointLetter":"O","StopName":"Bromley / Market Square","Latitude":51.405629,"Longitude":0.014858,"Action":0},{"StopId":16209,"StopCode":"34206","PointLetter":"H","StopName":"Bromley / The Greyhound","Latitude":51.406168,"Longitude":0.013300,"Action":0},{"StopId":16281,"StopCode":"R0509","PointLetter":"G","StopName":"Bromley Court House","Latitude":51.407067,"Longitude":0.010679,"Action":0},{"StopId":16160,"StopCode":"19756","PointLetter":"A","StopName":"Meadow Road","Latitude":51.406394,"Longitude":0.003274,"Action":0},{"StopId":18097,"StopCode":"BP2233","PointLetter":"D","StopName":"Shortlands Station","Latitude":51.405066,"Longitude":0.000958,"Action":0},{"StopId":18259,"StopCode":"BP2235","PointLetter":"","StopName":"Church Road","Latitude":51.403168,"Longitude":-0.001065,"Action":0},{"StopId":18893,"StopCode":"BP2237","PointLetter":"PL","StopName":"Shortlands Grove","Latitude":51.401122,"Longitude":-0.004001,"Action":0},{"StopId":18941,"StopCode":"BP2240","PointLetter":"PM","StopName":"Den Road","Latitude":51.399358,"Longitude":-0.007614,"Action":0},{"StopId":18611,"StopCode":"14121","PointLetter":"PS","StopName":"Scotts Lane","Latitude":51.399059,"Longitude":-0.009568,"Action":0},{"StopId":18559,"StopCode":"19779","PointLetter":"PT","StopName":"Kenwood Drive","Latitude":51.399298,"Longitude":-0.013598,"Action":0},{"StopId":18897,"StopCode":"BP2226","PointLetter":"LC","StopName":"The Chinese Garage","Latitude":51.397936,"Longitude":-0.019220,"Action":0},{"StopId":18945,"StopCode":"BP2229","PointLetter":"LD","StopName":"Langley Court / West Gate","Latitude":51.395918,"Longitude":-0.021636,"Action":0},{"StopId":18894,"StopCode":"BP2258","PointLetter":"LE","StopName":"Langley Court / South Gate","Latitude":51.391450,"Longitude":-0.023323,"Action":0},{"StopId":18944,"StopCode":"BP2231","PointLetter":"D","StopName":"Elderslie Close","Latitude":51.389680,"Longitude":-0.023414,"Action":0},{"StopId":18966,"StopCode":"34256","PointLetter":"E","StopName":"Langley Park School","Latitude":51.387317,"Longitude":-0.023573,"Action":0},{"StopId":8646,"StopCode":"17428","PointLetter":"K","StopName":"Links Way","Latitude":51.386999,"Longitude":-0.024406,"Action":0},{"StopId":8645,"StopCode":"17426","PointLetter":"A","StopName":"Eden Park Station","Latitude":51.389653,"Longitude":-0.026620,"Action":0},{"StopId":8602,"StopCode":"26914","PointLetter":"L","StopName":"Eden Park","Latitude":51.391029,"Longitude":-0.029321,"Action":0},{"StopId":8661,"StopCode":"17424","PointLetter":"M","StopName":"Lodge Gardens","Latitude":51.392049,"Longitude":-0.033848,"Action":0},{"StopId":8662,"StopCode":"17422","PointLetter":"","StopName":"Altyre Way","Latitude":51.391782,"Longitude":-0.038330,"Action":0},{"StopId":8663,"StopCode":"17420","PointLetter":"P","StopName":"Abbots Way","Latitude":51.393201,"Longitude":-0.041388,"Action":0},{"StopId":8705,"StopCode":"BP4210","PointLetter":"R","StopName":"Goddard Road","Latitude":51.395456,"Longitude":-0.042916,"Action":0},{"StopId":8707,"StopCode":"14978","PointLetter":"S","StopName":"The Close","Latitude":51.397635,"Longitude":-0.043614,"Action":0},{"StopId":8833,"StopCode":"31326","PointLetter":"J","StopName":"Elmers End Green","Latitude":51.399237,"Longitude":-0.043172,"Action":0},{"StopId":8734,"StopCode":"18794","PointLetter":"K","StopName":"Eden Park Avenue","Latitude":51.399592,"Longitude":-0.040699,"Action":0},{"StopId":8820,"StopCode":"1523","PointLetter":"","StopName":"Cromwell Road","Latitude":51.402629,"Longitude":-0.037319,"Action":0},{"StopId":8673,"StopCode":"18792","PointLetter":"L","StopName":"Beckenham Hospital","Latitude":51.404444,"Longitude":-0.034539,"Action":0},{"StopId":8805,"StopCode":"R0860","PointLetter":"T","StopName":"Croydon Road / War Memorial","Latitude":51.406704,"Longitude":-0.032587,"Action":0},{"StopId":8598,"StopCode":"19766","PointLetter":"BP","StopName":"Hayne Road","Latitude":51.407892,"Longitude":-0.035843,"Action":0},{"StopId":8710,"StopCode":"1522","PointLetter":"BN","StopName":"Clock House Station","Latitude":51.408637,"Longitude":-0.039507,"Action":0},{"StopId":8714,"StopCode":"19768","PointLetter":"BK","StopName":"Beckenham Road Tram Stop","Latitude":51.409388,"Longitude":-0.044091,"Action":0},{"StopId":8797,"StopCode":"BP2553","PointLetter":"BL","StopName":"Kent House Station","Latitude":51.410928,"Longitude":-0.047462,"Action":0},{"StopId":8813,"StopCode":"R0775","PointLetter":"","StopName":"Clevedon Road","Latitude":51.411939,"Longitude":-0.049346,"Action":0},{"StopId":8677,"StopCode":"19772","PointLetter":"K","StopName":"Penge / Sainsbury's","Latitude":51.412986,"Longitude":-0.051142,"Action":0},{"StopId":7200,"StopCode":"4783","PointLetter":"H","StopName":"Penge / Pawleyne Arms","Latitude":51.413320,"Longitude":-0.052321,"Action":0},{"StopId":6869,"StopCode":"17409","PointLetter":"J","StopName":"Avenue Road","Latitude":51.411562,"Longitude":-0.054740,"Action":0},{"StopId":6991,"StopCode":"17411","PointLetter":"K","StopName":"Anerley Road / Oak Grove Road","Latitude":51.409018,"Longitude":-0.058601,"Action":0},{"StopId":17481,"StopCode":"BP2760","PointLetter":"X","StopName":"Maple Road","Latitude":51.409332,"Longitude":-0.061262,"Action":0},{"StopId":17488,"StopCode":"6594","PointLetter":"Y","StopName":"Seymour Villas","Latitude":51.410019,"Longitude":-0.064238,"Action":0},{"StopId":7253,"StopCode":"6595","PointLetter":"H","StopName":"Anerley Road / Anerley Station","Latitude":51.411878,"Longitude":-0.066806,"Action":0},{"StopId":6897,"StopCode":"20751","PointLetter":"J","StopName":"Anerley Park","Latitude":51.413185,"Longitude":-0.068634,"Action":0},{"StopId":7042,"StopCode":"6597","PointLetter":"K","StopName":"Thicket Road","Latitude":51.414382,"Longitude":-0.070296,"Action":0},{"StopId":7137,"StopCode":"6599","PointLetter":"P","StopName":"Crystal Palace Station","Latitude":51.417351,"Longitude":-0.073694,"Action":0},{"StopId":7138,"StopCode":"6593","PointLetter":"F","StopName":"Anerley Hill / Crystal Palace","Latitude":51.419792,"Longitude":-0.077734,"Action":0},{"StopId":7054,"StopCode":"940","PointLetter":"C","StopName":"Crystal Palace Parade","Latitude":51.420835,"Longitude":-0.078265,"Action":0}], "Routes" : [{"Id":3465,"Route":"358","From":"Orpington Bus Station","Towards":"Crystal Palace Parade","Run":"1","IsDay":1,"encodedLevels":"P?A?@BE@B?F?B?BD?EAA?F@B?AAIAB?CCG@B@D@?CA@F?C@A@C?AC?@F?B?C@@I?@CA@CCDBAB?C?@BF?AEC@@B?C?B@I@B?@DAB?D?BACAAE@AB@AD??G@BAC@@AC@EA@?AA?DBGAB@@BAAE@D?@AH@C@AD?@F@B?A@B@AF??BJ?CAB@E@AAAEAB@@?D@@D@@B@G?C??AAF@@AE??B?AC?@C?AGABDB@CB?@H@B?B@@DBA?D@?@ACB?G@B?C??B??ABJ?B@AA@DB?G?A@E@@ACB@G?A@DB@D?I@BDA@CA@F?A?ACBD?AC@@C?IAC@@AA?B@FA?DCG?C@F@B?D@AH@AA@D@A@C@EA?BFABP","encodedPoints":"u{pxHknP\\WJEHDN?XEfEgCXsAXsBBiA?uBG}@IWUe@qCeHgBuHE]UcHaCsAiDwCqBeAi@_@`@mCnAeGDiDCGBy@LMP?NT@PATgDnQh@^vLpGFC\\\\?JR?tEjAxKdClF`BtHrC~At@dA|@xKxKNJN@@G\\EJb@LXlAlBd@`@vHbI`GzF\\L\\B~F[|Ik@nE{@BKJ?@XCPFp@MBcAtAs@lAqBlGiAl@Mz@PAFJDF@\\GREBcDfN_@dEiB~Vw@hLy@lOM~GJtAVjAXbCI~A]tKThDR`CBbCEVKb@g@hA{@bAOLiDtEu@rEkDxP]bAw@hBkDpHs@rAiD|E}CzFcEhJ{BlHeA|Bc@r@mAxAgAbAwCxBsAv@_FfEkAnBUh@mCxE{@p@[LkBn@oEn@iFlBeDxAsG`CcDz@iFhCoDpBmNrI_LvHuD|BuDbCiGvEyGbEYNeEnDgFjGiBfC}BhE}AfDaF~LgC`G}B|EsEbIsBxEcC~GkEpKA`@Gj@}AnLQTYTiAf@UDmBQSJ]PgAz@qHbFOg@m@qEEe@A_CBk@FIM[OgAAoAe@?gAEwFCeIb@Dh@|@hQZJLb@R`B@h@EZk@xAwDbIe@n@q@rBVxADzAEfAOpACr@BVLj@\\p@dAvCGl@Wt@iAhGKbA@lA@LlCpIJnABlAPdCPv@FzCVFDJ|Ab@fGtCXd@h@p@nDdGLRbBtEj@`AX\\jFfFhAnAnA`Cj@jA^pAv@dEt@fHb@pJg@pHUlJAvDAfKD`AFl@^bCJENHBZAPXPnChDpBxBn@LP[LADBNT@TN`AXbAf@x@~IlL^XZNp@JbHLFGd@QBDD?b@ZrJVlCDfHTlKf@A^CLILMBYGc@X{FtEwHvFwBfCa@|@aAvCe@nBQhAyE~\\Ex@?lAXnEd@`MDfFAhBMx@[x@ORcCxBmGzEkBjA_DnAqG|AyGrA_@~@e@~@U@KGqAiF?m@ZqANsAAcAQ_BMWs@eAaBsBwEaFuBuByDwEgHkMqD{E_@Eq@EkA]m@i@i@y@aEeFMBOP{@|AS`AYbCMrCaAjLi@fDsAjN}A|Qu@tFe@|B}AxEiF|LeFhLuBpD}ChBfUn]vA~BhCtFlBbFaAp@QVYp@GXQ~@c@rGqApJSh@eAbBwS~[kGpJmEjGw@~@oAhAqA|@qEzDqAdBqB~Co@lB]tAy@dESbDmAA]KwCaB","Color":"993333","hasRunTwo":1,"startPoint":{"Latitude":51.373558,"Longitude":0.089507},"endPoint":{"Latitude":51.421246,"Longitude":-0.077910}}]}


