{"Stops" : [{"StopId":17283,"StopCode":"W15","PointLetter":"B","StopName":"Selsdon Library","Latitude":51.342768,"Longitude":-0.062924,"Action":0},{"StopId":17373,"StopCode":"20644","PointLetter":"L","StopName":"Old Farleigh Road","Latitude":51.343870,"Longitude":-0.062145,"Action":0},{"StopId":17475,"StopCode":"19817","PointLetter":"M","StopName":"Selsdon Crescent","Latitude":51.345261,"Longitude":-0.059243,"Action":0},{"StopId":17438,"StopCode":"19819","PointLetter":"N","StopName":"Selsdon Primary School","Latitude":51.346856,"Longitude":-0.055155,"Action":0},{"StopId":17289,"StopCode":"19821","PointLetter":"Q","StopName":"Ashen Vale","Latitude":51.347471,"Longitude":-0.052056,"Action":0},{"StopId":17421,"StopCode":"20868","PointLetter":"","StopName":"Pixton Way","Latitude":51.347893,"Longitude":-0.048778,"Action":0},{"StopId":17562,"StopCode":"BP2600","PointLetter":"X","StopName":"Farnborough Crescent","Latitude":51.349571,"Longitude":-0.043724,"Action":0},{"StopId":17512,"StopCode":"BP2601","PointLetter":"Y","StopName":"Lomond Gardens","Latitude":51.350225,"Longitude":-0.045749,"Action":0},{"StopId":17328,"StopCode":"BP2602","PointLetter":"","StopName":"Heathfield Vale / Broadcoombe","Latitude":51.348529,"Longitude":-0.049225,"Action":0},{"StopId":17511,"StopCode":"BP2603","PointLetter":"","StopName":"Freelands Avenue","Latitude":51.350634,"Longitude":-0.051376,"Action":0},{"StopId":19695,"StopCode":"BP5297","PointLetter":"","StopName":"Shepherds Way","Latitude":51.352405,"Longitude":-0.052966,"Action":0},{"StopId":17465,"StopCode":"BP2604","PointLetter":"","StopName":"St Francis Church","Latitude":51.352041,"Longitude":-0.055998,"Action":0},{"StopId":19696,"StopCode":"BP5298","PointLetter":"","StopName":"Tedder Road","Latitude":51.350560,"Longitude":-0.055084,"Action":0},{"StopId":17510,"StopCode":"BP2605","PointLetter":"","StopName":"Edgecoombe","Latitude":51.349351,"Longitude":-0.053728,"Action":0},{"StopId":17588,"StopCode":"BP5042","PointLetter":"","StopName":"Heather Way","Latitude":51.348431,"Longitude":-0.051383,"Action":0},{"StopId":17509,"StopCode":"BP2606","PointLetter":"","StopName":"Heathfield Vale / Broadcoombe","Latitude":51.348701,"Longitude":-0.048758,"Action":0},{"StopId":17508,"StopCode":"BP2607","PointLetter":"Z","StopName":"Heathfield Vale / Farnborough Avenue","Latitude":51.350206,"Longitude":-0.046238,"Action":0},{"StopId":17288,"StopCode":"19823","PointLetter":"A","StopName":"John Ruskin College","Latitude":51.349731,"Longitude":-0.042554,"Action":0},{"StopId":8154,"StopCode":"25596","PointLetter":"B","StopName":"Gravel Hill","Latitude":51.352944,"Longitude":-0.037864,"Action":0},{"StopId":10417,"StopCode":"BP2331","PointLetter":"E","StopName":"Addington Village Interchange","Latitude":51.356398,"Longitude":-0.032531,"Action":0}], "Routes" : [{"Id":471,"Route":"359","From":"Selsdon Library","Towards":"Addington Village Interchange","Run":"1","IsDay":1,"encodedLevels":"PE@@BD@BF@ACA@D?CBI@AF?AEFBCBBBAF@B?D@B@HC@AC??E@B?BAGE?BAF??AH??B@E?CD@C@C@FD@?BP","encodedPoints":"u{jxHpdKLdFS_@g@c@_C_DeBcE_DcIoEeMsBkIa@mB}@uG_AwJ?aCOuEM}Aw@sFeCyRuAiHiAcC_@t@y@jC}BlJl@b@nAx@vCrChB~MgF|BiCjB}@fBuDxCs@PeBfB[j@Wx@SdAGt@GrBBjAN|A\\zB\\lARb@`@w@dA{Ad@]`@U\\K~GmD\\i@hBoER}@fB{Gt@aAF_@eD{VK[]e@mBqAkBwBNg@`@oBrBgI^u@i@iAcD_I_BiDkCoIc@gA_AeAIEgJoBM[u@gAmAk@kBgAu@_AsAaCmBwEAeADwAN{H]U","Color":"993333","hasRunTwo":1,"startPoint":{"Latitude":51.342831,"Longitude":-0.062328},"endPoint":{"Latitude":51.356451,"Longitude":-0.031850}}]}


