{"Stops" : [{"StopId":13840,"StopCode":"34982","PointLetter":"MA","StopName":"Orchard Village","Latitude":51.528603,"Longitude":0.167847,"Action":0},{"StopId":13773,"StopCode":"18388","PointLetter":"MC","StopName":"South Street","Latitude":51.525876,"Longitude":0.167991,"Action":0},{"StopId":14054,"StopCode":"BP4562","PointLetter":"J","StopName":"Askwith Road","Latitude":51.525125,"Longitude":0.171618,"Action":0},{"StopId":14468,"StopCode":"8510","PointLetter":"K","StopName":"Spencer Road","Latitude":51.524580,"Longitude":0.174331,"Action":0},{"StopId":13933,"StopCode":"18387","PointLetter":"L","StopName":"Betterton Road","Latitude":51.524088,"Longitude":0.176628,"Action":0},{"StopId":14002,"StopCode":"29926","PointLetter":"M","StopName":"Dunedin Road","Latitude":51.523420,"Longitude":0.181613,"Action":0},{"StopId":14373,"StopCode":"26558","PointLetter":"N","StopName":"Edmund Road","Latitude":51.524431,"Longitude":0.183334,"Action":0},{"StopId":14656,"StopCode":"26557","PointLetter":"P","StopName":"Stanley Road South","Latitude":51.526474,"Longitude":0.186156,"Action":0},{"StopId":14810,"StopCode":"26554","PointLetter":"F","StopName":"Rainham Road","Latitude":51.528696,"Longitude":0.189017,"Action":0},{"StopId":14946,"StopCode":"29339","PointLetter":"G","StopName":"Alexandra Road","Latitude":51.530508,"Longitude":0.190675,"Action":0},{"StopId":14006,"StopCode":"29409","PointLetter":"H","StopName":"Ford Lane","Latitude":51.534086,"Longitude":0.192231,"Action":0},{"StopId":14476,"StopCode":"29337","PointLetter":"U","StopName":"Mungo Park Road / South End Road","Latitude":51.536774,"Longitude":0.197508,"Action":0},{"StopId":14138,"StopCode":"29335","PointLetter":"V","StopName":"Kingaby Gardens","Latitude":51.538244,"Longitude":0.194925,"Action":0},{"StopId":14456,"StopCode":"29333","PointLetter":"W","StopName":"Freeborne Gardens","Latitude":51.541407,"Longitude":0.193145,"Action":0},{"StopId":13738,"StopCode":"29331","PointLetter":"X","StopName":"Wood Lane","Latitude":51.543760,"Longitude":0.194729,"Action":0},{"StopId":14837,"StopCode":"26550","PointLetter":"A","StopName":"Aldingham Gardens","Latitude":51.545221,"Longitude":0.195982,"Action":0},{"StopId":13970,"StopCode":"26548","PointLetter":"B","StopName":"Ambleside Avenue","Latitude":51.547833,"Longitude":0.199093,"Action":0},{"StopId":14246,"StopCode":"18381","PointLetter":"C","StopName":"Elm Park Station","Latitude":51.550289,"Longitude":0.199082,"Action":0},{"StopId":13762,"StopCode":"26546","PointLetter":"D","StopName":"Elm Parade","Latitude":51.551404,"Longitude":0.200030,"Action":0},{"StopId":14744,"StopCode":"25707","PointLetter":"","StopName":"Brian Close","Latitude":51.552342,"Longitude":0.202744,"Action":0},{"StopId":13921,"StopCode":"18427","PointLetter":"","StopName":"Abbs Cross School","Latitude":51.553604,"Longitude":0.206439,"Action":0},{"StopId":14379,"StopCode":"18426","PointLetter":"S","StopName":"Suttons Avenue","Latitude":51.555306,"Longitude":0.207734,"Action":0},{"StopId":14046,"StopCode":"18424","PointLetter":"T","StopName":"Stanley Road","Latitude":51.558280,"Longitude":0.208844,"Action":0},{"StopId":13975,"StopCode":"18422","PointLetter":"Y","StopName":"Abbs Cross Lane","Latitude":51.562803,"Longitude":0.211718,"Action":0},{"StopId":14503,"StopCode":"18031","PointLetter":"Z","StopName":"Harrow Lodge Park","Latitude":51.563303,"Longitude":0.208568,"Action":0},{"StopId":14188,"StopCode":"12905","PointLetter":"RE","StopName":"Hyland Way","Latitude":51.564688,"Longitude":0.201882,"Action":0},{"StopId":14731,"StopCode":"9772","PointLetter":"RF","StopName":"Park Lane","Latitude":51.565051,"Longitude":0.194036,"Action":0},{"StopId":13828,"StopCode":"37152","PointLetter":"RT","StopName":"Roneo Corner","Latitude":51.565427,"Longitude":0.187403,"Action":0},{"StopId":13787,"StopCode":"BP4885","PointLetter":"HM","StopName":"Queen's Hospital","Latitude":51.568609,"Longitude":0.181177,"Action":0},{"StopId":14643,"StopCode":"18289","PointLetter":"HE","StopName":"Rom Valley Way","Latitude":51.571696,"Longitude":0.182018,"Action":0},{"StopId":3626,"StopCode":"R0681","PointLetter":"X","StopName":"Romford Station","Latitude":51.573757,"Longitude":0.183863,"Action":0},{"StopId":3029,"StopCode":"34121","PointLetter":"P","StopName":"Western Road","Latitude":51.577009,"Longitude":0.183556,"Action":0},{"StopId":14518,"StopCode":"34116","PointLetter":"H","StopName":"Romford Market","Latitude":51.580524,"Longitude":0.181733,"Action":0},{"StopId":14170,"StopCode":"34141","PointLetter":"F","StopName":"The Avenue","Latitude":51.581520,"Longitude":0.176989,"Action":0},{"StopId":14445,"StopCode":"18245","PointLetter":"NA","StopName":"Park Drive","Latitude":51.582896,"Longitude":0.175539,"Action":0},{"StopId":14435,"StopCode":"4350","PointLetter":"NB","StopName":"Cedar Road","Latitude":51.585165,"Longitude":0.172948,"Action":0},{"StopId":14402,"StopCode":"18354","PointLetter":"NC","StopName":"Parklands School","Latitude":51.588236,"Longitude":0.171723,"Action":0},{"StopId":14382,"StopCode":"18355","PointLetter":"ND","StopName":"Hainault Road","Latitude":51.589652,"Longitude":0.168123,"Action":0},{"StopId":14894,"StopCode":"18358","PointLetter":"EK","StopName":"Hillfoot Road","Latitude":51.593325,"Longitude":0.165454,"Action":0},{"StopId":14701,"StopCode":"18360","PointLetter":"EL","StopName":"Hulse Avenue","Latitude":51.596239,"Longitude":0.163947,"Action":0},{"StopId":10403,"StopCode":"18421","PointLetter":"EM","StopName":"Collier Row / Nth Romford Community Ctr","Latitude":51.600466,"Longitude":0.163989,"Action":0},{"StopId":10406,"StopCode":"18419","PointLetter":"EN","StopName":"Burland Road","Latitude":51.603040,"Longitude":0.165310,"Action":0},{"StopId":10405,"StopCode":"20546","PointLetter":"","StopName":"Larchwood Avenue","Latitude":51.605308,"Longitude":0.165721,"Action":0},{"StopId":10408,"StopCode":"18417","PointLetter":"","StopName":"Hunters Grove","Latitude":51.607782,"Longitude":0.165622,"Action":0},{"StopId":14297,"StopCode":"34753","PointLetter":"","StopName":"Havering Park","Latitude":51.608806,"Longitude":0.165743,"Action":0}], "Routes" : [{"Id":3983,"Route":"365","From":"Orchard Village","Towards":"Havering Park","Run":"1","IsDay":1,"encodedLevels":"P@BGA??F?ABD?A@@B?I?CD?@BF?B@?D@CF??ADDHABA?CDDAH?BC@AD@?BB@EC@?@C??CAFAAG@?AA?@G?A??@AEA@D??A@K?D?BA@E?@CABD@A@AC?@C?@G@A?D?@?F@A@A@C?D?BE@C?A?CA??A??AE@BI?E@?@CB@AE??A?BF?@B@?AC?DBAG?B@H@A?AC@F@D?B@GA?B@A@D?A?E@@D?C@F@@BAH?BAC@BDAAAC@@AG@BC?ECCB?CDP","encodedPoints":"ofoyHey_@PVxBbBvKzExGoj@pAaKfDsV~AsMYMa@[cDkD]w@Ia@Go@CmBFoAAw@I[K]OO{JeHkGgHYo@wCcFa@}@yDmFc@UYIqDYy@A_FYaCaAi@[sC_DQSaAgBWm@{@eCwAeN_GkJ}@nBgBdGa@t@}@~@aAjAmB|FcDpFi@RmADm@McA_@iDsBm@o@}AwBsAeAe@Oa@GyEaACa@[Fa@GiEmF_A[E@OCMKGSAQe@}AiHeJqDoDiMlEGXK?GK@QBKoAkFuFiUqBmIaCiJs@]i@S}GmBOGuF_B_B]yFwBoAeAcIyDm@c@g@k@Ya@oG_IUQQGBbADdLKv@uCnOeChJ{A`ICn@A`@PlG?bDKfD_AlLGpF@pGRtOCvDKfCDvGPN`@NTR?XCfBSjCYR[BSLYZKz@]hGCpAKjBUFe@?IGWCcAEa@BoAVoA^aAj@_@ZsBfCg@dACR?p@BJj@pAFX?`AEVCFObAA~@Bj@@z@Mr@SNa@DmF|GkBvAa@TMc@WgBIw@Qk@Ua@c@@OISc@AM?SB_@Ha@BEkAaQUPq@TO@WCSG[S_AKYD_En@{E|AgAbAsDlBaFgNe@uAu@kAKCi@POLa@f@yFzFy@^O^c@dBKnBOtKP`ApBlKFv@ETSXKDQ@w@KOKu@?IFcAnAmFbG{JrKoGtGU@g@MwBG_B~@eGfDy@FkCn@GVeAfNEpA}@~HKJa@PqE~Ak@@oHnBeAj@kEjC{DvAiA\\uCb@e@G{FbAGFwFjB?Fg@Bc@u@SOiHmEsFwBuHmCmQEmDFWf@[e@AGqBVpBW","Color":"993333","hasRunTwo":1,"startPoint":{"Latitude":51.528887,"Longitude":0.168036},"endPoint":{"Latitude":51.608003,"Longitude":0.165752}},{"Id":3756,"Route":"365","From":"Orchard Village","Towards":"Havering Park","Run":"1","IsDay":0,"encodedLevels":"P@BGA??F?ABD?A@@B?I?CD?@BF?B@?D@CF??ADDHABA?CDDAH?BC@AD@?BB@EC@?@C??CAFAAG@?AA?@G?A??@AEA@D??A@K?D?BA@E?@CABD@A@AC?@C?@G@A?D?@?F@A@A@C?D?BE@C?A?CA??A??AE@BI?E@?@CB@AE??A?BF?@B@?AC?DBAG?B@H@A?AC@F@D?B@GA?B@A@D?A?E@@D?C@F@@BAH?BAC@BDAAAC@@AG@BC?ECCB?CDP","encodedPoints":"ofoyHey_@PVxBbBvKzExGoj@pAaKfDsV~AsMYMa@[cDkD]w@Ia@Go@CmBFoAAw@I[K]OO{JeHkGgHYo@wCcFa@}@yDmFc@UYIqDYy@A_FYaCaAi@[sC_DQSaAgBWm@{@eCwAeN_GkJ}@nBgBdGa@t@}@~@aAjAmB|FcDpFi@RmADm@McA_@iDsBm@o@}AwBsAeAe@Oa@GyEaACa@[Fa@GiEmF_A[E@OCMKGSAQe@}AiHeJqDoDiMlEGXK?GK@QBKoAkFuFiUqBmIaCiJs@]i@S}GmBOGuF_B_B]yFwBoAeAcIyDm@c@g@k@Ya@oG_IUQQGBbADdLKv@uCnOeChJ{A`ICn@A`@PlG?bDKfD_AlLGpF@pGRtOCvDKfCDvGPN`@NTR?XCfBSjCYR[BSLYZKz@]hGCpAKjBUFe@?IGWCcAEa@BoAVoA^aAj@_@ZsBfCg@dACR?p@BJj@pAFX?`AEVCFObAA~@Bj@@z@Mr@SNa@DmF|GkBvAa@TMc@WgBIw@Qk@Ua@c@@OISc@AM?SB_@Ha@BEkAaQUPq@TO@WCSG[S_AKYD_En@{E|AgAbAsDlBaFgNe@uAu@kAKCi@POLa@f@yFzFy@^O^c@dBKnBOtKP`ApBlKFv@ETSXKDQ@w@KOKu@?IFcAnAmFbG{JrKoGtGU@g@MwBG_B~@eGfDy@FkCn@GVeAfNEpA}@~HKJa@PqE~Ak@@oHnBeAj@kEjC{DvAiA\\uCb@e@G{FbAGFwFjB?Fg@Bc@u@SOiHmEsFwBuHmCmQEmDFWf@[e@AGqBVpBW","Color":"663366","hasRunTwo":1,"startPoint":{"Latitude":51.528887,"Longitude":0.168036},"endPoint":{"Latitude":51.608003,"Longitude":0.165752}}]}


