{"Stops" : [{"StopId":11789,"StopCode":"BP4691","PointLetter":"L","StopName":"Putney Heath / Green Man","Latitude":51.453513,"Longitude":-0.221144,"Action":0},{"StopId":11505,"StopCode":"35335","PointLetter":"M","StopName":"Putney Hill / Green Man","Latitude":51.454183,"Longitude":-0.220240,"Action":0},{"StopId":11434,"StopCode":"17602","PointLetter":"N","StopName":"Lytton Grove","Latitude":51.457289,"Longitude":-0.218723,"Action":0},{"StopId":11372,"StopCode":"BP4412","PointLetter":"C","StopName":"St John's Avenue","Latitude":51.459959,"Longitude":-0.217511,"Action":0},{"StopId":11714,"StopCode":"29","PointLetter":"F","StopName":"Putney Station","Latitude":51.460589,"Longitude":-0.215759,"Action":0},{"StopId":11324,"StopCode":"2371","PointLetter":"EA","StopName":"East Putney Station","Latitude":51.459584,"Longitude":-0.211206,"Action":0},{"StopId":11796,"StopCode":"R0166","PointLetter":"ED","StopName":"Manfred Road","Latitude":51.457622,"Longitude":-0.206388,"Action":0},{"StopId":11327,"StopCode":"2367","PointLetter":"EE","StopName":"Galveston Road","Latitude":51.456766,"Longitude":-0.203341,"Action":0},{"StopId":11821,"StopCode":"2365","PointLetter":"A","StopName":"Wandsworth Museum","Latitude":51.456959,"Longitude":-0.199476,"Action":0},{"StopId":11784,"StopCode":"BP252","PointLetter":"E","StopName":"Armoury Way","Latitude":51.458479,"Longitude":-0.195990,"Action":0},{"StopId":11504,"StopCode":"33272","PointLetter":"N","StopName":"Wandsworth Town Hall","Latitude":51.457639,"Longitude":-0.189891,"Action":0},{"StopId":11360,"StopCode":"597","PointLetter":"A","StopName":"East Hill / Alma Road","Latitude":51.457706,"Longitude":-0.185498,"Action":0},{"StopId":11741,"StopCode":"8966","PointLetter":"B","StopName":"Marcilly Road","Latitude":51.459571,"Longitude":-0.180472,"Action":0},{"StopId":11358,"StopCode":"8970","PointLetter":"C","StopName":"Plough Road","Latitude":51.461336,"Longitude":-0.174298,"Action":0},{"StopId":21357,"StopCode":"BP5645","PointLetter":"C","StopName":"Clapham Junction Station","Latitude":51.463038,"Longitude":-0.170415,"Action":0},{"StopId":1902,"StopCode":"140","PointLetter":"T","StopName":"Clapham Junction / The Falcon","Latitude":51.463085,"Longitude":-0.167663,"Action":0},{"StopId":1846,"StopCode":"35707","PointLetter":"Y","StopName":"Clapham Junction / The Northcote","Latitude":51.461271,"Longitude":-0.167218,"Action":0},{"StopId":10370,"StopCode":"12842","PointLetter":"","StopName":"Eccles Road","Latitude":51.461093,"Longitude":-0.162748,"Action":0},{"StopId":10361,"StopCode":"12844","PointLetter":"","StopName":"Sisters Avenue","Latitude":51.461377,"Longitude":-0.158533,"Action":0},{"StopId":10360,"StopCode":"12846","PointLetter":"U","StopName":"Forthbridge Road","Latitude":51.461320,"Longitude":-0.153770,"Action":0},{"StopId":10359,"StopCode":"12848","PointLetter":"V","StopName":"Cedars Road","Latitude":51.461360,"Longitude":-0.149997,"Action":0},{"StopId":10335,"StopCode":"9365","PointLetter":"Y","StopName":"Rookery Road","Latitude":51.461307,"Longitude":-0.144931,"Action":0},{"StopId":10334,"StopCode":"9368","PointLetter":"L","StopName":"Long Road / Clapham Common","Latitude":51.461219,"Longitude":-0.141120,"Action":0},{"StopId":10216,"StopCode":"25991","PointLetter":"E","StopName":"Clapham Common Station","Latitude":51.461433,"Longitude":-0.138722,"Action":0},{"StopId":7195,"StopCode":"4857","PointLetter":"H","StopName":"Park Hill","Latitude":51.459498,"Longitude":-0.133532,"Action":0},{"StopId":6976,"StopCode":"1667","PointLetter":"E","StopName":"Bedford Road","Latitude":51.459718,"Longitude":-0.130413,"Action":0},{"StopId":8541,"StopCode":"12830","PointLetter":"F","StopName":"Solon Road","Latitude":51.459648,"Longitude":-0.124327,"Action":0},{"StopId":8564,"StopCode":"12832","PointLetter":"G","StopName":"Belvedere Place","Latitude":51.460232,"Longitude":-0.119797,"Action":0},{"StopId":8425,"StopCode":"35254","PointLetter":"A","StopName":"Lambeth Town Hall","Latitude":51.460961,"Longitude":-0.117061,"Action":0},{"StopId":21140,"StopCode":"BP5558","PointLetter":"ZA","StopName":"St Matthews Church","Latitude":51.460334,"Longitude":-0.115503,"Action":0},{"StopId":7345,"StopCode":"13247","PointLetter":"A","StopName":"St Matthews Estate","Latitude":51.458154,"Longitude":-0.114758,"Action":0},{"StopId":7196,"StopCode":"484","PointLetter":"B","StopName":"Morval Road","Latitude":51.456309,"Longitude":-0.114100,"Action":0},{"StopId":8685,"StopCode":"R0519","PointLetter":"Q","StopName":"Dalberg Road / Effra Parade","Latitude":51.455952,"Longitude":-0.110891,"Action":0},{"StopId":8740,"StopCode":"13249","PointLetter":"R","StopName":"Milton Road","Latitude":51.454119,"Longitude":-0.107627,"Action":0},{"StopId":8636,"StopCode":"13251","PointLetter":"Z","StopName":"Brockwell Lido","Latitude":51.453336,"Longitude":-0.105356,"Action":0},{"StopId":11513,"StopCode":"436","PointLetter":"N","StopName":"Herne Hill Station","Latitude":51.452488,"Longitude":-0.102412,"Action":0},{"StopId":11647,"StopCode":"720","PointLetter":"D","StopName":"Herne Hill","Latitude":51.453005,"Longitude":-0.100491,"Action":0},{"StopId":11578,"StopCode":"13402","PointLetter":"X","StopName":"Ruskin Walk","Latitude":51.452941,"Longitude":-0.097082,"Action":0},{"StopId":11579,"StopCode":"13405","PointLetter":"VZ","StopName":"Beckwith Road","Latitude":51.453420,"Longitude":-0.091708,"Action":0},{"StopId":11816,"StopCode":"37306","PointLetter":"VB","StopName":"North Dulwich Station","Latitude":51.453379,"Longitude":-0.087564,"Action":0},{"StopId":11389,"StopCode":"13410","PointLetter":"VC","StopName":"Townley Road","Latitude":51.455193,"Longitude":-0.084653,"Action":0},{"StopId":11356,"StopCode":"1430","PointLetter":"T","StopName":"Dulwich Hospital","Latitude":51.458219,"Longitude":-0.081590,"Action":0},{"StopId":11503,"StopCode":"BP4840","PointLetter":"U","StopName":"Derwent Grove","Latitude":51.459291,"Longitude":-0.078393,"Action":0},{"StopId":6914,"StopCode":"26046","PointLetter":"J","StopName":"Goose Green","Latitude":51.460194,"Longitude":-0.075331,"Action":0},{"StopId":10772,"StopCode":"26090","PointLetter":"G","StopName":"East Dulwich Road / Goose Green","Latitude":51.461189,"Longitude":-0.073504,"Action":0},{"StopId":10984,"StopCode":"26091","PointLetter":"WH","StopName":"Oakhurst Grove","Latitude":51.461909,"Longitude":-0.069703,"Action":0},{"StopId":10747,"StopCode":"1494","PointLetter":"WJ","StopName":"East Dulwich Road / Peckham Rye","Latitude":51.462306,"Longitude":-0.067641,"Action":0},{"StopId":3262,"StopCode":"1727","PointLetter":"WM","StopName":"Nigel Road","Latitude":51.465902,"Longitude":-0.066467,"Action":0},{"StopId":3127,"StopCode":"13782","PointLetter":"X","StopName":"Heaton Road","Latitude":51.467956,"Longitude":-0.067216,"Action":0},{"StopId":3140,"StopCode":"13780","PointLetter":"U","StopName":"Peckham Rye Station","Latitude":51.470403,"Longitude":-0.068926,"Action":0},{"StopId":3106,"StopCode":"33440","PointLetter":"M","StopName":"The Aylesham Centre","Latitude":51.472221,"Longitude":-0.067914,"Action":0},{"StopId":6956,"StopCode":"BP1344","PointLetter":"","StopName":"Peckham Bus Station","Latitude":51.473534,"Longitude":-0.066850,"Action":0}], "Routes" : [{"Id":8457,"Route":"37","From":"Putney Heath / Green Man","Towards":"Peckham Bus Station","Run":"1","IsDay":1,"encodedLevels":"P@BD@A?CBBH@ABEACBAF?C?ED?BADAE?BB?BFD?ACB?H?DAA?D?@AD@@D?AIA@D?CG?A@D@A@BECF?A?CF@@B?CAB?EC@?@GA?AB@?G@?EA?@C?@D?BGB@D@B?D@@C?D?@AEB@ABI@B?A?DCAC?F?@C@?EAB??E@?B@AB@@B?H?AAC?@FABC@?@BGBF?EDBAP","encodedPoints":"_o`yHxej@Ow@u@kB{@e@eEcBqK{DiJiEaA]uDk@_Bu@Ka@E]H{@lE}]vAqGp@sCpCwItC_HvAsBb@{AHmBTgNYaHa@oLYwCIKWKeAb@_@EWSo@eD_BsKK_Aw@gJDw@@gEe@eB@eB~@QrD_AvBu@hAo@BO?Ym@iFeBqPk@kCoCyHg@eBuAmF]_B_A_G_DgTqAmGsCkGmDuI_@mAg@_C}BcM{@}C^BtC_@fF]bBu@jAe@Fw@G{De@}Re@oOSiE?sJLea@IcKAqN`@en@OeD}CcFFUf@eAlEwGzAiCzDcK?[g@yCIcAQoJOiEBkN`@iOAcAKqBw@mMeAeHcB_Kk@qCk@yDd@SVBZAtBa@bLoChEkA|FyAcBiOAQBMLUJIXKlBaBFW|@cBtB_Fl@gBjBwG`E}QjAaHDaBAwAc@S{@q@EQEc@CqBTmNAs@uAc\\i@uNMk@a@qAk@yA}@{AhAiCPUrAgAp@YCc@Og@a@u@m@w@wDqEqE}HW_@cBgBcDgA_CkAe@s@M[aA}Cs@aCsBmI}AgMGy@o@{F{CZMNE?MIAEAYBIHIUiAqA{L[yE_A{GWeAmAeJO{CKsA[AaCSuGCqG]OEYSqC{@YPaCjDoBtAgDjBgG|Da@ZuEpCy@BQCsAkXgBB_E?AbGz@C\\NBX","Color":"993333","hasRunTwo":1,"startPoint":{"Latitude":51.453443,"Longitude":-0.221241},"endPoint":{"Latitude":51.473450,"Longitude":-0.067166}},{"Id":8340,"Route":"37","From":"Putney Heath / Green Man","Towards":"Peckham Bus Station","Run":"1","IsDay":0,"encodedLevels":"P@BD@A?CBBH@ABEACBAF?C?ED?BADAE?BB?BFD?ACB?H?DAA?D?@AD@@D?AIA@D?CG?A@D@A@BECF?A?CF@@B?CAB?EC@?@GA?AB@?G@?EA?@C?@D?BGB@D@B?D@@C?D?@AEB@ABI@B?A?DCAC?F?@C@?EAB??E@?B@AB@@B?H?AAC?@FABC@?@BGBF?EDBAP","encodedPoints":"_o`yHxej@Ow@u@kB{@e@eEcBqK{DiJiEaA]uDk@_Bu@Ka@E]H{@lE}]vAqGp@sCpCwItC_HvAsBb@{AHmBTgNYaHa@oLYwCIKWKeAb@_@EWSo@eD_BsKK_Aw@gJDw@@gEe@eB@eB~@QrD_AvBu@hAo@BO?Ym@iFeBqPk@kCoCyHg@eBuAmF]_B_A_G_DgTqAmGsCkGmDuI_@mAg@_C}BcM{@}C^BtC_@fF]bBu@jAe@Fw@G{De@}Re@oOSiE?sJLea@IcKAqN`@en@OeD}CcFFUf@eAlEwGzAiCzDcK?[g@yCIcAQoJOiEBkN`@iOAcAKqBw@mMeAeHcB_Kk@qCk@yDd@SVBZAtBa@bLoChEkA|FyAcBiOAQBMLUJIXKlBaBFW|@cBtB_Fl@gBjBwG`E}QjAaHDaBAwAc@S{@q@EQEc@CqBTmNAs@uAc\\i@uNMk@a@qAk@yA}@{AhAiCPUrAgAp@YCc@Og@a@u@m@w@wDqEqE}HW_@cBgBcDgA_CkAe@s@M[aA}Cs@aCsBmI}AgMGy@o@{F{CZMNE?MIAEAYBIHIUiAqA{L[yE_A{GWeAmAeJO{CKsA[AaCSuGCqG]OEYSqC{@YPaCjDoBtAgDjBgG|Da@ZuEpCy@BQCsAkXgBB_E?AbGz@C\\NBX","Color":"663366","hasRunTwo":1,"startPoint":{"Latitude":51.453443,"Longitude":-0.221241},"endPoint":{"Latitude":51.473450,"Longitude":-0.067166}}]}


