{"Stops" : [{"StopId":9792,"StopCode":"80007","PointLetter":"","StopName":"Quinta Drive","Latitude":51.646686,"Longitude":-0.222684,"Action":0},{"StopId":20831,"StopCode":"HC88","PointLetter":"","StopName":"Hail & Ride Section","Latitude":51.650988,"Longitude":-0.216401,"Action":0},{"StopId":21714,"StopCode":"BP5695","PointLetter":"A","StopName":"Barnet Hospital","Latitude":51.651881,"Longitude":-0.214226,"Action":0},{"StopId":1956,"StopCode":"12088","PointLetter":"","StopName":"Union Street","Latitude":51.653043,"Longitude":-0.207285,"Action":0},{"StopId":20828,"StopCode":"HC89","PointLetter":"","StopName":"Hail & Ride Section","Latitude":51.655795,"Longitude":-0.204357,"Action":0},{"StopId":9794,"StopCode":"80002","PointLetter":"T","StopName":"Salisbury Road","Latitude":51.654986,"Longitude":-0.204346,"Action":0},{"StopId":9755,"StopCode":"80003","PointLetter":"D","StopName":"Barnet High Street","Latitude":51.654340,"Longitude":-0.201494,"Action":0},{"StopId":1119,"StopCode":"14927","PointLetter":"H","StopName":"Barnet High Street / Barnet Church","Latitude":51.652626,"Longitude":-0.198786,"Action":0},{"StopId":990,"StopCode":"1478","PointLetter":"N","StopName":"High Barnet Station/Meadway","Latitude":51.651364,"Longitude":-0.196871,"Action":0},{"StopId":968,"StopCode":"9923","PointLetter":"R","StopName":"High Barnet Station","Latitude":51.649356,"Longitude":-0.193192,"Action":0},{"StopId":969,"StopCode":"9921","PointLetter":"A","StopName":"Potters Lane","Latitude":51.647212,"Longitude":-0.188261,"Action":0},{"StopId":2019,"StopCode":"3807","PointLetter":"B","StopName":"Barnet Odeon","Latitude":51.647026,"Longitude":-0.186664,"Action":0},{"StopId":20826,"StopCode":"HC90","PointLetter":"","StopName":"Hail & Ride Section","Latitude":51.643842,"Longitude":-0.178509,"Action":0},{"StopId":9717,"StopCode":"16993","PointLetter":"","StopName":"Monks Avenue","Latitude":51.643611,"Longitude":-0.174096,"Action":0},{"StopId":21365,"StopCode":"H0744","PointLetter":"","StopName":"Hail & Ride New Barnet Station","Latitude":51.648646,"Longitude":-0.173474,"Action":0},{"StopId":1216,"StopCode":"18115","PointLetter":"C","StopName":"New Barnet Sainsbury's","Latitude":51.649875,"Longitude":-0.171546,"Action":0},{"StopId":1126,"StopCode":"18117","PointLetter":"BA","StopName":"Victoria Road","Latitude":51.647548,"Longitude":-0.167621,"Action":0},{"StopId":20830,"StopCode":"HC91","PointLetter":"","StopName":"Hail & Ride Section","Latitude":51.650274,"Longitude":-0.149889,"Action":0},{"StopId":12994,"StopCode":"BP1317","PointLetter":"","StopName":"Cockfosters Station","Latitude":51.651445,"Longitude":-0.150030,"Action":0}], "Routes" : [{"Id":9551,"Route":"384","From":"Quinta Drive","Towards":"Cockfosters Station","Run":"1","IsDay":1,"encodedLevels":"P@?CC@CDG?BAGAEG@?C?D?BAB?C@B?A@?FA?GBB?AF?A@CHFEB?EB?E?@CAB?@F@?AEA?C?@@EFACAIBAHACAEC?FC@H@D??CEIAB?DABAFB@C?@@F?@C@?E@F@B@AF@B@D?AH?A?CAE@C?@D@DA?FDAB?DBE?AGB?F@B?D?ECA@DA?C?A?D@D?@B?FA@CAFBA?P","encodedPoints":"}efzHfpj@MWEYA[j@X`AuDlCsIvCsFs@wAk@s@kCwDeAcCoBgDkCxHuAdCaIbDK{@I_@M[m@cAcJcN[w@E[VIFY?KSkAGMa@WQq@cBmFi@oAGKOIDaIMgI[wKU@g@jAcJnE{@d@]FYIEEY_@]w@uCsJvAsKrG`Ch@qF@o@XwIxDe@PM^e@JYf@cClByGjB}DjG}KxAeD~GcOdE}JrAoGPc@n@cDTsBLuGA_AIiBGo@UuAU}@UwBtL_g@hCtB`EvBRKLc@_@qOEgKJ}LaHdA_Dt@sIbCyGzBiBhBUdAY|Bs@G[iCk@kI`DyK|AoErCqDX[bGmHrCmAvDeNkAWqFc@o@AcBBuBRgDn@cAXgB|@}AzA_@j@aAlBSh@e@fBQfAcBrFSEYQ_@_@_@w@I]o@iBeCn@cDhAHrBfAtO@XG^OXOF{AEg@M]QQQg@}@Sw@Kk@E_@Ai@@i@T{B^qAh@{@NMPGXCbA?IsB@s@bADn@Ih@OS{Bm@JiBC[MWQ{B{BiFwHEK?Qp@eD~CcNZg@NOf@WZGlBKt@ANNpAlBt@iBOaAByADMTa@XULCX@JFFDVXz@qA~D}Gx@mBt@wBbA{Cz@_EFg@HuA@gDGgDSoCqB_PiEpCE^GLUN","Color":"993333","hasRunTwo":1,"startPoint":{"Latitude":51.646552,"Longitude":-0.222915},"endPoint":{"Latitude":51.651597,"Longitude":-0.150135}}]}


