{"Stops" : [{"StopId":9397,"StopCode":"33985","PointLetter":"W","StopName":"Archway Station","Latitude":51.564831,"Longitude":-0.134776,"Action":0},{"StopId":9303,"StopCode":"11419","PointLetter":"TL","StopName":"Pemberton Gardens","Latitude":51.562041,"Longitude":-0.136333,"Action":0},{"StopId":9441,"StopCode":"11417","PointLetter":"TM","StopName":"Monnery Road","Latitude":51.559756,"Longitude":-0.137408,"Action":0},{"StopId":9394,"StopCode":"4717","PointLetter":"TN","StopName":"Tufnell Park Station","Latitude":51.557778,"Longitude":-0.137950,"Action":0},{"StopId":10052,"StopCode":"18851","PointLetter":"TC","StopName":"Tufnell Park Station/ Brecknock Road","Latitude":51.556229,"Longitude":-0.137811,"Action":0},{"StopId":10065,"StopCode":"18853","PointLetter":"TD","StopName":"Carleton Road","Latitude":51.553224,"Longitude":-0.133794,"Action":0},{"StopId":10079,"StopCode":"18855","PointLetter":"J","StopName":"Hilldrop Road","Latitude":51.551886,"Longitude":-0.131613,"Action":0},{"StopId":6638,"StopCode":"18857","PointLetter":"K","StopName":"Camden Road","Latitude":51.549191,"Longitude":-0.129574,"Action":0},{"StopId":6640,"StopCode":"18858","PointLetter":"L","StopName":"York Way","Latitude":51.548533,"Longitude":-0.128303,"Action":0},{"StopId":6637,"StopCode":"18860","PointLetter":"M","StopName":"Camden Park Road","Latitude":51.546311,"Longitude":-0.126606,"Action":0},{"StopId":9763,"StopCode":"7800","PointLetter":"N","StopName":"Brewery Road","Latitude":51.544315,"Longitude":-0.126068,"Action":0},{"StopId":10099,"StopCode":"18862","PointLetter":"P","StopName":"Vale Royal / Maiden Lane","Latitude":51.541868,"Longitude":-0.125433,"Action":0},{"StopId":10042,"StopCode":"BP4674","PointLetter":"A","StopName":"York Way Railway Bridge","Latitude":51.539844,"Longitude":-0.124795,"Action":0},{"StopId":10059,"StopCode":"18864","PointLetter":"B","StopName":"Randell's Road","Latitude":51.538229,"Longitude":-0.122785,"Action":0},{"StopId":10169,"StopCode":"33153","PointLetter":"C","StopName":"York Way / Kings Place","Latitude":51.535971,"Longitude":-0.122215,"Action":0},{"StopId":3197,"StopCode":"BP1998","PointLetter":"J","StopName":"Wharfdale Road / London Canal Museum","Latitude":51.533593,"Longitude":-0.121404,"Action":0},{"StopId":2995,"StopCode":"2780","PointLetter":"H","StopName":"King's Cross Station  / Pentonville Road","Latitude":51.531480,"Longitude":-0.120843,"Action":0},{"StopId":23,"StopCode":"183","PointLetter":"R","StopName":"King's Cross Station","Latitude":51.530507,"Longitude":-0.121863,"Action":0},{"StopId":173,"StopCode":"14736","PointLetter":"A","StopName":"St Pancras International Station","Latitude":51.529417,"Longitude":-0.125109,"Action":0},{"StopId":253,"StopCode":"27622","PointLetter":"B","StopName":"British Library","Latitude":51.528172,"Longitude":-0.128274,"Action":0},{"StopId":250,"StopCode":"20917","PointLetter":"H","StopName":"Euston Station","Latitude":51.526449,"Longitude":-0.132958,"Action":0},{"StopId":22,"StopCode":"672","PointLetter":"P","StopName":"Euston Square Station","Latitude":51.525813,"Longitude":-0.134858,"Action":0},{"StopId":254,"StopCode":"29674","PointLetter":"N","StopName":"University College Hospital","Latitude":51.524105,"Longitude":-0.134308,"Action":0},{"StopId":150,"StopCode":"BP2167","PointLetter":"C","StopName":"Torrington Place","Latitude":51.522916,"Longitude":-0.133016,"Action":0},{"StopId":76,"StopCode":"29676","PointLetter":"D","StopName":"Chenies Street","Latitude":51.521213,"Longitude":-0.131168,"Action":0},{"StopId":181,"StopCode":"29735","PointLetter":"R","StopName":"Great Russell Street","Latitude":51.518395,"Longitude":-0.128098,"Action":0},{"StopId":46,"StopCode":"35030","PointLetter":"X","StopName":"Tottenham Court Road Station","Latitude":51.516686,"Longitude":-0.128096,"Action":0},{"StopId":218,"StopCode":"165","PointLetter":"YB","StopName":"Oxford Street / Soho Street","Latitude":51.516231,"Longitude":-0.132251,"Action":0},{"StopId":234,"StopCode":"831","PointLetter":"ON","StopName":"Wardour Street","Latitude":51.515812,"Longitude":-0.136477,"Action":0},{"StopId":117,"StopCode":"33924","PointLetter":"OP","StopName":"Gt Titchfield St / Photographers Gallery","Latitude":51.515471,"Longitude":-0.139893,"Action":0},{"StopId":1580,"StopCode":"14799","PointLetter":"OS","StopName":"Old Cavendish Street","Latitude":51.514657,"Longitude":-0.146412,"Action":0},{"StopId":1564,"StopCode":"170","PointLetter":"BY","StopName":"Selfridges","Latitude":51.513941,"Longitude":-0.152897,"Action":0},{"StopId":1661,"StopCode":"180","PointLetter":"P","StopName":"Marble Arch Station","Latitude":51.513457,"Longitude":-0.157587,"Action":0},{"StopId":1559,"StopCode":"189","PointLetter":"A","StopName":"Marble Arch / Bayswater Road","Latitude":51.512836,"Longitude":-0.163290,"Action":0},{"StopId":1592,"StopCode":"1644","PointLetter":"B","StopName":"Hyde Park Street","Latitude":51.512470,"Longitude":-0.166893,"Action":0},{"StopId":1593,"StopCode":"3235","PointLetter":"LD","StopName":"Victoria Gate","Latitude":51.512050,"Longitude":-0.171104,"Action":0},{"StopId":1594,"StopCode":"91","PointLetter":"LC","StopName":"Lancaster Gate Station","Latitude":51.511649,"Longitude":-0.174838,"Action":0},{"StopId":1640,"StopCode":"865","PointLetter":"LG","StopName":"Leinster Terrace","Latitude":51.510797,"Longitude":-0.180724,"Action":0},{"StopId":1595,"StopCode":"3237","PointLetter":"D","StopName":"Porchester Terrace","Latitude":51.510408,"Longitude":-0.184097,"Action":0},{"StopId":1596,"StopCode":"690","PointLetter":"A","StopName":"Queensway Station","Latitude":51.510104,"Longitude":-0.188274,"Action":0},{"StopId":1597,"StopCode":"3239","PointLetter":"S","StopName":"Palace Court","Latitude":51.509931,"Longitude":-0.191076,"Action":0},{"StopId":2710,"StopCode":"1266","PointLetter":"K","StopName":"Palace Gardens Terrace / Notting Hill Gt","Latitude":51.509094,"Longitude":-0.193948,"Action":0}], "Routes" : [{"Id":5021,"Route":"390","From":"Archway Station","Towards":"Palace Gardens Terrace / Notting Hill Gt","Run":"1","IsDay":1,"encodedLevels":"P?D?ABHAD@C?AC?ADB@BE?BAB@GAB?D?@C?EABABDAEA?G?AAI@@D?A@?A?FA@B@DA?B@@@I?C?J@B??@A@B@@@@@@A@B??@@EAD?AB?C?EDE?@???C@?C?@AAEE@P","encodedPoints":"uivyHzhYjYrMfCfAtDh@vGdAhA\\dE\\zCaCrCcD`@cB|A_Fl@c@nCcCn@_Ax@wAvFoKj@aBb@i@j@K`AEjHuDx@kAZi@lAmDpAmClAuA`@[tAc@~GsA`JuA|ImARG|A{@tEkBzBHf@Aj@St@eA\\m@h@uChAkAfBy@`EcAfEQxB?zIDFEDO@oOLqCH?vC|DzDrE`@Hv@JzABh@IN?DBFLDPMh@MlA@tDDPrCdIlBhGhDpLvD|N`ChIdBrHhDdMlHcIt`@sc@xEgEnBaBPfCfAvKFhA@fAAb@XhKr@rMn@fODDHbAEPD|@FNTnGx@lND@xCvf@n@|LH~Bt@fNr@pQV~DXdBNJH@HA|@a@TJNLFXJ~Af@zKcCtE^|Fj@zKT`Fp@nM`Bf^V|EfAvOxAtPdA`NLjDXxKd@|L^hRZzElAlKlB_@~@]","Color":"993333","hasRunTwo":1,"startPoint":{"Latitude":51.565233,"Longitude":-0.134697},"endPoint":{"Latitude":51.508625,"Longitude":-0.193845}},{"Id":1104,"Route":"390","From":"Archway Station","Towards":"Palace Gardens Terrace / Notting Hill Gt","Run":"1","IsDay":0,"encodedLevels":"P?D?ABHAD@C?AC?ADB@BE?BAB@GAB?D?@C?EABABDAEA?G?AAI@@D?A@?A?FA@B@DA?B@@@I?C?J@B??@A@B@@@@@@A@B??@@EAD?AB?C?EDE?@???C@?C?@AAEE@P","encodedPoints":"uivyHzhYjYrMfCfAtDh@vGdAhA\\dE\\zCaCrCcD`@cB|A_Fl@c@nCcCn@_Ax@wAvFoKj@aBb@i@j@K`AEjHuDx@kAZi@lAmDpAmClAuA`@[tAc@~GsA`JuA|ImARG|A{@tEkBzBHf@Aj@St@eA\\m@h@uChAkAfBy@`EcAfEQxB?zIDFEDO@oOLqCH?vC|DzDrE`@Hv@JzABh@IN?DBFLDPMh@MlA@tDDPrCdIlBhGhDpLvD|N`ChIdBrHhDdMlHcIt`@sc@xEgEnBaBPfCfAvKFhA@fAAb@XhKr@rMn@fODDHbAEPD|@FNTnGx@lND@xCvf@n@|LH~Bt@fNr@pQV~DXdBNJH@HA|@a@TJNLFXJ~Af@zKcCtE^|Fj@zKT`Fp@nM`Bf^V|EfAvOxAtPdA`NLjDXxKd@|L^hRZzElAlKlB_@~@]","Color":"663366","hasRunTwo":1,"startPoint":{"Latitude":51.565233,"Longitude":-0.134697},"endPoint":{"Latitude":51.508625,"Longitude":-0.193845}}]}


