{"Stops" : [{"StopId":2477,"StopCode":"BP2162","PointLetter":"E","StopName":"Homerton Hospital / Wardle Street","Latitude":51.549828,"Longitude":-0.044577,"Action":0},{"StopId":2446,"StopCode":"18012","PointLetter":"A","StopName":"Banister House","Latitude":51.547996,"Longitude":-0.045304,"Action":0},{"StopId":16293,"StopCode":"18010","PointLetter":"O","StopName":"The City Academy","Latitude":51.548280,"Longitude":-0.049403,"Action":0},{"StopId":16395,"StopCode":"934","PointLetter":"W","StopName":"Jack Dunning Estate","Latitude":51.550207,"Longitude":-0.051182,"Action":0},{"StopId":775,"StopCode":"935","PointLetter":"V","StopName":"Hackney Baths","Latitude":51.550639,"Longitude":-0.052836,"Action":0},{"StopId":665,"StopCode":"2271","PointLetter":"S","StopName":"Clapton Square","Latitude":51.549921,"Longitude":-0.054007,"Action":0},{"StopId":21820,"StopCode":"BP5529","PointLetter":"Y","StopName":"Pembury Circus","Latitude":51.549461,"Longitude":-0.056046,"Action":0},{"StopId":20922,"StopCode":"BP4921","PointLetter":"T","StopName":"Hackney Central Station","Latitude":51.547484,"Longitude":-0.055625,"Action":0},{"StopId":805,"StopCode":"307","PointLetter":"B","StopName":"Hackney Town Hall","Latitude":51.545264,"Longitude":-0.055157,"Action":0},{"StopId":16478,"StopCode":"BP3846","PointLetter":"LS","StopName":"Richmond Road / Martello Street","Latitude":51.543478,"Longitude":-0.056416,"Action":0},{"StopId":18549,"StopCode":"91242","PointLetter":"","StopName":"Navarino Road","Latitude":51.543536,"Longitude":-0.060451,"Action":0},{"StopId":15895,"StopCode":"BP3845","PointLetter":"H","StopName":"Greenwood Road","Latitude":51.543248,"Longitude":-0.063709,"Action":0},{"StopId":16153,"StopCode":"BP3844","PointLetter":"","StopName":"Middleton Road","Latitude":51.539951,"Longitude":-0.062839,"Action":0},{"StopId":16538,"StopCode":"17974","PointLetter":"LN","StopName":"Broadway Market","Latitude":51.537619,"Longitude":-0.060515,"Action":0},{"StopId":16519,"StopCode":"BP3843","PointLetter":"LK","StopName":"Sheep Lane","Latitude":51.535907,"Longitude":-0.059737,"Action":0},{"StopId":15934,"StopCode":"BP3842","PointLetter":"T","StopName":"Andrews Road","Latitude":51.534440,"Longitude":-0.060232,"Action":0},{"StopId":16151,"StopCode":"BP3841","PointLetter":"U","StopName":"Pritchard's Road","Latitude":51.535350,"Longitude":-0.062501,"Action":0},{"StopId":15899,"StopCode":"BP3840","PointLetter":"","StopName":"Nicholl Street","Latitude":51.534969,"Longitude":-0.066093,"Action":0},{"StopId":16048,"StopCode":"BP4961","PointLetter":"WZ","StopName":"Haggerston Park","Latitude":51.534971,"Longitude":-0.068386,"Action":0},{"StopId":16125,"StopCode":"BP3839","PointLetter":"WX","StopName":"Thurtle Road","Latitude":51.534924,"Longitude":-0.072122,"Action":0},{"StopId":15898,"StopCode":"BP3838","PointLetter":"WY","StopName":"Kingsland Road","Latitude":51.534511,"Longitude":-0.075413,"Action":0},{"StopId":512,"StopCode":"2105","PointLetter":"KM","StopName":"St Leonard's Hospital","Latitude":51.533781,"Longitude":-0.076957,"Action":0},{"StopId":499,"StopCode":"2107","PointLetter":"KN","StopName":"Hoxton Station  / Geffrye Museum","Latitude":51.531362,"Longitude":-0.076944,"Action":0},{"StopId":16131,"StopCode":"BP3902","PointLetter":"PS","StopName":"Falkirk St / Hackney Community College","Latitude":51.530718,"Longitude":-0.078283,"Action":0},{"StopId":15888,"StopCode":"BP3904","PointLetter":"PT","StopName":"Crondall Street / Hoxton Street Market","Latitude":51.531021,"Longitude":-0.080866,"Action":0},{"StopId":15892,"StopCode":"BP3905","PointLetter":"PA","StopName":"Pitfield Street","Latitude":51.531452,"Longitude":-0.082996,"Action":0},{"StopId":15935,"StopCode":"BP3848","PointLetter":"PB","StopName":"Buckland Street","Latitude":51.532278,"Longitude":-0.083495,"Action":0},{"StopId":16154,"StopCode":"BP3849","PointLetter":"PC","StopName":"New North Road","Latitude":51.531682,"Longitude":-0.086086,"Action":0},{"StopId":16128,"StopCode":"BP3850","PointLetter":"PD","StopName":"Murray Grove / Provost Estate","Latitude":51.531040,"Longitude":-0.087498,"Action":0},{"StopId":15891,"StopCode":"BP3851","PointLetter":"PE","StopName":"Bletchley Street","Latitude":51.530629,"Longitude":-0.091004,"Action":0},{"StopId":15896,"StopCode":"BP3852","PointLetter":"W","StopName":"Shoreditch Police Station","Latitude":51.529351,"Longitude":-0.092038,"Action":0},{"StopId":9785,"StopCode":"8372","PointLetter":"Q","StopName":"Windsor Terrace","Latitude":51.528580,"Longitude":-0.093281,"Action":0},{"StopId":9780,"StopCode":"8368","PointLetter":"UW","StopName":"Central Street","Latitude":51.530154,"Longitude":-0.099343,"Action":0},{"StopId":9858,"StopCode":"BP1079","PointLetter":"J","StopName":"Angel Islington","Latitude":51.531633,"Longitude":-0.105193,"Action":0},{"StopId":133,"StopCode":"361","PointLetter":"R","StopName":"Pentonville Road / Baron Street","Latitude":51.531782,"Longitude":-0.107738,"Action":0},{"StopId":16055,"StopCode":"BP3190","PointLetter":"","StopName":"Tolpuddle St / Islington Police Station","Latitude":51.534252,"Longitude":-0.110332,"Action":0}], "Routes" : [{"Id":9208,"Route":"394","From":"Homerton Hospital / Wardle Street","Towards":"Tolpuddle St / Islington Police Station","Run":"1","IsDay":1,"encodedLevels":"PDF@D?B@F?D@?F?A?@DAE?@?BAI@B?@AF@?BH@CACBG?C???E@@?BA@?C@@F?A@C?IA?C@@B@FD@@CAABGA@@AGCCE?EGADDEF?@B?H?A@A@ABE?@BGAFP","encodedPoints":"whsyHxwG_@sBhHeDX~Bn@|ICzEI|DWnD]|Bo@~Bg@zAYPmA^kIlCLTFVNdBDn@h@vDpAbB|BfE@JEj@@bCClSDj@T\\DBZGTu@vDwJ`EkLTWlALpG\\vBN~EB\\~FT~Fe@fFInEz@bOLrIpCo@pHqBnC{Aj@_@rHiEJCDK?SLi@Na@bA{Ab@WPSDMLu@DoBPyAZHb@RnDn@x@Fn@ApGYCj@I^]lAi@z@}AbBk@`ASt@S|AfCfCCXA~S@p`@JnDv@nJZvHClDdEX|CDx@IdG?zAN_@|Qg@?FxOaABiET\\tKhAGHLTbHxAu@pCve@RIh@OpIgBL?THaChOaJ`j@KnABJOFEPiC~O{@rI?RCJPdRb@~HyBZ}Ib@s@gI","Color":"993333","hasRunTwo":1,"startPoint":{"Latitude":51.549725,"Longitude":-0.044924},"endPoint":{"Latitude":51.534253,"Longitude":-0.109936}}]}


