{"Stops" : [{"StopId":335,"StopCode":"526","PointLetter":"U","StopName":"Archway Station  / Junction Road","Latitude":51.564933,"Longitude":-0.134931,"Action":0},{"StopId":10044,"StopCode":"34518","PointLetter":"J","StopName":"Whittington Hospital","Latitude":51.566155,"Longitude":-0.137709,"Action":0},{"StopId":10088,"StopCode":"34517","PointLetter":"HJ","StopName":"Dartmouth Park Hill","Latitude":51.565410,"Longitude":-0.140639,"Action":0},{"StopId":10085,"StopCode":"34965","PointLetter":"HK","StopName":"Chester Road","Latitude":51.562944,"Longitude":-0.140524,"Action":0},{"StopId":10134,"StopCode":"34964","PointLetter":"TA","StopName":"Dartmouth Park Road","Latitude":51.560820,"Longitude":-0.140985,"Action":0},{"StopId":10177,"StopCode":"34959","PointLetter":"TB","StopName":"Junction Road","Latitude":51.557431,"Longitude":-0.138772,"Action":0},{"StopId":10141,"StopCode":"36804","PointLetter":"TW","StopName":"Tufnell Park Station","Latitude":51.557016,"Longitude":-0.137014,"Action":0},{"StopId":10164,"StopCode":"34339","PointLetter":"TX","StopName":"Campdale Road","Latitude":51.557366,"Longitude":-0.132961,"Action":0},{"StopId":10069,"StopCode":"34337","PointLetter":"","StopName":"Dalmeny Road","Latitude":51.557701,"Longitude":-0.129182,"Action":0},{"StopId":10110,"StopCode":"34336","PointLetter":"","StopName":"Carleton Road","Latitude":51.557989,"Longitude":-0.125837,"Action":0},{"StopId":10163,"StopCode":"34334","PointLetter":"E","StopName":"Holloway Road","Latitude":51.558346,"Longitude":-0.121163,"Action":0},{"StopId":585,"StopCode":"R0055","PointLetter":"G","StopName":"Seven Sisters Road / Parkhurst Road","Latitude":51.558208,"Longitude":-0.119798,"Action":0},{"StopId":822,"StopCode":"315","PointLetter":"H","StopName":"Seven Sisters Road / Nags Head","Latitude":51.558569,"Longitude":-0.118254,"Action":0},{"StopId":824,"StopCode":"1291","PointLetter":"NP","StopName":"Hornsey Road","Latitude":51.559809,"Longitude":-0.115924,"Action":0},{"StopId":773,"StopCode":"1293","PointLetter":"NT","StopName":"Durham Road","Latitude":51.562084,"Longitude":-0.110910,"Action":0},{"StopId":810,"StopCode":"34055","PointLetter":"X","StopName":"Fonthill Road","Latitude":51.562998,"Longitude":-0.108434,"Action":0},{"StopId":787,"StopCode":"BP4242","PointLetter":"R","StopName":"Finsbury Park Station","Latitude":51.563760,"Longitude":-0.106613,"Action":0},{"StopId":5573,"StopCode":"R0003","PointLetter":"G","StopName":"Finsbury Park Interchange","Latitude":51.564996,"Longitude":-0.105739,"Action":0},{"StopId":5625,"StopCode":"379","PointLetter":"N","StopName":"Blackstock Rd / City & Islington College","Latitude":51.564019,"Longitude":-0.103226,"Action":0},{"StopId":5554,"StopCode":"15059","PointLetter":"EB","StopName":"Gillespie Road","Latitude":51.560553,"Longitude":-0.098523,"Action":0},{"StopId":5553,"StopCode":"15061","PointLetter":"EC","StopName":"Riversdale Road","Latitude":51.558475,"Longitude":-0.098494,"Action":0},{"StopId":5613,"StopCode":"1552","PointLetter":"ED","StopName":"Highbury Grange","Latitude":51.555051,"Longitude":-0.098045,"Action":0},{"StopId":5551,"StopCode":"15063","PointLetter":"EE","StopName":"Highbury Barn / London Metropolitan Uni","Latitude":51.552861,"Longitude":-0.098281,"Action":0},{"StopId":5594,"StopCode":"15065","PointLetter":"CZ","StopName":"Highbury Grove School / Aberdeen Park","Latitude":51.550789,"Longitude":-0.098079,"Action":0},{"StopId":1741,"StopCode":"9242","PointLetter":"CT","StopName":"St Paul's Road / Highbury Grove","Latitude":51.546484,"Longitude":-0.099311,"Action":0},{"StopId":1722,"StopCode":"11470","PointLetter":"D","StopName":"Highbury Corner","Latitude":51.546114,"Longitude":-0.101504,"Action":0},{"StopId":594,"StopCode":"80001","PointLetter":"G","StopName":"Upper Street / Laycock Street","Latitude":51.544271,"Longitude":-0.103196,"Action":0},{"StopId":570,"StopCode":"33092","PointLetter":"M","StopName":"Islington Town Hall","Latitude":51.542199,"Longitude":-0.102922,"Action":0},{"StopId":609,"StopCode":"29748","PointLetter":"N","StopName":"St Mary's Church","Latitude":51.538330,"Longitude":-0.102261,"Action":0},{"StopId":580,"StopCode":"9995","PointLetter":"B","StopName":"Islington Green","Latitude":51.536094,"Longitude":-0.103551,"Action":0},{"StopId":9815,"StopCode":"36601","PointLetter":"G","StopName":"Angel Station","Latitude":51.533358,"Longitude":-0.105640,"Action":0},{"StopId":9830,"StopCode":"363","PointLetter":"H","StopName":"Angel Islington / City Road","Latitude":51.531652,"Longitude":-0.104716,"Action":0},{"StopId":10158,"StopCode":"8385","PointLetter":"UM","StopName":"Hall Street","Latitude":51.529301,"Longitude":-0.101642,"Action":0},{"StopId":10123,"StopCode":"8387","PointLetter":"UN","StopName":"Spencer Street","Latitude":51.528279,"Longitude":-0.100776,"Action":0},{"StopId":10171,"StopCode":"8389","PointLetter":"UP","StopName":"Percival Street","Latitude":51.527129,"Longitude":-0.100276,"Action":0},{"StopId":10159,"StopCode":"8391","PointLetter":"UR","StopName":"Pear Tree Street","Latitude":51.524911,"Longitude":-0.099331,"Action":0},{"StopId":10160,"StopCode":"8392","PointLetter":"BV","StopName":"Clerkenwell Road","Latitude":51.523752,"Longitude":-0.098846,"Action":0},{"StopId":10120,"StopCode":"8394","PointLetter":"BP","StopName":"Baltic Street West","Latitude":51.522344,"Longitude":-0.097434,"Action":0},{"StopId":10058,"StopCode":"2286","PointLetter":"BB","StopName":"Barbican Station","Latitude":51.520904,"Longitude":-0.097350,"Action":0},{"StopId":10119,"StopCode":"8548","PointLetter":"BD","StopName":"Museum Of London","Latitude":51.518306,"Longitude":-0.096853,"Action":0},{"StopId":10092,"StopCode":"8600","PointLetter":"SW","StopName":"St Paul's Station","Latitude":51.515288,"Longitude":-0.097108,"Action":0},{"StopId":10179,"StopCode":"33385","PointLetter":"SM","StopName":"New Change / Cannon Street","Latitude":51.513511,"Longitude":-0.096231,"Action":0},{"StopId":241,"StopCode":"1152","PointLetter":"SH","StopName":"St Paul's Churchyard","Latitude":51.512894,"Longitude":-0.096963,"Action":0},{"StopId":107,"StopCode":"8602","PointLetter":"SJ","StopName":"St Paul's Cathedral","Latitude":51.513324,"Longitude":-0.099640,"Action":0},{"StopId":19,"StopCode":"8581","PointLetter":"F","StopName":"City Thameslink Stn  / Ludgate Circus","Latitude":51.514069,"Longitude":-0.103486,"Action":0},{"StopId":198,"StopCode":"202","PointLetter":"H","StopName":"Shoe Lane","Latitude":51.514148,"Longitude":-0.106683,"Action":0},{"StopId":10,"StopCode":"8570","PointLetter":"","StopName":"Fetter Lane","Latitude":51.514139,"Longitude":-0.108369,"Action":0},{"StopId":39,"StopCode":"3178","PointLetter":"","StopName":"Chancery Lane","Latitude":51.513867,"Longitude":-0.110427,"Action":0},{"StopId":121,"StopCode":"20462","PointLetter":"P","StopName":"The Royal Courts Of Justice","Latitude":51.512963,"Longitude":-0.113505,"Action":0},{"StopId":18,"StopCode":"29985","PointLetter":"S","StopName":"Aldwych / Somerset House","Latitude":51.511881,"Longitude":-0.117239,"Action":0},{"StopId":166,"StopCode":"1835","PointLetter":"N","StopName":"Waterloo Bridge / South Bank","Latitude":51.507076,"Longitude":-0.115377,"Action":0},{"StopId":10056,"StopCode":"2593","PointLetter":"E","StopName":"Waterloo Station / Waterloo Road","Latitude":51.503531,"Longitude":-0.111316,"Action":0}], "Routes" : [{"Id":2414,"Route":"4","From":"Archway Station  / Junction Road","Towards":"Waterloo Station / Waterloo Road","Run":"1","IsDay":1,"encodedLevels":"PBE@?@F?BAD?@HC@?BAD??AF?A@?H??@BEG??DA@ED??B?C@GCB?CAJ@ADA?DA@C?AD@D?@G?@CB?C@B?G?BC@BF@?B@CA@ACBA@AHA?B?@?AGAE@D?B?BDC@FB@B@??D?A@C?@E?A?C@D@C@C@?B?IDA?BAAB?D?BFCA@C@AAI@AB?CCA?C@AD?A?ABP","encodedPoints":"mevyHfkYgCkAgAKy@bCCZi@vAeB|Gj@l@h@p@j@hAXhAFd@d@xFp@fFpE{ApARVB|@Bx@UvCMbAP\\J|Ex@x@@^Id@U~G}E~A_AtGmEEiBmB}d@mB{g@y@gWg@mE|BeEuAuCkFyLsHqPaBaFoCgL_FaRoDkIK@ONIDQ@sAEIEYi@dBwCYu@^w@xFsKfGoKbFyHb@CtJBlBK`Ck@TOnBu@pCPfGFjBCPBbA\\xC^tAM|TeApC\\bHbAl@BtB|O@^j@dDz@AHFLPBHIlBLb@NT`CVb@@xG_@hMwA`L{AjADRDHHdH|D~DrARBbCzAx@v@fG|Et@`@vCrAbAFBGL?FFJCEW@UDQDEHo@dDwSh@cBvDzBREbAcB`B}BfCsAv@]fRgGl@OjF}BtDmEnAg@n@MxASdAPpADxFu@XCLBLAHCRK\\ApDg@RO`@i@b@WLDLJNh@BPtE\\lGVVg@f@c@VPTBVIPOzAaAd@EV?zAb@a@pDk@lH?^i@vDc@v@Q|ACn@aA`NKxHGbORtJhC|S\\pAZd@j@pAF~@RpA~BzKfDlNLBJE~HoG~F_FvLkKtDkDPeADQNMRIr@@RMHITk@Fk@La@b@{@bCaD","Color":"993333","hasRunTwo":1,"startPoint":{"Latitude":51.564555,"Longitude":-0.135071},"endPoint":{"Latitude":51.503423,"Longitude":-0.111358}}]}


