{"Stops" : [{"StopId":8585,"StopCode":"SL07","PointLetter":"","StopName":"Warlingham / Sainsbury's","Latitude":51.307098,"Longitude":-0.043219,"Action":0},{"StopId":8393,"StopCode":"SL20","PointLetter":"","StopName":"Gresham Avenue","Latitude":51.307228,"Longitude":-0.045050,"Action":0},{"StopId":8513,"StopCode":"W38","PointLetter":"","StopName":"Marks Road","Latitude":51.307581,"Longitude":-0.047876,"Action":0},{"StopId":8586,"StopCode":"SL21","PointLetter":"","StopName":"Warlingham Green","Latitude":51.309395,"Longitude":-0.055863,"Action":0},{"StopId":8321,"StopCode":"SL22","PointLetter":"","StopName":"Church Road","Latitude":51.312401,"Longitude":-0.059308,"Action":0},{"StopId":8320,"StopCode":"SL23","PointLetter":"","StopName":"Verdayne Gardens","Latitude":51.315871,"Longitude":-0.061903,"Action":0},{"StopId":8319,"StopCode":"SL24","PointLetter":"","StopName":"Hamsey Green","Latitude":51.319043,"Longitude":-0.064511,"Action":0},{"StopId":8587,"StopCode":"22195","PointLetter":"","StopName":"Harewood Gardens","Latitude":51.320817,"Longitude":-0.065699,"Action":0},{"StopId":8491,"StopCode":"4410","PointLetter":"","StopName":"Hilton Way","Latitude":51.323541,"Longitude":-0.067809,"Action":0},{"StopId":8550,"StopCode":"12418","PointLetter":"","StopName":"Wentworth Way","Latitude":51.326261,"Longitude":-0.069705,"Action":0},{"StopId":8521,"StopCode":"4409","PointLetter":"","StopName":"Sanderstead Methodist Church","Latitude":51.328772,"Longitude":-0.073690,"Action":0},{"StopId":8549,"StopCode":"12419","PointLetter":"","StopName":"Sanderstead Recreation Ground","Latitude":51.331257,"Longitude":-0.075453,"Action":0},{"StopId":8452,"StopCode":"5333","PointLetter":"","StopName":"Cranleigh Gardens","Latitude":51.333398,"Longitude":-0.076597,"Action":0},{"StopId":8373,"StopCode":"4413","PointLetter":"","StopName":"Sanderstead / All Saints Church","Latitude":51.335300,"Longitude":-0.077451,"Action":0},{"StopId":8548,"StopCode":"12421","PointLetter":"","StopName":"Purley Downs Road","Latitude":51.338136,"Longitude":-0.082573,"Action":0},{"StopId":8580,"StopCode":"3317","PointLetter":"","StopName":"Sanderstead United Reformed Church","Latitude":51.340502,"Longitude":-0.085920,"Action":0},{"StopId":8377,"StopCode":"12424","PointLetter":"GW","StopName":"Beechwood Road","Latitude":51.346116,"Longitude":-0.092708,"Action":0},{"StopId":8543,"StopCode":"12426","PointLetter":"GS","StopName":"Sanderstead Station","Latitude":51.348881,"Longitude":-0.092392,"Action":0},{"StopId":8518,"StopCode":"12428","PointLetter":"","StopName":"Brambledown Road","Latitude":51.351774,"Longitude":-0.091712,"Action":0},{"StopId":8570,"StopCode":"10806","PointLetter":"","StopName":"Twin Bridges Business Park","Latitude":51.356000,"Longitude":-0.092211,"Action":0},{"StopId":8294,"StopCode":"18809","PointLetter":"GQ","StopName":"Sussex Road","Latitude":51.359279,"Longitude":-0.094187,"Action":0},{"StopId":8569,"StopCode":"10808","PointLetter":"E","StopName":"Croham Road","Latitude":51.361644,"Longitude":-0.095884,"Action":0},{"StopId":8314,"StopCode":"R0487","PointLetter":"G","StopName":"Swan & Sugar Loaf","Latitude":51.363026,"Longitude":-0.098413,"Action":0},{"StopId":8572,"StopCode":"10795","PointLetter":"N","StopName":"Coombe Road","Latitude":51.367823,"Longitude":-0.096418,"Action":0},{"StopId":8389,"StopCode":"17630","PointLetter":"KD","StopName":"Fairfield Halls","Latitude":51.373315,"Longitude":-0.096837,"Action":0},{"StopId":8512,"StopCode":"SL30","PointLetter":"WM","StopName":"Whitgift Centre","Latitude":51.376384,"Longitude":-0.098636,"Action":0},{"StopId":8249,"StopCode":"BP2300","PointLetter":"B8","StopName":"West Croydon Bus Station","Latitude":51.378588,"Longitude":-0.100944,"Action":0}], "Routes" : [{"Id":7787,"Route":"403","From":"Warlingham / Sainsbury's","Towards":"West Croydon Bus Station","Run":"1","IsDay":1,"encodedLevels":"PA@FAB@@@DAADA@HAB?C@DAAAC@@C@A?A@@EBC?BAFBC?@B@CA@BBG@A@A@DB?A@EA?C??I@@B?E@A?DCBGEBAFE@??ADE@G@BAA@@FFABAB?B@D@BAG@B@@@E?C?AP","encodedPoints":"u|cxHvrGLeBB}EDCPJAhAM|@y@vKoAjS_AfLw@tDiB|FoCtKPbDA`BGPkAf@sAhAoAdBiGzHyArAsGhFcEjCoB~@gHbFaFhCeA|@q@dAyAzAo@VoFfDgKnHeD|BoCvAoHnE{@p@wCpCkAjBsC`Hs@lBsBnD_@\\mGlDmBhBaEnB{Aj@kI|D}EhBaARwBzAER]X[Mc@TOXEVQbCc@fDS|@Wh@yDfIgE|GiErGqJfPe@hAoBvCsFpGaGdHi@j@yDfDaB~Ag@Sk@GaIcBuCe@mSsC[@WLSPmAz@qI\\{BKm@o@uBdGcGBoE`@cBEMhIg@H[NaEnAkDbAyB|@aBrCRjDDfBmBNgBVeAZKV[HKCcDz@mBgSqCt@sFx@IEcJxAgCDkAAgARo@Zw@M}F_@iBCoCR{@VmAh@{AbAqHlEeJnF]LLt@?VIRq@xBUR","Color":"993333","hasRunTwo":1,"startPoint":{"Latitude":51.307159,"Longitude":-0.044114},"endPoint":{"Latitude":51.378772,"Longitude":-0.101067}}]}


