{"Stops" : [{"StopId":6954,"StopCode":"BP2418","PointLetter":"D","StopName":"Crystal Palace Bus Station","Latitude":51.420426,"Longitude":-0.077995,"Action":0},{"StopId":7043,"StopCode":"6915","PointLetter":"E","StopName":"Crystal Palace Park","Latitude":51.419772,"Longitude":-0.077073,"Action":0},{"StopId":6930,"StopCode":"27519","PointLetter":"M","StopName":"Crystal Palace Station","Latitude":51.417886,"Longitude":-0.073931,"Action":0},{"StopId":10024,"StopCode":"BP2541","PointLetter":"S","StopName":"Hamlet Road","Latitude":51.415694,"Longitude":-0.072958,"Action":0},{"StopId":9880,"StopCode":"BP2542","PointLetter":"","StopName":"Belvedere Road","Latitude":51.414162,"Longitude":-0.072778,"Action":0},{"StopId":9964,"StopCode":"BP2529","PointLetter":"","StopName":"Harris City Academy","Latitude":51.411343,"Longitude":-0.074709,"Action":0},{"StopId":9878,"StopCode":"BP2530","PointLetter":"","StopName":"Cantley Gardens","Latitude":51.410577,"Longitude":-0.076783,"Action":0},{"StopId":9997,"StopCode":"BP2531","PointLetter":"","StopName":"The Vicarage","Latitude":51.411530,"Longitude":-0.079533,"Action":0},{"StopId":9996,"StopCode":"BP2532","PointLetter":"","StopName":"Acorn Gardens","Latitude":51.409608,"Longitude":-0.081281,"Action":0},{"StopId":9995,"StopCode":"BP2533","PointLetter":"","StopName":"Cypress Road","Latitude":51.407660,"Longitude":-0.080428,"Action":0},{"StopId":9879,"StopCode":"BP2534","PointLetter":"","StopName":"Woodvale Avenue","Latitude":51.405549,"Longitude":-0.077799,"Action":0},{"StopId":10023,"StopCode":"BP2536","PointLetter":"","StopName":"Lancaster Road","Latitude":51.404129,"Longitude":-0.075702,"Action":0},{"StopId":9994,"StopCode":"BP2537","PointLetter":"","StopName":"Southern Avenue","Latitude":51.401774,"Longitude":-0.077411,"Action":0},{"StopId":9898,"StopCode":"13217","PointLetter":"K","StopName":"Stanley Hall","Latitude":51.400099,"Longitude":-0.075584,"Action":0},{"StopId":10003,"StopCode":"6553","PointLetter":"A","StopName":"South Norwood Clock Tower","Latitude":51.397780,"Longitude":-0.077866,"Action":0},{"StopId":9876,"StopCode":"6551","PointLetter":"","StopName":"Park Road","Latitude":51.396961,"Longitude":-0.080560,"Action":0},{"StopId":9928,"StopCode":"BP1158","PointLetter":"","StopName":"Wynton Gardens","Latitude":51.395172,"Longitude":-0.080577,"Action":0},{"StopId":10034,"StopCode":"BP1156","PointLetter":"","StopName":"Sutton Gardens","Latitude":51.392142,"Longitude":-0.075717,"Action":0},{"StopId":9930,"StopCode":"BP1154","PointLetter":"","StopName":"Christie Drive","Latitude":51.390687,"Longitude":-0.076338,"Action":0},{"StopId":9932,"StopCode":"BP1151","PointLetter":"","StopName":"Towpath Way","Latitude":51.389250,"Longitude":-0.079173,"Action":0},{"StopId":9934,"StopCode":"BP1149","PointLetter":"","StopName":"Brampton Road","Latitude":51.387041,"Longitude":-0.082140,"Action":0},{"StopId":9890,"StopCode":"BP1148","PointLetter":"","StopName":"Davidson Road","Latitude":51.385565,"Longitude":-0.084788,"Action":0},{"StopId":10009,"StopCode":"BP1146","PointLetter":"","StopName":"Stretton Road","Latitude":51.384182,"Longitude":-0.087131,"Action":0},{"StopId":9936,"StopCode":"BP1144","PointLetter":"","StopName":"Alexandra Place","Latitude":51.382067,"Longitude":-0.088125,"Action":0},{"StopId":8759,"StopCode":"1848","PointLetter":"","StopName":"Lower Addiscombe Road / Davidson Road","Latitude":51.380682,"Longitude":-0.088111,"Action":0},{"StopId":6790,"StopCode":"BP934","PointLetter":"","StopName":"Leslie Grove","Latitude":51.379485,"Longitude":-0.088046,"Action":0},{"StopId":6873,"StopCode":"17347","PointLetter":"E0","StopName":"Cross Road","Latitude":51.378061,"Longitude":-0.090648,"Action":0},{"StopId":6847,"StopCode":"17348","PointLetter":"E5","StopName":"Addiscombe Road","Latitude":51.375992,"Longitude":-0.091151,"Action":0},{"StopId":8575,"StopCode":"BP2332","PointLetter":"E6","StopName":"East Croydon Station","Latitude":51.374653,"Longitude":-0.092873,"Action":0},{"StopId":8512,"StopCode":"SL30","PointLetter":"WM","StopName":"Whitgift Centre","Latitude":51.376384,"Longitude":-0.098636,"Action":0},{"StopId":8399,"StopCode":"R0851","PointLetter":"B3","StopName":"West Croydon Bus Station","Latitude":51.379064,"Longitude":-0.101442,"Action":0},{"StopId":8413,"StopCode":"8752","PointLetter":"CJ","StopName":"Ruskin Road","Latitude":51.376779,"Longitude":-0.103074,"Action":0},{"StopId":8456,"StopCode":"BP1506","PointLetter":"CL","StopName":"Church Street Tram Stop","Latitude":51.374269,"Longitude":-0.104629,"Action":0},{"StopId":8581,"StopCode":"35230","PointLetter":"","StopName":"Rectory Grove","Latitude":51.374545,"Longitude":-0.107850,"Action":0},{"StopId":8470,"StopCode":"6512","PointLetter":"D","StopName":"Waddon New Road / Waddon Road","Latitude":51.372251,"Longitude":-0.109999,"Action":0},{"StopId":8529,"StopCode":"36012","PointLetter":"A","StopName":"Vicarage Rd / Wandle Park Tram Stop","Latitude":51.371606,"Longitude":-0.113517,"Action":0},{"StopId":8498,"StopCode":"9660","PointLetter":"SV","StopName":"Purley Way / Waddon Road","Latitude":51.370602,"Longitude":-0.117035,"Action":0},{"StopId":8561,"StopCode":"10816","PointLetter":"WQ","StopName":"Purley Way / Waddon Station","Latitude":51.367617,"Longitude":-0.119916,"Action":0},{"StopId":8531,"StopCode":"14193","PointLetter":"K","StopName":"Lavington Road","Latitude":51.367581,"Longitude":-0.126052,"Action":0},{"StopId":8514,"StopCode":"R0217","PointLetter":"L","StopName":"Croydon Road / Plough Lane","Latitude":51.367593,"Longitude":-0.131324,"Action":0},{"StopId":8533,"StopCode":"14187","PointLetter":"GT","StopName":"Church Road","Latitude":51.369809,"Longitude":-0.141736,"Action":0},{"StopId":8445,"StopCode":"9268","PointLetter":"GU","StopName":"The Holt","Latitude":51.369527,"Longitude":-0.144419,"Action":0},{"StopId":8534,"StopCode":"14185","PointLetter":"GV","StopName":"Wallington County Grammar School","Latitude":51.368780,"Longitude":-0.148314,"Action":0},{"StopId":8229,"StopCode":"24743","PointLetter":"GW","StopName":"Croydon Road / Wallington Green","Latitude":51.367578,"Longitude":-0.152543,"Action":0},{"StopId":9905,"StopCode":"17352","PointLetter":"GD","StopName":"Queens Road","Latitude":51.363773,"Longitude":-0.151303,"Action":0},{"StopId":8369,"StopCode":"33895","PointLetter":"A","StopName":"Wallington Station  / Manor Road","Latitude":51.361384,"Longitude":-0.150351,"Action":0},{"StopId":9974,"StopCode":"35714","PointLetter":"P","StopName":"Beddington Gardens","Latitude":51.359113,"Longitude":-0.151189,"Action":0}], "Routes" : [{"Id":7802,"Route":"410","From":"Crystal Palace Bus Station","Towards":"Beddington Gardens","Run":"1","IsDay":1,"encodedLevels":"PAB@DAE?ACA@E?BA?AEE@B@H?@@CACA@C@@GA?D?BAAF?B@D@AHA?D@@DBAF@BG@H@AD@@HB?@F@BH@?CEC?AEAA?E?@?EAC@@C@GAAFA?A@G?B?B@CBF?BC?A@C?AJ@C?B@G@@CAAH@?D?CBECAEF@BAF?B@C@C@@D@F?@BD?FBFBAD@@ABH?@?B@@@?F?A?C?A@E@A@AFAD@?HA@G?A?A@DAAFEAP","encodedPoints":"gbzxH|dNXNJVDx@C`@\\JlA@@c@b@_Ef@eCp@gCZ{@t@wATU|B}CrAqAvBcBpA}@fCiCnBxE\\c@vBkBv@WLBd@`@n@n@x@bAVNfAL~Bx@~@hAxAdA`@Px@VjAHt@VHjEMbHEf@Kj@eArD_CtEw@hBBHVVxB~An@X|A^n@FjBBbCK|B_@f@Qd@W\\WbBiBlC_DlEcGpDyGrHmLlAzDnAxCjE`I`JcQj@qAx@tAlDfHX|@x@~CrBbJjChMrMqITSf@i@Vc@r@_BFa@~B{UjBlA`HdFRRPs@Qr@NPrE~FnBzCiAhC?^A@O?AEHUB?nAoChE~G|GvM`ApBvHjQv@zApCpDTPxAb@`Gp@rF`Aj@uERyFCEDa@DALD@DAZ@fBZh@FZbJ~RxDxG\\FLAjIeCPIJMV{@JOJAbA@TJAtCQfEr@tHn@vIPxDA~ASFiDvBqR`LaD~@g@AaA`@H|@n@hDFJ`Ab@pCvA`@nAzBdB~Er@bAx@x@lAvBgDl@bBpCdGb@XhAdBUb@ML]Cq@DSl@W\\OHYDiBv@Ad@RtBNTf@f@`HxItCdC`@BjB?GzGvBzb@jAOdBBx@Rf@VpCvBxGnEFCDX@`@En@HbCLbJGtDC|NBdVExMElAG|@Kt@Kh@Ul@Q\\Y`@_@Z{BlCSfBo@~Kk@tDk@|GMlEKzKNxDh@jG`DtYTlBzArIp@|BlCdLH?LCZY|EiDtHkEbAe@pGuBjHkB`C_AvEq@A~@v@tG","Color":"993333","hasRunTwo":1,"startPoint":{"Latitude":51.420684,"Longitude":-0.077749},"endPoint":{"Latitude":51.359119,"Longitude":-0.151485}}]}


