{"Stops" : [{"StopId":7283,"StopCode":"10824","PointLetter":"G","StopName":"Purley / Downlands Precinct","Latitude":51.339284,"Longitude":-0.115634,"Action":0},{"StopId":8422,"StopCode":"4401","PointLetter":"M","StopName":"Purley Station  / Purley High Street","Latitude":51.337772,"Longitude":-0.116141,"Action":0},{"StopId":8231,"StopCode":"19269","PointLetter":"N","StopName":"Foxley Hill Road","Latitude":51.335711,"Longitude":-0.113196,"Action":0},{"StopId":9985,"StopCode":"16632","PointLetter":"","StopName":"Downs Court Road / Selcroft Road","Latitude":51.332269,"Longitude":-0.107250,"Action":0},{"StopId":10031,"StopCode":"16634","PointLetter":"","StopName":"Riddlesdown Road","Latitude":51.330679,"Longitude":-0.101201,"Action":0},{"StopId":9863,"StopCode":"25456","PointLetter":"A","StopName":"Riddlesdown School / Riddlesdown Stn","Latitude":51.330364,"Longitude":-0.098429,"Action":0},{"StopId":10020,"StopCode":"16636","PointLetter":"","StopName":"Lower Barn Road","Latitude":51.330169,"Longitude":-0.094762,"Action":0},{"StopId":9870,"StopCode":"25243","PointLetter":"","StopName":"Riddlesdown","Latitude":51.330414,"Longitude":-0.090460,"Action":0},{"StopId":9944,"StopCode":"25245","PointLetter":"","StopName":"Mitchley Hill","Latitude":51.330859,"Longitude":-0.087413,"Action":0},{"StopId":9968,"StopCode":"25247","PointLetter":"","StopName":"Borrowdale Drive","Latitude":51.333357,"Longitude":-0.083461,"Action":0},{"StopId":9945,"StopCode":"25249","PointLetter":"","StopName":"Sanderstead Clinic","Latitude":51.335388,"Longitude":-0.079529,"Action":0},{"StopId":9946,"StopCode":"25251","PointLetter":"","StopName":"Sanderstead / All Saints Church","Latitude":51.336669,"Longitude":-0.076489,"Action":0},{"StopId":9864,"StopCode":"25253","PointLetter":"","StopName":"Harbledown Road","Latitude":51.338943,"Longitude":-0.073106,"Action":0},{"StopId":9874,"StopCode":"23492","PointLetter":"","StopName":"Sanderstead Plantation","Latitude":51.339809,"Longitude":-0.070529,"Action":0},{"StopId":9951,"StopCode":"BP1590","PointLetter":"G","StopName":"Ferns Close","Latitude":51.341278,"Longitude":-0.066375,"Action":0},{"StopId":10036,"StopCode":"26185","PointLetter":"Z","StopName":"Farley Road","Latitude":51.342569,"Longitude":-0.063937,"Action":0},{"StopId":9975,"StopCode":"3562","PointLetter":"C","StopName":"Selsdon Library","Latitude":51.342651,"Longitude":-0.063503,"Action":0},{"StopId":9901,"StopCode":"18819","PointLetter":"E","StopName":"St John the Divine Church","Latitude":51.342434,"Longitude":-0.065565,"Action":0},{"StopId":9906,"StopCode":"18818","PointLetter":"","StopName":"Arundel Avenue","Latitude":51.344953,"Longitude":-0.068934,"Action":0},{"StopId":9979,"StopCode":"20185","PointLetter":"","StopName":"Ridge Langley / East Arm","Latitude":51.346531,"Longitude":-0.071395,"Action":0},{"StopId":9882,"StopCode":"BP2945","PointLetter":"","StopName":"Ridge Langley / West Arm","Latitude":51.347381,"Longitude":-0.074403,"Action":0},{"StopId":9872,"StopCode":"2523","PointLetter":"","StopName":"Arkwright Road","Latitude":51.348166,"Longitude":-0.077831,"Action":0},{"StopId":9960,"StopCode":"18816","PointLetter":"","StopName":"Elmfield Way","Latitude":51.350841,"Longitude":-0.083019,"Action":0},{"StopId":9900,"StopCode":"18814","PointLetter":"","StopName":"West Hill","Latitude":51.352301,"Longitude":-0.085988,"Action":0},{"StopId":9908,"StopCode":"18812","PointLetter":"","StopName":"Hurst View Road","Latitude":51.354163,"Longitude":-0.088740,"Action":0},{"StopId":8570,"StopCode":"10806","PointLetter":"","StopName":"Twin Bridges Business Park","Latitude":51.356000,"Longitude":-0.092211,"Action":0},{"StopId":8294,"StopCode":"18809","PointLetter":"GQ","StopName":"Sussex Road","Latitude":51.359279,"Longitude":-0.094187,"Action":0},{"StopId":8569,"StopCode":"10808","PointLetter":"E","StopName":"Croham Road","Latitude":51.361644,"Longitude":-0.095884,"Action":0},{"StopId":8314,"StopCode":"R0487","PointLetter":"G","StopName":"Swan & Sugar Loaf","Latitude":51.363026,"Longitude":-0.098413,"Action":0},{"StopId":6925,"StopCode":"20450","PointLetter":"T","StopName":"Spice's Yard","Latitude":51.366518,"Longitude":-0.099130,"Action":0},{"StopId":8502,"StopCode":"15115","PointLetter":"KS","StopName":"Croydon Flyover","Latitude":51.370102,"Longitude":-0.100016,"Action":0},{"StopId":8265,"StopCode":"BP1548","PointLetter":"KK","StopName":"Croydon Library","Latitude":51.372404,"Longitude":-0.099447,"Action":0},{"StopId":8389,"StopCode":"17630","PointLetter":"KD","StopName":"Fairfield Halls","Latitude":51.373315,"Longitude":-0.096837,"Action":0},{"StopId":8512,"StopCode":"SL30","PointLetter":"WM","StopName":"Whitgift Centre","Latitude":51.376384,"Longitude":-0.098636,"Action":0},{"StopId":8249,"StopCode":"BP2300","PointLetter":"B8","StopName":"West Croydon Bus Station","Latitude":51.378588,"Longitude":-0.100944,"Action":0}], "Routes" : [{"Id":4665,"Route":"412","From":"Purley / Downlands Precinct","Towards":"West Croydon Bus Station","Run":"1","IsDay":1,"encodedLevels":"PADAF@AACBA@EA@B@?GADB?C?AC?AI?B@FA@BAE?BBCABD??BF@B?@E?ABBEKC@F??@C?@BB@EBC?CAEA@@DAD?A@@D@?@IBAFE@??ADE@G@BAAB@C@@D??A?@C@GBAEBAG@B@@@E?C?AP","encodedPoints":"chjxHbnU~AjDbCbEf@Ip@e@l@y@hA_CvC{DhBiDhCaDt@q@l@Sj@c@Do@|BiFb@{A`EaJXw@vJaVz@sDp@_Bm@aBC[C}CJaER}DbAkPLiI@iCC{LUwGI_Bw@yKgBaSk@i@oAm@e@K{C{B_@i@Wi@wCsH{AmBkCgGeC_KoDiLmCsGc@u@m@s@iFoHcBuDc@wAe@gCo@kF]kDe@yC{@aCyBqF_F{KgDcHq@o@~AqBLdF\\z@fB~FILGDgA`BiFhGkBzDKVaAdBkBrBsCtEw@`BaBfEqAtFcBbNs@rGe@pBiDdKmFvMeCrFwAhC_E|Ia@rCyAnGUb@Y`@{BzBSLyF~F[v@oBpGe@dBuBdGcGBoE`@cBEMhIg@H[NaEnAkDbAyB|@aBrCRjDDfBmBNgBVeAZKV[HKCwG~@uC@gEKk@FSBgA\\eGjBqAVeGrAmA\\{@ByAI_@CCqJU}HM]iBCoCR{@VmAh@{AbAqHlEeJnF]LLt@?VIRq@xBUR","Color":"993333","hasRunTwo":1,"startPoint":{"Latitude":51.339708,"Longitude":-0.115051},"endPoint":{"Latitude":51.378772,"Longitude":-0.101067}}]}


