{"Stops" : [{"StopId":7136,"StopCode":"35304","PointLetter":"D","StopName":"Hardel Rise","Latitude":51.441265,"Longitude":-0.108533,"Action":0},{"StopId":7205,"StopCode":"R0511","PointLetter":"H","StopName":"High Trees","Latitude":51.443235,"Longitude":-0.110250,"Action":0},{"StopId":7244,"StopCode":"25686","PointLetter":"J","StopName":"Upper Tulse Hill","Latitude":51.445323,"Longitude":-0.112006,"Action":0},{"StopId":7153,"StopCode":"25684","PointLetter":"K","StopName":"Craignair Road","Latitude":51.448892,"Longitude":-0.113110,"Action":0},{"StopId":7155,"StopCode":"25682","PointLetter":"L","StopName":"Jubilee Primary School","Latitude":51.451648,"Longitude":-0.113313,"Action":0},{"StopId":7157,"StopCode":"25680","PointLetter":"M","StopName":"Brixton Water Lane","Latitude":51.454572,"Longitude":-0.113466,"Action":0},{"StopId":7108,"StopCode":"13246","PointLetter":"N","StopName":"Morval Road","Latitude":51.456611,"Longitude":-0.114376,"Action":0},{"StopId":6808,"StopCode":"BP4246","PointLetter":"P","StopName":"St Matthews Estate","Latitude":51.458438,"Longitude":-0.115034,"Action":0},{"StopId":5537,"StopCode":"24458","PointLetter":"X","StopName":"Lambeth Town Hall","Latitude":51.459912,"Longitude":-0.116658,"Action":0},{"StopId":8818,"StopCode":"36214","PointLetter":"S","StopName":"Brixton Station","Latitude":51.462238,"Longitude":-0.115382,"Action":0},{"StopId":11891,"StopCode":"26407","PointLetter":"E","StopName":"Brixton Road / Brixton Police Station","Latitude":51.465355,"Longitude":-0.114001,"Action":0},{"StopId":5611,"StopCode":"2393","PointLetter":"RA","StopName":"Villa Road","Latitude":51.467423,"Longitude":-0.112893,"Action":0},{"StopId":5643,"StopCode":"4726","PointLetter":"RB","StopName":"Loughborough Road","Latitude":51.469586,"Longitude":-0.112588,"Action":0},{"StopId":5657,"StopCode":"2391","PointLetter":"RC","StopName":"Groveway","Latitude":51.472693,"Longitude":-0.112863,"Action":0},{"StopId":5578,"StopCode":"BP2394","PointLetter":"RD","StopName":"Hillyard Street","Latitude":51.474714,"Longitude":-0.112737,"Action":0},{"StopId":5616,"StopCode":"451","PointLetter":"RE","StopName":"Vassall Road","Latitude":51.477308,"Longitude":-0.112414,"Action":0},{"StopId":5629,"StopCode":"517","PointLetter":"H","StopName":"Kennington Church","Latitude":51.480712,"Longitude":-0.111063,"Action":0},{"StopId":11958,"StopCode":"602","PointLetter":"Y","StopName":"Kennington Road","Latitude":51.485047,"Longitude":-0.109444,"Action":0},{"StopId":11985,"StopCode":"604","PointLetter":"KB","StopName":"Kennington Station","Latitude":51.487700,"Longitude":-0.106669,"Action":0},{"StopId":11899,"StopCode":"2143","PointLetter":"BK","StopName":"Penton Place","Latitude":51.490010,"Longitude":-0.104341,"Action":0},{"StopId":11890,"StopCode":"2140","PointLetter":"BL","StopName":"Newington Butts","Latitude":51.492133,"Longitude":-0.102193,"Action":0},{"StopId":10345,"StopCode":"33619","PointLetter":"S","StopName":"Elephant & Castle Station","Latitude":51.493837,"Longitude":-0.100811,"Action":0},{"StopId":10323,"StopCode":"33624","PointLetter":"F","StopName":"Elephant & Castle / Newington Causeway","Latitude":51.496432,"Longitude":-0.099954,"Action":0}], "Routes" : [{"Id":7816,"Route":"415","From":"Hardel Rise","Towards":"Elephant & Castle / Newington Causeway","Run":"1","IsDay":1,"encodedLevels":"PAB@ECB?F@CA??ACBCC@F?A@AE?BI@B?ABF?A?BCAEB?CA@EB?B?GA@A@?@BC@BF?A?DC?@ECACP","encodedPoints":"o~}xHpfTwB_@YSk@CKFcHnHsI|GcG|D}BvAwC|@a@DcBBCCuDUuAMoFCcGnAiDNsBu@qCJe@Hg@PaCbAyGpBcMdDo@\\ObAkAdFS?eEsBwF_CmKwDmK{DiH_DkEaAe@Ec@AeB@sHJsKj@iGIsO{@qDWuEcAeBc@eC}@{CaBiAc@_AP]VgBfAsAPoAJcIyHi@s@sFaGiIsIoCoCmCiC_FmFaIeH_CiDOc@qC{C[KWC_FDm@@g@vAKDK?a@I}@k@UaC[o@sCgA","Color":"993333","hasRunTwo":1,"startPoint":{"Latitude":51.440567,"Longitude":-0.108729},"endPoint":{"Latitude":51.496590,"Longitude":-0.099755}}]}


