{"Stops" : [{"StopId":1879,"StopCode":"29982","PointLetter":"B","StopName":"George Street","Latitude":51.460713,"Longitude":-0.304718,"Action":0},{"StopId":1851,"StopCode":"16350","PointLetter":"C","StopName":"The Quadrant","Latitude":51.462742,"Longitude":-0.302656,"Action":0},{"StopId":1853,"StopCode":"16239","PointLetter":"RS","StopName":"Richmond Circus","Latitude":51.465387,"Longitude":-0.297130,"Action":0},{"StopId":1907,"StopCode":"16242","PointLetter":"ST","StopName":"Sheendale Road","Latitude":51.465959,"Longitude":-0.294402,"Action":0},{"StopId":1827,"StopCode":"9347","PointLetter":"SA","StopName":"Manor Circus","Latitude":51.467140,"Longitude":-0.290313,"Action":0},{"StopId":8957,"StopCode":"25974","PointLetter":"SL","StopName":"Sandycombe Road","Latitude":51.467955,"Longitude":-0.287014,"Action":0},{"StopId":9043,"StopCode":"16243","PointLetter":"A","StopName":"Marksbury Avenue","Latitude":51.468081,"Longitude":-0.282690,"Action":0},{"StopId":9012,"StopCode":"16245","PointLetter":"B","StopName":"Mortlake Road","Latitude":51.468866,"Longitude":-0.279219,"Action":0},{"StopId":12902,"StopCode":"FW36","PointLetter":"M","StopName":"Clifford Avenue","Latitude":51.468884,"Longitude":-0.274309,"Action":0},{"StopId":12890,"StopCode":"R0651","PointLetter":"N","StopName":"Ship Lane / Stag Brewery","Latitude":51.469276,"Longitude":-0.269197,"Action":0},{"StopId":12882,"StopCode":"FW35","PointLetter":"A","StopName":"Sheen Lane / Mortlake Station","Latitude":51.469904,"Longitude":-0.264220,"Action":0},{"StopId":8981,"StopCode":"15255","PointLetter":"S","StopName":"Avondale Road","Latitude":51.469924,"Longitude":-0.259511,"Action":0},{"StopId":9035,"StopCode":"15253","PointLetter":"T","StopName":"White Hart Lane","Latitude":51.470404,"Longitude":-0.256671,"Action":0},{"StopId":9036,"StopCode":"15252","PointLetter":"BK","StopName":"Barnes Bridge Station","Latitude":51.472559,"Longitude":-0.252859,"Action":0},{"StopId":20473,"StopCode":"HC96","PointLetter":"","StopName":"Hail & Ride Section","Latitude":51.486092,"Longitude":-0.234180,"Action":0},{"StopId":20994,"StopCode":"BP5497","PointLetter":"","StopName":"Hammersmith Bridge / North Side","Latitude":51.489647,"Longitude":-0.229015,"Action":0},{"StopId":3854,"StopCode":"29576","PointLetter":"T","StopName":"Hammersmith Bridge Road","Latitude":51.492070,"Longitude":-0.226271,"Action":0},{"StopId":13423,"StopCode":"BP5008","PointLetter":"Z3","StopName":"Hammersmith Bus Station","Latitude":51.492809,"Longitude":-0.222799,"Action":0}], "Routes" : [{"Id":7657,"Route":"419","From":"George Street","Towards":"Hammersmith Bus Station","Run":"1","IsDay":1,"encodedLevels":"P@BDDBAF?@B@E@A@CB@@CAA?A?G@B@@@@AC?D?@?B?GAAD?ABAE??ABCA?DB@C?D@B?@D@BCADAH@CACAFD??@GCGD@FEGAB?DAG?@EA@BF@@B?AB@D?@C@E@C@?B?B@P","encodedPoints":"{sayHfnz@FJ^DXdAkBhA?tCI~@OAMEOKOScB_EqEsJm@i@a@UeFsBo@_@{@s@AKaCkDk@gA[W_@GMJC?KGGIIc@WaDAm@@WHMCa@D}@Gy@cAuIkCaTqAeGGc@qBqIcA_Fw@qBGKKoKJaDSuKEs@c@yDqBkNo@kG{@eOHID?JORq@^uHTuH@iBI}FSkBm@eBiBmGK_AW{D?ML[FGTIRCM_@o@}FSoFFcMGaMm@_IuA}JQa@{BiCw@}BkDwHsCeE_DgDwJaHg@UkC{@oFyBeLeEnEka@QgC}QfEw@`@uHxEoD{QoDtCq@uC]oCI{AQeF`@_TJuMaGkGuJaKuGqG]Lc@p@o@d@WQGOUwC]aBQc@w@}Ak@uBEmAWgCGAm@AgAWU_@Qm@Eo@@aAJSRKJCBo@Fs@JU^]","Color":"993333","hasRunTwo":1,"startPoint":{"Latitude":51.459344,"Longitude":-0.304516},"endPoint":{"Latitude":51.492620,"Longitude":-0.222842}}]}


