{"Stops" : [{"StopId":1657,"StopCode":"37303","PointLetter":"G","StopName":"Victoria Station","Latitude":51.496557,"Longitude":-0.143703,"Action":0},{"StopId":10292,"StopCode":"7817","PointLetter":"R","StopName":"Grosvenor Gardens / Victoria","Latitude":51.495774,"Longitude":-0.145363,"Action":0},{"StopId":10328,"StopCode":"7819","PointLetter":"V","StopName":"Victoria Coach Station","Latitude":51.492085,"Longitude":-0.148091,"Action":0},{"StopId":11875,"StopCode":"BP4875","PointLetter":"","StopName":"Ebury Bridge Road","Latitude":51.489053,"Longitude":-0.150274,"Action":0},{"StopId":7055,"StopCode":"9425","PointLetter":"CB","StopName":"Lister Hospital","Latitude":51.486238,"Longitude":-0.150258,"Action":0},{"StopId":7176,"StopCode":"9331","PointLetter":"CC","StopName":"Battersea Park/Chelsea Gate","Latitude":51.482617,"Longitude":-0.149339,"Action":0},{"StopId":7095,"StopCode":"W18","PointLetter":"F","StopName":"Sopwith Way","Latitude":51.479506,"Longitude":-0.148759,"Action":0},{"StopId":7221,"StopCode":"9335","PointLetter":"C","StopName":"Battersea Park Station","Latitude":51.476917,"Longitude":-0.148259,"Action":0},{"StopId":11933,"StopCode":"25533","PointLetter":"M","StopName":"Battersea Medical Centre","Latitude":51.475487,"Longitude":-0.150520,"Action":0},{"StopId":11954,"StopCode":"25531","PointLetter":"","StopName":"Battersea Park Library","Latitude":51.474558,"Longitude":-0.154331,"Action":0},{"StopId":11865,"StopCode":"25529","PointLetter":"LA","StopName":"Battersea Park School","Latitude":51.473209,"Longitude":-0.161253,"Action":0},{"StopId":1917,"StopCode":"33015","PointLetter":"LB","StopName":"The Latchmere","Latitude":51.472409,"Longitude":-0.164137,"Action":0},{"StopId":1801,"StopCode":"R0280","PointLetter":"LD","StopName":"Bullen Street","Latitude":51.471504,"Longitude":-0.167816,"Action":0},{"StopId":11931,"StopCode":"25524","PointLetter":"LE","StopName":"Battersea High Street","Latitude":51.470433,"Longitude":-0.170566,"Action":0},{"StopId":11883,"StopCode":"BP4468","PointLetter":"LL","StopName":"Badric Court","Latitude":51.469841,"Longitude":-0.174146,"Action":0},{"StopId":11867,"StopCode":"25520","PointLetter":"L","StopName":"York Gardens","Latitude":51.467266,"Longitude":-0.178021,"Action":0},{"StopId":6309,"StopCode":"25518","PointLetter":"P","StopName":"Hope Street","Latitude":51.466221,"Longitude":-0.179013,"Action":0},{"StopId":6311,"StopCode":"25514","PointLetter":"TH","StopName":"Chatfield Road","Latitude":51.464688,"Longitude":-0.181118,"Action":0},{"StopId":6313,"StopCode":"25512","PointLetter":"TJ","StopName":"Petergate","Latitude":51.463157,"Longitude":-0.183842,"Action":0},{"StopId":5085,"StopCode":"17947","PointLetter":"TB","StopName":"Swandon Way","Latitude":51.461789,"Longitude":-0.186718,"Action":0},{"StopId":5125,"StopCode":"LG05","PointLetter":"BB","StopName":"Wandsworth Town Station","Latitude":51.460338,"Longitude":-0.188201,"Action":0},{"StopId":5231,"StopCode":"17945","PointLetter":"J","StopName":"Tonsley Street","Latitude":51.459534,"Longitude":-0.189759,"Action":0},{"StopId":5071,"StopCode":"33273","PointLetter":"M","StopName":"Wandsworth Town Hall","Latitude":51.457811,"Longitude":-0.189971,"Action":0},{"StopId":2111,"StopCode":"13362","PointLetter":"S","StopName":"Garratt Lane / Southside Shopping Centre","Latitude":51.455764,"Longitude":-0.192542,"Action":0},{"StopId":11921,"StopCode":"8853","PointLetter":"","StopName":"Mapleton Road","Latitude":51.453912,"Longitude":-0.191982,"Action":0},{"StopId":11920,"StopCode":"8851","PointLetter":"","StopName":"The Old Sergeant","Latitude":51.451565,"Longitude":-0.190246,"Action":0},{"StopId":11929,"StopCode":"8847","PointLetter":"","StopName":"Swaffield Road","Latitude":51.448279,"Longitude":-0.189398,"Action":0},{"StopId":11928,"StopCode":"8845","PointLetter":"K","StopName":"Henry Prince Estate","Latitude":51.446073,"Longitude":-0.189255,"Action":0},{"StopId":11918,"StopCode":"8841","PointLetter":"E","StopName":"Earlsfield Road","Latitude":51.443177,"Longitude":-0.189182,"Action":0},{"StopId":11963,"StopCode":"8839","PointLetter":"D","StopName":"Earlsfield Station","Latitude":51.441228,"Longitude":-0.187072,"Action":0},{"StopId":11965,"StopCode":"8837","PointLetter":"P","StopName":"Isis Street","Latitude":51.438912,"Longitude":-0.186732,"Action":0},{"StopId":11917,"StopCode":"8834","PointLetter":"SF","StopName":"Waldron Road","Latitude":51.437203,"Longitude":-0.186699,"Action":0},{"StopId":11882,"StopCode":"BP3480","PointLetter":"SG","StopName":"Burntwood Lane","Latitude":51.435784,"Longitude":-0.186266,"Action":0},{"StopId":11926,"StopCode":"8833","PointLetter":"SH","StopName":"Summerstown","Latitude":51.433409,"Longitude":-0.184432,"Action":0},{"StopId":11974,"StopCode":"8826","PointLetter":"SJ","StopName":"Wimbledon Road","Latitude":51.432736,"Longitude":-0.179884,"Action":0},{"StopId":11966,"StopCode":"8825","PointLetter":"SK","StopName":"Streatham Cemetery","Latitude":51.431710,"Longitude":-0.176342,"Action":0},{"StopId":11967,"StopCode":"8823","PointLetter":"HS","StopName":"Fairlight Road","Latitude":51.429881,"Longitude":-0.173250,"Action":0},{"StopId":11960,"StopCode":"8919","PointLetter":"M","StopName":"Tooting Broadway Station","Latitude":51.428472,"Longitude":-0.168847,"Action":0},{"StopId":11889,"StopCode":"25655","PointLetter":"E","StopName":"Mitcham Road / Tooting Broadway Station","Latitude":51.426905,"Longitude":-0.166406,"Action":0},{"StopId":2866,"StopCode":"8816","PointLetter":"TJ","StopName":"Tooting / The Mitre","Latitude":51.425416,"Longitude":-0.164351,"Action":0},{"StopId":2941,"StopCode":"3198","PointLetter":"TL","StopName":"Amen Corner","Latitude":51.423622,"Longitude":-0.161733,"Action":0},{"StopId":8366,"StopCode":"435","PointLetter":"TT","StopName":"Tooting Station","Latitude":51.420679,"Longitude":-0.161046,"Action":0}], "Routes" : [{"Id":2178,"Route":"44","From":"Victoria Station","Towards":"Tooting Station","Run":"1","IsDay":1,"encodedLevels":"PBF@?DBAEDHAE?D@B@DAB?AD?I@AA?BD?A@?ADABAC?B?AD?ABA@GB@DAACD@B?A@DC@@E@BAEBA@D?DF?AB@F@B??BJ?BE@A?ACAB?DBF@BC?EA@A@F?A?AF@@A@EB?B@AH@BA?DA?A?E?BBD@B@D?CGB?BACADAF@AD?P","encodedPoints":"q|hyHj|ZG`J\\bArJfGlDpBlFjD|D~DdEfFNb@dJbBjIfFrAeCnC_EnX_DtUiC@e@Hc@FQ\\WXARLPZHZZRr@G~Cc@ZjATVTr@rBbJV~@tAzHdAvJPdB?r@NzAj@nIdB`PxBrI`BzIn@dFbDpS|ApGPl@lA~Cr@|A\\xAHj@HzA^nNV|CNx@Xz@pBhEb@p@dAhAr@f@hBj@rDtBjDzDhDbFx@zAbCrFL^pDnH\\h@x@hAb@NbBLFHLVLz@GfBTfIZLZg@LIH@RNrE~EzEfL~@QrD_AvBu@jAGFDPdAF`BBzAAnDBdC^R^EvGEpB_@p@_@\\[Z_@f@{@p@m@tAw@v@KxA}@~AmAhEkBhFw@|CYvDe@vGM`@?~Gb@`@`@d@`BPZNJH@RIRQ|HwIzFiG~@k@TGjDMvHObG@bAErCo@j@]xCwBtDaB\\E~@u@Xa@f@sAr@eDJq@JuA?uAIu@c@eCEy@@Qf@{AvBuHh@iEjCwK`AqAhDgFj@eAZ_Ab@_DpBaMbE_NrBkE|BuCjG{Hj@cBx@yAjEwEt@kA`CgJ`@aA\\Op@E|CGj@VbGnD","Color":"993333","hasRunTwo":1,"startPoint":{"Latitude":51.496580,"Longitude":-0.142933},"endPoint":{"Latitude":51.420344,"Longitude":-0.161371}},{"Id":6083,"Route":"N44","From":"Aldwych / Somerset House","Towards":"Sutton Station  / The Quadrant","Run":"1","IsDay":0,"encodedLevels":"PB?DB?AH?A@@@C@B@E@AAAC@HACA?AE?C@@BI@?DBAEDHAE?D@B@DAB?AD?H@AA?BD?A@?ADABAC?B?AD?ABA@GB@DAACD@B?A@DC@@E@BAEBA@D?DF?AB@F@B??BK?BE@A?ACAB?DBF@BC?EA@A@F?A?AF@@A@EB?B@AH@BA?DA?A?E?BBD@B@D?CFB?BACADAE@AJ?B?F??B?B?F??@BA?@E?A@?AB@FAACE@?HB???@CB?E@?BB?E?A?AFAD?C?D@C?I?C?B@B@@D?B@GAD@?BEAABABAE@B@@B@F@C@EAF@@E?A?CAB?P","encodedPoints":"y_lyHtrUhCvLzEbQhCxIdF~Mh@bA~DzIn@`APFFFNIZARFRG|E_CDGzDqAbB_@N?LHtHUnBFnEKh@DnBl@EnCHd@`CzKpAlFjGfVd@`DXxCxDnf@@l@GlBG`J\\bArJfGlDpBlFjD|D~DdEfFNb@dJbBjIfFrAeCnC_EnX_DtUiC@e@Hc@FQ\\WXARLPZHZZRr@G~Cc@ZjATVTr@rBbJV~@tAzHdAvJPdB?r@NzAj@nIdB`PxBrI`BzIn@dFbDpS|ApGPl@lA~Cr@|A\\xAHj@HzA^nNV|CNx@Xz@pBhEb@p@dAhAr@f@hBj@rDtBjDzDhDbFx@zAbCrFL^pDnH\\h@x@hAb@NbBLFHLVLz@GfBTfIZLZg@LIH@RNrE~EzEfL~@QrD_AvBu@jAGFDPdAF`BBzAAnDBdC^R^EvGEpB_@p@_@\\[Z_@f@{@p@m@tAw@v@KxA}@~AmAhEkBhFw@|CYvDe@vGM`@?~Gb@`@`@d@`BPZNJH@RIRQ|HwIzFiG~@k@TGjDMvHObG@bAErCo@j@]xCwBtDaB\\E~@u@Xa@f@sAr@eDJq@JuA?uAIu@c@eCEy@@Qf@{AvBuHh@iEjCwK`AqAhDgFj@eAZ_Ab@_DpBaMbE_NrBkE|BuCjG{Hj@cBx@yAjEwEt@kA`CgJ`@aA\\Op@E|CGj@VfH`Ej@VzE`BZ@zIc@|^kAbD?PBHSDALHBDbGbDdGvDdBr@LANBTPNPFPPt@Br@H\\v@zB^j@\\VZBf@Ol@c@zBeE^V`@Nz@j@tCdC`CpClBdCjFlGd@`@bEbFrHzLlChDnAtAXTb@P^HdKdA~CdAFDh@b@d@h@dErFtCbExJvLrCvEtIxPJb@xAfI`D~HdCzFhFfKv@jApAjApA~@rDlApInCxNjDl@PhJbBhKxBzEnAtBn@bIpBdBZ|En@pAJrEJ~Aa@JQDc@Gw@KsDPSn@QNJ~@WDYNGxVsHlGaCV[DO@WQ_A?e@D]R_@|Ac@h@IPJV`@JhCl@~FRA`GuArASA]Km@ISGE[Ze@BKEMU","Color":"663366","hasRunTwo":1,"startPoint":{"Latitude":51.512459,"Longitude":-0.115784},"endPoint":{"Latitude":51.359183,"Longitude":-0.190709}}]}


