{"Stops" : [{"StopId":20935,"StopCode":"BP5483","PointLetter":"D","StopName":"Power Road","Latitude":51.493302,"Longitude":-0.281281,"Action":0},{"StopId":4497,"StopCode":"29115","PointLetter":"F","StopName":"Oxford Road North","Latitude":51.491737,"Longitude":-0.278171,"Action":0},{"StopId":4551,"StopCode":"15650","PointLetter":"E","StopName":"Oxford Court","Latitude":51.490501,"Longitude":-0.277267,"Action":0},{"StopId":4572,"StopCode":"15648","PointLetter":"C","StopName":"Gunnersbury Station","Latitude":51.490591,"Longitude":-0.274239,"Action":0},{"StopId":4574,"StopCode":"15646","PointLetter":"W","StopName":"Marlborough Road","Latitude":51.490884,"Longitude":-0.270295,"Action":0},{"StopId":2711,"StopCode":"15377","PointLetter":"XX","StopName":"Turnham Green / Sutton Lane North","Latitude":51.492365,"Longitude":-0.267041,"Action":0},{"StopId":7643,"StopCode":"33867","PointLetter":"EE","StopName":"Turnham Green Church","Latitude":51.492602,"Longitude":-0.264281,"Action":0},{"StopId":17378,"StopCode":"R0865","PointLetter":"Q","StopName":"Dolman Road","Latitude":51.492967,"Longitude":-0.260334,"Action":0},{"StopId":1633,"StopCode":"11346","PointLetter":"U","StopName":"Ramillies Road","Latitude":51.495366,"Longitude":-0.260804,"Action":0},{"StopId":1582,"StopCode":"11349","PointLetter":"V","StopName":"Acton Green","Latitude":51.496112,"Longitude":-0.264450,"Action":0},{"StopId":18556,"StopCode":"BP2550","PointLetter":"AA","StopName":"Chiswick Park Station","Latitude":51.494357,"Longitude":-0.268593,"Action":0},{"StopId":18606,"StopCode":"BP3359","PointLetter":"","StopName":"Montgomery Road","Latitude":51.495316,"Longitude":-0.270214,"Action":0},{"StopId":18529,"StopCode":"BP3360","PointLetter":"Q","StopName":"Weston Road","Latitude":51.498063,"Longitude":-0.273524,"Action":0},{"StopId":18495,"StopCode":"BP3361","PointLetter":"R","StopName":"Roslin Road","Latitude":51.499942,"Longitude":-0.277170,"Action":0},{"StopId":18484,"StopCode":"BP3362","PointLetter":"S","StopName":"Hanbury Road","Latitude":51.501031,"Longitude":-0.275429,"Action":0},{"StopId":18485,"StopCode":"BP3363","PointLetter":"T","StopName":"Stanley Road","Latitude":51.501404,"Longitude":-0.273282,"Action":0},{"StopId":18486,"StopCode":"BP3364","PointLetter":"U","StopName":"All Saints Road","Latitude":51.501959,"Longitude":-0.270005,"Action":0},{"StopId":7451,"StopCode":"20818","PointLetter":"W","StopName":"Meon Road","Latitude":51.504316,"Longitude":-0.267034,"Action":0},{"StopId":7604,"StopCode":"15368","PointLetter":"L","StopName":"Acton Old Town Hall","Latitude":51.506121,"Longitude":-0.268075,"Action":0},{"StopId":6385,"StopCode":"2038","PointLetter":"C","StopName":"Steyne Road","Latitude":51.507996,"Longitude":-0.273898,"Action":0},{"StopId":6546,"StopCode":"34178","PointLetter":"A","StopName":"Denehurst Gardens","Latitude":51.508320,"Longitude":-0.277575,"Action":0},{"StopId":18598,"StopCode":"37108","PointLetter":"EF","StopName":"Twyford Crescent","Latitude":51.509354,"Longitude":-0.281254,"Action":0},{"StopId":18550,"StopCode":"36994","PointLetter":"EE","StopName":"Layer Gardens","Latitude":51.511610,"Longitude":-0.281817,"Action":0},{"StopId":18504,"StopCode":"37158","PointLetter":"ED","StopName":"Lynton Road","Latitude":51.514749,"Longitude":-0.282434,"Action":0},{"StopId":18601,"StopCode":"36996","PointLetter":"EA","StopName":"West Acton Station","Latitude":51.517678,"Longitude":-0.279816,"Action":0},{"StopId":18490,"StopCode":"BP3372","PointLetter":"","StopName":"Norman Way","Latitude":51.518695,"Longitude":-0.274373,"Action":0},{"StopId":18492,"StopCode":"BP3373","PointLetter":"","StopName":"Noel Road","Latitude":51.519795,"Longitude":-0.272745,"Action":0},{"StopId":18493,"StopCode":"BP3374","PointLetter":"","StopName":"Walton Way","Latitude":51.521512,"Longitude":-0.273329,"Action":0},{"StopId":18491,"StopCode":"BP3375","PointLetter":"","StopName":"Northfields Road","Latitude":51.522515,"Longitude":-0.271172,"Action":0},{"StopId":18487,"StopCode":"BP3376","PointLetter":"","StopName":"Court Way","Latitude":51.521785,"Longitude":-0.269268,"Action":0},{"StopId":18488,"StopCode":"BP3377","PointLetter":"","StopName":"Cloister Road","Latitude":51.520394,"Longitude":-0.268802,"Action":0},{"StopId":18509,"StopCode":"37106","PointLetter":"N","StopName":"St Gabriel's Church","Latitude":51.519598,"Longitude":-0.266684,"Action":0},{"StopId":11067,"StopCode":"27527","PointLetter":"O","StopName":"Gypsy Corner","Latitude":51.520260,"Longitude":-0.264627,"Action":0},{"StopId":21765,"StopCode":"BP5739","PointLetter":"X","StopName":"North Acton Station","Latitude":51.522876,"Longitude":-0.259727,"Action":0},{"StopId":21178,"StopCode":"BP5562","PointLetter":"W","StopName":"Bethune Road","Latitude":51.524363,"Longitude":-0.261141,"Action":0},{"StopId":18562,"StopCode":"6120","PointLetter":"PJ","StopName":"Sunbeam Road","Latitude":51.526206,"Longitude":-0.259903,"Action":0},{"StopId":18517,"StopCode":"BP752","PointLetter":"PK","StopName":"Bashley Road","Latitude":51.528025,"Longitude":-0.259487,"Action":0},{"StopId":3368,"StopCode":"BP751","PointLetter":"Y","StopName":"Standard Road","Latitude":51.528098,"Longitude":-0.263752,"Action":0},{"StopId":3322,"StopCode":"37161","PointLetter":"G","StopName":"Park Royal Asda","Latitude":51.529290,"Longitude":-0.268392,"Action":0},{"StopId":3378,"StopCode":"BP4971","PointLetter":"A","StopName":"Central Middlesex Hospital","Latitude":51.530262,"Longitude":-0.269033,"Action":0},{"StopId":4292,"StopCode":"BP608","PointLetter":"N","StopName":"Cumberland Avenue","Latitude":51.531580,"Longitude":-0.271867,"Action":0},{"StopId":4261,"StopCode":"34184","PointLetter":"","StopName":"Whitby Avenue","Latitude":51.532528,"Longitude":-0.274512,"Action":0},{"StopId":4239,"StopCode":"BP610","PointLetter":"","StopName":"Commercial Way","Latitude":51.534072,"Longitude":-0.274944,"Action":0},{"StopId":4189,"StopCode":"BP209","PointLetter":"","StopName":"Tudor Estate","Latitude":51.536590,"Longitude":-0.275613,"Action":0},{"StopId":4332,"StopCode":"16564","PointLetter":"P","StopName":"Beresford Avenue","Latitude":51.541134,"Longitude":-0.277633,"Action":0},{"StopId":18528,"StopCode":"BP4310","PointLetter":"F","StopName":"Stonebridge Park Station","Latitude":51.544108,"Longitude":-0.275632,"Action":0}], "Routes" : [{"Id":3244,"Route":"440","From":"Power Road","Towards":"Stonebridge Park Station","Run":"1","IsDay":1,"encodedLevels":"P?D@G@@C?EAFAG??B@?EB@E?C@DBB?IA?@FABF?B?E?@C@E?FB@ABE?ABAD@BIDB?G?DBC?HA?C?A@BEA?I?DC?G@BE@@@BGHF@FAC@?GC@?F@AE?I@B?CA@G@B??BD@BGDG?A?F?A?C?A?AB@E@G??B?A??E@AB@BAF@@?AAD@@BHB@C@F?A?A@C?G???BB@BA?A?AEA@?A@P","encodedPoints":"{ihyHjqu@J~Bx@bMhAIPBHIZEfCeAJuADOU}Aq@sNlH_Al@YCA@SUmWUwHS{Dm@_NiFaJcAeAe@]HqEHyIs@Mi@QVuLG{HIIIA{@PoG\\_AHy@AKfCg@lEaBdGOpC?l@F~@b@hEZPjEjDj@l@`ArCVh@k@lC}ArGuA~@m@PkAPgCfAg@j@OXmAtDoFpMk@xCqCpGaAtAqAzAeBrAmG_p@_AmGs@mCuAuEuAe@_@Qe@l@{GxDkC~@mDvAG|DC^]~Bk@xCyBvMq@xBg@dAYlCG|P[xPEtA}LjBiRxCmJVs@Oe@Qw@m@QWiEuIWuBIM@[_DcXqAyQkSzEcB_WbOsDdCg@YkE?wBDoBXiEFa@sKoHiBmBeAuAgBuBVi@x@eCdCqJiB}CWYYAUHIJOf@aClPGPMHW@g@O[YQUiD}CiDsBgCo@oEw@oEYGbPnFd_@]TiEzBaA^eH`DIGWOMSEUEa@?YHm@FIMc@qAsCI?IDoEhGARDjAATEPWd@AJET?TPR@Nx@p@pDxBFA`@d@?PKVQJ]d@a@f@cCrBe@v@Mh@MdCYvBw@`CkBh@sDb@wIt@}@R}CfAGTGHG@kAn@{BtBs@x@Wh@gGbKMWOMMQwDiEqAkAUEQDGWiBiB_@WyEkFU]qAeASLi@lB@JGVEJI?","Color":"993333","hasRunTwo":1,"startPoint":{"Latitude":51.493590,"Longitude":-0.279419},"endPoint":{"Latitude":51.544271,"Longitude":-0.275818}}]}


