{"Stops" : [{"StopId":13016,"StopCode":"BP5050","PointLetter":"S","StopName":"St Pancras International Station","Latitude":51.531600,"Longitude":-0.127239,"Action":0},{"StopId":3044,"StopCode":"20826","PointLetter":"D","StopName":"King's Cross Station","Latitude":51.530448,"Longitude":-0.123249,"Action":0},{"StopId":9505,"StopCode":"29899","PointLetter":"L","StopName":"King's Cross Road / Pentonville Road","Latitude":51.530704,"Longitude":-0.118423,"Action":0},{"StopId":9503,"StopCode":"29903","PointLetter":"HA","StopName":"Acton Street","Latitude":51.528343,"Longitude":-0.118103,"Action":0},{"StopId":9293,"StopCode":"1179","PointLetter":"HB","StopName":"Eastman Dental Hospital","Latitude":51.526495,"Longitude":-0.117833,"Action":0},{"StopId":9460,"StopCode":"1076","PointLetter":"HC","StopName":"Guilford Street","Latitude":51.524678,"Longitude":-0.116135,"Action":0},{"StopId":9545,"StopCode":"8417","PointLetter":"CD","StopName":"Clerkenwell Road / Rosebery Avenue","Latitude":51.521920,"Longitude":-0.113495,"Action":0},{"StopId":9269,"StopCode":"199","PointLetter":"CT","StopName":"Gray's Inn Road / Theobalds Road","Latitude":51.521029,"Longitude":-0.112884,"Action":0},{"StopId":9436,"StopCode":"8416","PointLetter":"C","StopName":"High Holborn / Chancery Lane Station","Latitude":51.518858,"Longitude":-0.111546,"Action":0},{"StopId":9516,"StopCode":"BP2996","PointLetter":"J","StopName":"Holborn Circus / Fetter Lane","Latitude":51.517999,"Longitude":-0.109059,"Action":0},{"StopId":9510,"StopCode":"9109","PointLetter":"M","StopName":"Charterhouse Street","Latitude":51.518289,"Longitude":-0.106366,"Action":0},{"StopId":9467,"StopCode":"8562","PointLetter":"HT","StopName":"Snow Hill","Latitude":51.518080,"Longitude":-0.105121,"Action":0},{"StopId":9466,"StopCode":"8564","PointLetter":"L","StopName":"Fleet Street / City Thameslink","Latitude":51.514911,"Longitude":-0.104388,"Action":0},{"StopId":10791,"StopCode":"206","PointLetter":"K","StopName":"Queen Victoria Street","Latitude":51.512488,"Longitude":-0.104114,"Action":0},{"StopId":21758,"StopCode":"BP5731","PointLetter":"L","StopName":"Blackfriars Station  / North Entrance","Latitude":51.510349,"Longitude":-0.104217,"Action":0},{"StopId":10885,"StopCode":"37666","PointLetter":"D","StopName":"Blackfriars Station / South  Entrance","Latitude":51.508381,"Longitude":-0.104270,"Action":0},{"StopId":10783,"StopCode":"2586","PointLetter":"SB","StopName":"Southwark Station","Latitude":51.504138,"Longitude":-0.104403,"Action":0},{"StopId":10981,"StopCode":"2587","PointLetter":"W","StopName":"Pocock Street","Latitude":51.502062,"Longitude":-0.104475,"Action":0},{"StopId":10924,"StopCode":"34366","PointLetter":"X","StopName":"St George's Circus","Latitude":51.499654,"Longitude":-0.104575,"Action":0},{"StopId":1552,"StopCode":"33137","PointLetter":"D","StopName":"Elephant & Castle / London Road","Latitude":51.496635,"Longitude":-0.101977,"Action":0},{"StopId":1655,"StopCode":"33614","PointLetter":"R","StopName":"Elephant & Castle Station","Latitude":51.493885,"Longitude":-0.100420,"Action":0},{"StopId":1656,"StopCode":"26064","PointLetter":"A","StopName":"Larcom Street","Latitude":51.490802,"Longitude":-0.097178,"Action":0},{"StopId":1553,"StopCode":"2609","PointLetter":"E","StopName":"East Street","Latitude":51.487153,"Longitude":-0.095097,"Action":0},{"StopId":1601,"StopCode":"25105","PointLetter":"J","StopName":"Westmoreland Road","Latitude":51.485714,"Longitude":-0.093990,"Action":0},{"StopId":1623,"StopCode":"2612","PointLetter":"N","StopName":"Camberwell Road / Albany Road","Latitude":51.481421,"Longitude":-0.094328,"Action":0},{"StopId":1637,"StopCode":"2615","PointLetter":"N","StopName":"Bowyer Place","Latitude":51.479773,"Longitude":-0.094166,"Action":0},{"StopId":10349,"StopCode":"34459","PointLetter":"B","StopName":"Medlar Street","Latitude":51.477691,"Longitude":-0.093878,"Action":0},{"StopId":10242,"StopCode":"26059","PointLetter":"Q","StopName":"Denmark Hill / Camberwell Green","Latitude":51.473217,"Longitude":-0.093028,"Action":0},{"StopId":10304,"StopCode":"13298","PointLetter":"X","StopName":"Valmar Road","Latitude":51.471634,"Longitude":-0.093583,"Action":0},{"StopId":10300,"StopCode":"26325","PointLetter":"H6","StopName":"Caldecot Road","Latitude":51.470010,"Longitude":-0.095451,"Action":0},{"StopId":10234,"StopCode":"26323","PointLetter":"H","StopName":"Lilford Road","Latitude":51.468561,"Longitude":-0.098189,"Action":0},{"StopId":10339,"StopCode":"539","PointLetter":"B","StopName":"Loughborough Junction Station","Latitude":51.466595,"Longitude":-0.100574,"Action":0},{"StopId":10317,"StopCode":"13290","PointLetter":"K","StopName":"Shakespeare Road","Latitude":51.464296,"Longitude":-0.104154,"Action":0},{"StopId":10303,"StopCode":"13288","PointLetter":"N","StopName":"Moorland Road","Latitude":51.463321,"Longitude":-0.106671,"Action":0},{"StopId":10203,"StopCode":"14360","PointLetter":"R","StopName":"Brixton Station Road","Latitude":51.464209,"Longitude":-0.109859,"Action":0},{"StopId":10236,"StopCode":"26203","PointLetter":"K","StopName":"Gresham Road / Brixton Police Station","Latitude":51.464946,"Longitude":-0.113226,"Action":0},{"StopId":5640,"StopCode":"233","PointLetter":"Q","StopName":"Brixton Station","Latitude":51.461582,"Longitude":-0.115380,"Action":0},{"StopId":5591,"StopCode":"2396","PointLetter":"BA","StopName":"Rush Common","Latitude":51.458465,"Longitude":-0.117264,"Action":0},{"StopId":5618,"StopCode":"4725","PointLetter":"BB","StopName":"Brixton Water Lane","Latitude":51.456122,"Longitude":-0.118699,"Action":0},{"StopId":5605,"StopCode":"709","PointLetter":"BC","StopName":"Blenheim Gardens","Latitude":51.454066,"Longitude":-0.119979,"Action":0},{"StopId":5624,"StopCode":"708","PointLetter":"BD","StopName":"Jebb Avenue / Brixton Prison","Latitude":51.452214,"Longitude":-0.121178,"Action":0},{"StopId":5669,"StopCode":"705","PointLetter":"BE","StopName":"New Park Road","Latitude":51.448819,"Longitude":-0.123634,"Action":0},{"StopId":5539,"StopCode":"2398","PointLetter":"BF","StopName":"Holmewood Road","Latitude":51.447065,"Longitude":-0.124181,"Action":0},{"StopId":2909,"StopCode":"BP2083","PointLetter":"BP","StopName":"Streatham Place","Latitude":51.446082,"Longitude":-0.126840,"Action":0},{"StopId":2955,"StopCode":"12758","PointLetter":"H","StopName":"Atkins Road / New Park Road","Latitude":51.447159,"Longitude":-0.129516,"Action":0}], "Routes" : [{"Id":1143,"Route":"45","From":"St Pancras International Station","Towards":"Atkins Road / New Park Road","Run":"1","IsDay":1,"encodedLevels":"P?CBA?G?AF@D?ABGA?BB?EB@?GA?AC@?BD?A?G@A?D@IABBB@AABE@B@CAA?AA?GB?B@AD@DC?A@FD@D?F?@A@AE@BAC@@G@DAADA?AE@B??@AD?BE@DAJADA@BD??BD?A@DD@@EA@G@@AAE@B@H?B?DB@?C?BBE@B@CAH?@?AP","encodedPoints":"{|oyHr}WlH_Dt@_@tFcA\\Q@IR[wDcMi@yAgBgHI_EEeGV_C\\aCzAqIv@kCV[LCz@IvAGJHHN|BlQJNJHJ?X]nCsAnAi@dFuDjDsDrA_BrGaHxFgEl@_@`H}DdHiDvAk@Dy@Ee@l@qJZ{FIMmCmMpAEbMyBLLxMgBjAAv@BXKjAErAg@VZXJ~AP`ADtONTGpDHpJLJLxORzSZr@OH[FGd@IX?b@QnBuChHsJbCaEA}@@g@H_@HM|Ac@v@|B@Tf@E`EOJGHMNe@^eCl@_CZ[jJwFxHiE|FwCbFkBhAu@hCsBlBkAz@SzBS~@PzCdBlBh@~Pq@fE_@lCQzHYr@IrDw@PMFINKx@YbGkAlA^`@R`A?GeA?gAXYdBm@n@~Df@xAh@f@d@NfDjBZl@Rh@`CnI~@vChA~BbChCn@j@zEvFd@x@jFvOVV`@J`D~AzAtGpDjLd@jBg@x@i@tAaCjFm@v@}ChHC`CJnDNxBb@`Cb@R`InCzFtAlA^Xn@ra@nSHFxIrErI`FdKzFbFbEbDfBh@NdBTvHH`AEd@ZdARiAbDwFdQc@~Aq@nBa@xB","Color":"993333","hasRunTwo":1,"startPoint":{"Latitude":51.532465,"Longitude":-0.127774},"endPoint":{"Latitude":51.447346,"Longitude":-0.129921}}]}


