{"Stops" : [{"StopId":3643,"StopCode":"35437","PointLetter":"Z","StopName":"The Lowe","Latitude":51.608392,"Longitude":0.108891,"Action":0},{"StopId":15761,"StopCode":"20885","PointLetter":"P","StopName":"Tunstall Avenue","Latitude":51.607593,"Longitude":0.109359,"Action":0},{"StopId":3644,"StopCode":"35438","PointLetter":"T","StopName":"Kielder Close","Latitude":51.607231,"Longitude":0.106440,"Action":0},{"StopId":3658,"StopCode":"LE148","PointLetter":"U","StopName":"Hainault Health Centre","Latitude":51.608301,"Longitude":0.103456,"Action":0},{"StopId":3659,"StopCode":"LE150","PointLetter":"V","StopName":"Manford Primary School","Latitude":51.608953,"Longitude":0.099659,"Action":0},{"StopId":3729,"StopCode":"LE151","PointLetter":"W","StopName":"Tine Road","Latitude":51.610544,"Longitude":0.096714,"Action":0},{"StopId":3633,"StopCode":"LE152","PointLetter":"X","StopName":"Brocket Way","Latitude":51.612732,"Longitude":0.095052,"Action":0},{"StopId":3635,"StopCode":"BP740","PointLetter":"D","StopName":"Manor Road / Grange Hill Station","Latitude":51.613886,"Longitude":0.093835,"Action":0},{"StopId":3630,"StopCode":"LE155","PointLetter":"B","StopName":"Grange Hill Station","Latitude":51.613323,"Longitude":0.091628,"Action":0},{"StopId":3660,"StopCode":"LE157","PointLetter":"","StopName":"Millwell Crescent","Latitude":51.612176,"Longitude":0.087906,"Action":0},{"StopId":3730,"StopCode":"LE159","PointLetter":"","StopName":"St Winifred's Church","Latitude":51.611327,"Longitude":0.084039,"Action":0},{"StopId":18140,"StopCode":"OC648","PointLetter":"","StopName":"Amanda Close","Latitude":51.604737,"Longitude":0.087998,"Action":0},{"StopId":3726,"StopCode":"15401","PointLetter":"Y","StopName":"Tudor Crescent","Latitude":51.606031,"Longitude":0.083508,"Action":0},{"StopId":3700,"StopCode":"15399","PointLetter":"W","StopName":"New North Road","Latitude":51.600886,"Longitude":0.084558,"Action":0},{"StopId":3723,"StopCode":"15397","PointLetter":"X","StopName":"Neville Road","Latitude":51.597904,"Longitude":0.084869,"Action":0},{"StopId":3669,"StopCode":"432","PointLetter":"K","StopName":"Tomswood Hill","Latitude":51.595492,"Longitude":0.084441,"Action":0},{"StopId":3678,"StopCode":"20198","PointLetter":"D","StopName":"Fullwell Cross","Latitude":51.592565,"Longitude":0.084206,"Action":0},{"StopId":3516,"StopCode":"9613","PointLetter":"G","StopName":"Waverley Gardens","Latitude":51.591033,"Longitude":0.082879,"Action":0},{"StopId":2994,"StopCode":"18042","PointLetter":"H","StopName":"Barkingside High Street","Latitude":51.590252,"Longitude":0.081256,"Action":0},{"StopId":18296,"StopCode":"OC646","PointLetter":"","StopName":"Longwood Gardens","Latitude":51.587141,"Longitude":0.069579,"Action":0},{"StopId":448,"StopCode":"14290","PointLetter":"WH","StopName":"Highwood Gardens","Latitude":51.580807,"Longitude":0.060039,"Action":0},{"StopId":450,"StopCode":"15435","PointLetter":"WP","StopName":"Glenwood Gardens","Latitude":51.579290,"Longitude":0.062929,"Action":0},{"StopId":387,"StopCode":"13450","PointLetter":"WQ","StopName":"Gants Hill Station  /  Woodford Avenue","Latitude":51.577496,"Longitude":0.065720,"Action":0},{"StopId":3736,"StopCode":"1325","PointLetter":"EV","StopName":"Gants Hill Roundabout","Latitude":51.576423,"Longitude":0.064864,"Action":0},{"StopId":18324,"StopCode":"OC647","PointLetter":"","StopName":"Beehive Lane","Latitude":51.573072,"Longitude":0.064163,"Action":0},{"StopId":349,"StopCode":"14204","PointLetter":"CJ","StopName":"Valentines Mansion and Park","Latitude":51.571889,"Longitude":0.064470,"Action":0},{"StopId":351,"StopCode":"15437","PointLetter":"VA","StopName":"Bethell Avenue","Latitude":51.569596,"Longitude":0.064453,"Action":0},{"StopId":399,"StopCode":"16346","PointLetter":"VB","StopName":"Valentine's Park","Latitude":51.567044,"Longitude":0.065867,"Action":0},{"StopId":451,"StopCode":"15439","PointLetter":"VC","StopName":"The Drive","Latitude":51.565634,"Longitude":0.066279,"Action":0},{"StopId":401,"StopCode":"LE136","PointLetter":"VJ","StopName":"Coventry Road","Latitude":51.563018,"Longitude":0.067777,"Action":0},{"StopId":470,"StopCode":"FC46","PointLetter":"D","StopName":"Ilford Station","Latitude":51.560466,"Longitude":0.069709,"Action":0},{"StopId":370,"StopCode":"FC44","PointLetter":"P","StopName":"Chapel Road","Latitude":51.557696,"Longitude":0.070233,"Action":0},{"StopId":269,"StopCode":"FC60","PointLetter":"R","StopName":"Ilford Central Library","Latitude":51.558153,"Longitude":0.074380,"Action":0},{"StopId":432,"StopCode":"R0868","PointLetter":"S","StopName":"Hainault Street","Latitude":51.559592,"Longitude":0.075917,"Action":0}], "Routes" : [{"Id":290,"Route":"462","From":"The Lowe","Towards":"Hainault Street","Run":"1","IsDay":1,"encodedLevels":"P@DFFCD?E@@C?BG?AC?ABAG@@B?@@BI?F?C?A?@D@B@??AF@AC?@B?EBHAA@BB?GAD@BA?F?HB?AE??C??ADA@E?B@C?ABA?I?A??A?DF@ACB@F?A?A?@?ABJ@?BC?@CAH?@A?CA@C??AAH@BCAB?AF?A?@D?@BFAABEBA@E?C@BBBECAC?AH?B@@D?EBD@BAD@BE?P","encodedPoints":"sv~yHkcTIyAw@wGjCoAlDfWqBdASwAADwAr@?hBS~HMfBg@jFsBvRiA`G_@`A_@p@gAtAe@`@iMzIyFpEGf@]`@~@`EnDxQjChL`@dCZvB^rDfBjLnB`IVGxFmBm@eFWyAOi@OYg@u@SSUg@^qBJmABoACaACe@AuDLa@NUtAsAtAwBHg@@YT_ANW\\]vK{DjBWRXv@|EvAzEVl@bA~E?\\E`@Q`@kDzDqAd@}IdCqHbCWN]XHXpA|HrM_CjBq@pIiCtFmA`@F@@fDX~AUjD_@rI{@tCOnABpRdBh@@LCVSJ]~A{CNINETe@TGJ?NHHJHRDX?\\Fj@Pj@DDtRvOMj@OhAuAxNO~FBp@Jj@vBbF`@hAjBdGnCbIxEjMvEnMlFdN|AjEhP`e@`@XNHFAR?d@c@bAaC~EwLvDsIjHeM|EsHD?NPDTLlA?XGXY\\MB?h@Jx@B~@QjQLdJl@WdBiAdCcCZo@rFqGVc@nEuGLe@^\\lAz@x@`Ah@x@NJVH^D`@@x@QzAeAlOsG~BsAhEyAtB`A\\HZ@VGPMzFgGrAo@xEwCZo@bEaDbEcB`DaAbAPzE@`@Ij@QnAy@NORa@T_BEOHi@e@iCoAgG_@I_A^m@yAmAyD]qCYq@[OW?aC`AIe@W_C","Color":"993333","hasRunTwo":1,"startPoint":{"Latitude":51.608268,"Longitude":0.108225},"endPoint":{"Latitude":51.559628,"Longitude":0.076399}}]}


