{"Stops" : [{"StopId":11344,"StopCode":"BP2729","PointLetter":"H3","StopName":"Queen Elizabeth Hospital / West Entrance","Latitude":51.476905,"Longitude":0.050731,"Action":0},{"StopId":12415,"StopCode":"35589","PointLetter":"H1","StopName":"Queen Elizabeth Hospital / Main Entrance","Latitude":51.478254,"Longitude":0.051757,"Action":0},{"StopId":12454,"StopCode":"35505","PointLetter":"K","StopName":"Ha Ha Road / Repository Road","Latitude":51.480650,"Longitude":0.054601,"Action":0},{"StopId":12297,"StopCode":"26645","PointLetter":"C","StopName":"Gunner Lane","Latitude":51.483002,"Longitude":0.062023,"Action":0},{"StopId":12376,"StopCode":"26644","PointLetter":"D","StopName":"Naafi Messing Store","Latitude":51.486366,"Longitude":0.063011,"Action":0},{"StopId":20938,"StopCode":"BP5481","PointLetter":"Q","StopName":"Woolwich Arsenal Station","Latitude":51.489932,"Longitude":0.068358,"Action":0},{"StopId":21138,"StopCode":"BP5540","PointLetter":"K","StopName":"Plumstead Road / Woolwich Public Market","Latitude":51.491404,"Longitude":0.071075,"Action":0},{"StopId":11576,"StopCode":"R0385","PointLetter":"","StopName":"Maxey Road","Latitude":51.491168,"Longitude":0.077259,"Action":0},{"StopId":11848,"StopCode":"BP1283","PointLetter":"A","StopName":"Plumstead Bus Garage","Latitude":51.491144,"Longitude":0.081176,"Action":0},{"StopId":12375,"StopCode":"26625","PointLetter":"C","StopName":"Plumstead High Street / Plumstead Stn","Latitude":51.489622,"Longitude":0.085846,"Action":0},{"StopId":12427,"StopCode":"1817","PointLetter":"D","StopName":"Lakedale Road","Latitude":51.487831,"Longitude":0.090950,"Action":0},{"StopId":12302,"StopCode":"26618","PointLetter":"F","StopName":"Plumstead High Street / Police Station","Latitude":51.486920,"Longitude":0.095158,"Action":0},{"StopId":12432,"StopCode":"9167","PointLetter":"H","StopName":"Purrett Road","Latitude":51.486142,"Longitude":0.098420,"Action":0},{"StopId":12374,"StopCode":"26613","PointLetter":"K","StopName":"Plumstead Corner / Church Manorway","Latitude":51.485792,"Longitude":0.100882,"Action":0},{"StopId":12328,"StopCode":"BP313","PointLetter":"L","StopName":"Churchfield School","Latitude":51.486593,"Longitude":0.101379,"Action":0},{"StopId":12447,"StopCode":"BP328","PointLetter":"M","StopName":"Brookdene Road","Latitude":51.488792,"Longitude":0.102114,"Action":0},{"StopId":12435,"StopCode":"BP356","PointLetter":"","StopName":"Woodhurst Road","Latitude":51.488235,"Longitude":0.105589,"Action":0},{"StopId":12305,"StopCode":"26608","PointLetter":"","StopName":"Cassilda Road","Latitude":51.486675,"Longitude":0.107332,"Action":0},{"StopId":12393,"StopCode":"29363","PointLetter":"","StopName":"Eynsham Drive / Blithdale Road","Latitude":51.489561,"Longitude":0.107869,"Action":0},{"StopId":12332,"StopCode":"29365","PointLetter":"","StopName":"Felixstowe Road","Latitude":51.493428,"Longitude":0.110338,"Action":0},{"StopId":12366,"StopCode":"BP634","PointLetter":"","StopName":"Finchale Road / Eynsham Drive","Latitude":51.494623,"Longitude":0.112424,"Action":0},{"StopId":12363,"StopCode":"BP325","PointLetter":"","StopName":"Penmon Road","Latitude":51.493486,"Longitude":0.107603,"Action":0},{"StopId":12362,"StopCode":"BP326","PointLetter":"","StopName":"St Pauls Academy","Latitude":51.493010,"Longitude":0.105103,"Action":0},{"StopId":12387,"StopCode":"BP323","PointLetter":"","StopName":"Sewell Road / Church Manorway","Latitude":51.495302,"Longitude":0.104172,"Action":0},{"StopId":12360,"StopCode":"BP636","PointLetter":"","StopName":"Devenish Road","Latitude":51.496485,"Longitude":0.107886,"Action":0},{"StopId":12368,"StopCode":"BP322","PointLetter":"","StopName":"Abbey Wood Pumping Station","Latitude":51.497506,"Longitude":0.111131,"Action":0},{"StopId":12401,"StopCode":"BP369","PointLetter":"","StopName":"The Birchwood","Latitude":51.497564,"Longitude":0.114895,"Action":0},{"StopId":12411,"StopCode":"34582","PointLetter":"","StopName":"Boxgrove Road","Latitude":51.496096,"Longitude":0.116498,"Action":0},{"StopId":12395,"StopCode":"34584","PointLetter":"S","StopName":"Eynsham Drive / Harrow Manor Way","Latitude":51.496306,"Longitude":0.119807,"Action":0},{"StopId":11793,"StopCode":"33040","PointLetter":"B","StopName":"Harrow Manorway / Yarnton Way","Latitude":51.495228,"Longitude":0.121226,"Action":0},{"StopId":11794,"StopCode":"33041","PointLetter":"BA","StopName":"Overton Road","Latitude":51.493420,"Longitude":0.121272,"Action":0},{"StopId":11626,"StopCode":"35309","PointLetter":"D","StopName":"Harrow Manorway / Abbey Wood Station","Latitude":51.490930,"Longitude":0.122223,"Action":0},{"StopId":11566,"StopCode":"26601","PointLetter":"E","StopName":"Abbey Wood Road","Latitude":51.489437,"Longitude":0.121231,"Action":0},{"StopId":11632,"StopCode":"3964","PointLetter":"","StopName":"Lesnes Abbey","Latitude":51.490145,"Longitude":0.128279,"Action":0},{"StopId":11628,"StopCode":"6600","PointLetter":"","StopName":"Elstree Gardens","Latitude":51.490566,"Longitude":0.132851,"Action":0},{"StopId":11499,"StopCode":"6229","PointLetter":"","StopName":"Tunstock Way","Latitude":51.490429,"Longitude":0.137873,"Action":0},{"StopId":11759,"StopCode":"6231","PointLetter":"","StopName":"Kingswood Avenue","Latitude":51.490825,"Longitude":0.140859,"Action":0},{"StopId":11772,"StopCode":"6233","PointLetter":"A","StopName":"St Augustine's Road","Latitude":51.491235,"Longitude":0.144494,"Action":0},{"StopId":11774,"StopCode":"6236","PointLetter":"B","StopName":"Gilbert Road","Latitude":51.491347,"Longitude":0.147697,"Action":0},{"StopId":11382,"StopCode":"6315","PointLetter":"C","StopName":"Lower Road / Belvedere Station","Latitude":51.490558,"Longitude":0.153436,"Action":0},{"StopId":11756,"StopCode":"6239","PointLetter":"D","StopName":"Halt Robin Lane","Latitude":51.490183,"Longitude":0.156746,"Action":0},{"StopId":11775,"StopCode":"6242","PointLetter":"","StopName":"Poplar Mount","Latitude":51.490456,"Longitude":0.159971,"Action":0},{"StopId":11406,"StopCode":"6243","PointLetter":"","StopName":"Mayfield Road","Latitude":51.490135,"Longitude":0.162765,"Action":0},{"StopId":11737,"StopCode":"6247","PointLetter":"","StopName":"Lower Road / Church Manorway","Latitude":51.487943,"Longitude":0.169460,"Action":0},{"StopId":11736,"StopCode":"6249","PointLetter":"","StopName":"St Francis Road","Latitude":51.486176,"Longitude":0.171638,"Action":0},{"StopId":11777,"StopCode":"6251","PointLetter":"","StopName":"Winifred Road / The Ship","Latitude":51.484354,"Longitude":0.174835,"Action":0},{"StopId":11381,"StopCode":"6254","PointLetter":"L","StopName":"Erith Station  / West Street","Latitude":51.482516,"Longitude":0.178866,"Action":0},{"StopId":12471,"StopCode":"BP2250","PointLetter":"","StopName":"Erith Town Centre / Riverside","Latitude":51.480763,"Longitude":0.180281,"Action":0}], "Routes" : [{"Id":2044,"Route":"469","From":"Queen Elizabeth Hospital / West Entrance","Towards":"Erith Town Centre / Riverside","Run":"1","IsDay":1,"encodedLevels":"PA?CB@F?@C@F@BBC??FA@D@@A?A?I?AD??ACAF?AC?AC?AB?D??A@AG@EADA?FG?@F@HA@DA@GACAAH@CA?ECAFFH??IF@CC?CA@G?A@C?EBAE@DC?@H@C??A@F@@?@@B@A@DADCAF@A?AD@B?B?E@A?@CBH?@?B@C@AC?@F@@C?AD?B@D?D?CA@?CAF?A?B?@P","encodedPoints":"y_eyHwzHwGcF}AcAwBqAyC_BuAWO@I_Bg@yFu@mHm@kDwGs\\{@g@]GaEG{IyBYIuD_BmAk@c@aB}F}OS]eG}HMYaGmHG?OBCAGUTgC|AeOPqECsAUaEa@}IEyDF}G`@sK\\mCp@{Fp@yCh@aAdBoC^_AJs@dAsET_ChBsGtCqKReB`AkHbBiN`BeLb@_Cp@oHJeFEQmDFqFZk@Ga@QgBcA[qWh@FnHzA~F|@X}Bf@}GcEqAoDu@oCa@qWgA_@Ca@Me@[aAiB}AyGuCgKs@iB]^s@rAKp@An@B\\lIz^XlC?lAw@fMkJaCK[wGa[mJ}b@lNqKUoAa@gEEkPm@gBIa@Bq@HUNORGH?l@XxCl@dB?xKOtAKZa@pIkDjB?tBFpCp@BJBRAd@Yp@KHIBKC_ACqAPm@A?UEE@WBEDwFCaB]_LUwLaAcW]gNZuERsIcA}Ui@cDoAkLFgEEiGEsCc@}NBgBJsBh@kFf@kBtA_GPcBViD@{AG]JoDDa@PmLu@mMHaB~@iKBG?a@Bc@nAqFBa@@aCE_@JuEJWn@qAR{@N[^_@xCyE`@qAn@kCtAiDb@b@LFV?JGn@_AnFmJvCeHpE_KZ}AjDsJPo@dEyL`@e@z@c@F?LHDDDR?j@HtFEJ","Color":"993333","hasRunTwo":1,"startPoint":{"Latitude":51.476612,"Longitude":0.050521},"endPoint":{"Latitude":51.480885,"Longitude":0.179570}}]}


