{"Stops" : [{"StopId":12365,"StopCode":"BP2273","PointLetter":"A","StopName":"North Greenwich Station","Latitude":51.499716,"Longitude":0.004670,"Action":0},{"StopId":12440,"StopCode":"BP2463","PointLetter":"MC","StopName":"Millennium Village / Oval Square","Latitude":51.494030,"Longitude":0.013741,"Action":0},{"StopId":12441,"StopCode":"BP2461","PointLetter":"MD","StopName":"Millennium Village South","Latitude":51.491801,"Longitude":0.013657,"Action":0},{"StopId":12408,"StopCode":"BP2782","PointLetter":"ME","StopName":"Odeon Cinema","Latitude":51.490068,"Longitude":0.013033,"Action":0},{"StopId":12396,"StopCode":"BP2401","PointLetter":"MF","StopName":"Sainsbury's At Greenwich Peninsula","Latitude":51.489253,"Longitude":0.015950,"Action":0},{"StopId":12318,"StopCode":"BP2172","PointLetter":"","StopName":"Peninsular Park Road","Latitude":51.490064,"Longitude":0.022108,"Action":0},{"StopId":12413,"StopCode":"35706","PointLetter":"","StopName":"Anchor and Hope Lane","Latitude":51.490106,"Longitude":0.029068,"Action":0},{"StopId":14813,"StopCode":"26701","PointLetter":"E","StopName":"Charlton Station  / Woolwich Road","Latitude":51.488369,"Longitude":0.032793,"Action":0},{"StopId":14213,"StopCode":"BP2408","PointLetter":"C","StopName":"Stone Lake Retail Park","Latitude":51.489420,"Longitude":0.036974,"Action":0},{"StopId":14665,"StopCode":"26699","PointLetter":"A","StopName":"Woolwich Road / Charlton Lane","Latitude":51.490104,"Longitude":0.038993,"Action":0},{"StopId":13850,"StopCode":"29851","PointLetter":"","StopName":"Eastmoor Street","Latitude":51.491338,"Longitude":0.041482,"Action":0},{"StopId":14156,"StopCode":"37977","PointLetter":"","StopName":"Warspite Road","Latitude":51.492460,"Longitude":0.047770,"Action":0},{"StopId":14951,"StopCode":"R0563","PointLetter":"DE","StopName":"Frances Street","Latitude":51.492937,"Longitude":0.053914,"Action":0},{"StopId":14834,"StopCode":"26692","PointLetter":"","StopName":"Kingsman Street","Latitude":51.493065,"Longitude":0.056384,"Action":0},{"StopId":14570,"StopCode":"35487","PointLetter":"","StopName":"Woolwich Ferry","Latitude":51.493693,"Longitude":0.059048,"Action":0},{"StopId":14805,"StopCode":"37259","PointLetter":"Y","StopName":"John Wilson Street / Powis Street","Latitude":51.492846,"Longitude":0.061171,"Action":0},{"StopId":14826,"StopCode":"37149","PointLetter":"T","StopName":"Thomas Street / Greens End","Latitude":51.490669,"Longitude":0.066331,"Action":0},{"StopId":20939,"StopCode":"BP5480","PointLetter":"N","StopName":"Woolwich Arsenal Station","Latitude":51.489801,"Longitude":0.068136,"Action":0},{"StopId":21138,"StopCode":"BP5540","PointLetter":"K","StopName":"Plumstead Road / Woolwich Public Market","Latitude":51.491404,"Longitude":0.071075,"Action":0},{"StopId":11576,"StopCode":"R0385","PointLetter":"","StopName":"Maxey Road","Latitude":51.491168,"Longitude":0.077259,"Action":0},{"StopId":11848,"StopCode":"BP1283","PointLetter":"A","StopName":"Plumstead Bus Garage","Latitude":51.491144,"Longitude":0.081176,"Action":0},{"StopId":14924,"StopCode":"BP2142","PointLetter":"P","StopName":"Pettman Crescent","Latitude":51.490788,"Longitude":0.087023,"Action":0},{"StopId":14609,"StopCode":"BP2150","PointLetter":"R","StopName":"Hadden Road","Latitude":51.491891,"Longitude":0.091741,"Action":0},{"StopId":14453,"StopCode":"BP2146","PointLetter":"","StopName":"Boughton Road","Latitude":51.493380,"Longitude":0.094460,"Action":0},{"StopId":14219,"StopCode":"BP2145","PointLetter":"","StopName":"Purland Road West","Latitude":51.495491,"Longitude":0.098634,"Action":0},{"StopId":14168,"StopCode":"BP2141","PointLetter":"","StopName":"Purland Road East","Latitude":51.495355,"Longitude":0.102690,"Action":0},{"StopId":14761,"StopCode":"BP2148","PointLetter":"","StopName":"Nathan Way / Eastern Way","Latitude":51.497982,"Longitude":0.104612,"Action":0},{"StopId":11666,"StopCode":"BP3114","PointLetter":"","StopName":"Grasshaven Way","Latitude":51.502330,"Longitude":0.102896,"Action":0},{"StopId":11829,"StopCode":"BP1813","PointLetter":"","StopName":"Watersmeet Place","Latitude":51.505175,"Longitude":0.104713,"Action":0},{"StopId":11518,"StopCode":"BP1583","PointLetter":"B","StopName":"Central Way / Thamesmead Town Centre","Latitude":51.505975,"Longitude":0.106739,"Action":0},{"StopId":11766,"StopCode":"36668","PointLetter":"G","StopName":"Gallions Reach Health Centre","Latitude":51.505836,"Longitude":0.110955,"Action":0},{"StopId":11612,"StopCode":"35921","PointLetter":"SA","StopName":"Hawksmoor School","Latitude":51.504009,"Longitude":0.111519,"Action":0},{"StopId":11611,"StopCode":"35922","PointLetter":"SB","StopName":"Southwood Road","Latitude":51.502221,"Longitude":0.112963,"Action":0},{"StopId":11804,"StopCode":"35926","PointLetter":"SC","StopName":"Titmuss Avenue","Latitude":51.503631,"Longitude":0.117524,"Action":0},{"StopId":11747,"StopCode":"36531","PointLetter":"SD","StopName":"Poplar Place","Latitude":51.505698,"Longitude":0.120589,"Action":0},{"StopId":11805,"StopCode":"36530","PointLetter":"NA","StopName":"Curlew Close","Latitude":51.506590,"Longitude":0.124507,"Action":0},{"StopId":11753,"StopCode":"37181","PointLetter":"NB","StopName":"Lister Walk","Latitude":51.506700,"Longitude":0.126371,"Action":0},{"StopId":11679,"StopCode":"36676","PointLetter":"NC","StopName":"Manordene Road","Latitude":51.509372,"Longitude":0.124795,"Action":0},{"StopId":11749,"StopCode":"36522","PointLetter":"ND","StopName":"Nickelby Close","Latitude":51.509352,"Longitude":0.119923,"Action":0},{"StopId":11748,"StopCode":"36529","PointLetter":"","StopName":"Hoveton Road","Latitude":51.508861,"Longitude":0.116283,"Action":0},{"StopId":11717,"StopCode":"36670","PointLetter":"E","StopName":"Linton Mead Primary School","Latitude":51.507287,"Longitude":0.112794,"Action":0},{"StopId":11818,"StopCode":"37417","PointLetter":"C","StopName":"Thamesmead Town Centre","Latitude":51.507461,"Longitude":0.108609,"Action":0}], "Routes" : [{"Id":9517,"Route":"472","From":"North Greenwich Station","Towards":"Thamesmead Town Centre","Run":"1","IsDay":1,"encodedLevels":"P@AC?@DADE@AAEA@CAFB?BF@ACC?G?BA?H?E?BF?@?AC?DB?@@F@D?A?G?C@??@B@@@B@DB@?C@AB@?@FA?@@CA?E@?C?BC@?@?CBA?@G?B?AD@?@C?A?D@@F?DD@E@BAGC?A?AAF@AD??C@?F@BADAB?FB?@EAEAI@EAC?BAE?E@C?B@DAB@HABF@@?@BA?GB@C@B?E?BACB@H@@?A?GBA?B?DAB@EB@C?FA@CA@G?B@D?AF@B?B?E?B?C@IAC?B@@F@@BD@A@E?B?D@B@B@?E?A??ACA?@F?B?A?BC@P","encodedPoints":"iriyHkQ`@i@Xq@RmA@u@A{@OcBRc@hCsCmAcDTUpD_Cz@[hGoDhBoEhCoIhB}EhB}DjAaBpCoDh@e@b@W^@XN`@j@`FxIzC~DJATIJKPa@|@mGvCqOD_@B[A_EkBWoASeC_A@ODSFGbAoDHu@HsAb@{LFc_@IiBSaLEG@y@hFgBdCeAT]L[D_@?W[aDqAaLGKMIC?OMEOA[DW@a@GaAKcAg@_CkBuHuCyIqCwHq@{Bc@kB[qByCsL_@o@OECEIWBc@BGLKLg@VgBz@aU@}@EoBGy@a@wBwAsJBg@ToBk@eKK]IgAI]EKyAeHS}JQw@MKGMG_@B]BSVe@NUNETJJNBFbAfAb@Hb@DL?\\Gv@YxA_ApE{BSmB[eB~AcAy@oDu@_E`@eAzCeFtAoAr@gA_GmK_Am@UIMMEMk@KCKTgClAwK`@_ICsAUaEa@}IEyDF}GFsNEKQKq@FaBKkA_D_@_BIq@KiBBmEBOHQRU\\InGF\\gFBsDM_AiIu_@o@iB]YOI}Aa@mB_AOWKWcGcTe@_D@g@NoAj@uDTqDCgAKuAgAqFKCc@aAu@CiMyCy@@EJQzAyAdIUbAAd@KTKJQBm@i@y@MmQaEMTOFG?OIIQEWsAe@sCqBeByBo@mA}@}Bi@eC_A}FuBiKCCIeA@EPUN?NJDFVCf@Oj@}AbByCVUb@QvAO|@J|FXVMb@]x@cAf@iAZeAZ{BHwCCaAEm@[wBWcAm@sAaOcWqE_ISq@U}@UsBCu@Q}SM_AIW_@cASYUUq@]e@KmBGm@J[^Qd@qCnJuBbFu@jA_@bARr@^p@jBjFNnAFrA@bBGhAK`OLl@P`AP^vBzCz@j@hA^LGVBNJJPFTFT?XAXK`@Ej@A`BvCxQbAfEBBL|@MXEDMBEAOICGy@d@OTwAzD","Color":"993333","hasRunTwo":1,"startPoint":{"Latitude":51.500051,"Longitude":0.002945},"endPoint":{"Latitude":51.507583,"Longitude":0.108372}},{"Id":6561,"Route":"472","From":"North Greenwich Station","Towards":"Thamesmead Town Centre","Run":"1","IsDay":0,"encodedLevels":"P@AC?@DADE@AAEA@CAFB?BF@ACC?G?BA?H?E?BF?@?AC?DB?@@F@D?A?G?C@??@B@@@B@DB@?C@AB@?@FA?@@CA?E@?C?BC@?@?CBA?@G?B?AD@?@C?A?D@@F?DD@E@BAGC?A?AAF@AD??C@?F@BADAB?FB?@EAEAI@EAC?BAE?E@C?B@DAB@HABF@@?@BA?GB@C@B?E?BACB@H@@?A?GBA?B?DAB@EB@C?FA@CA@G?B@D?AF@B?B?E?B?C@IAC?B@@F@@BD@A@E?B?D@B@B@?E?A??ACA?@F?B?A?BC@P","encodedPoints":"iriyHkQ`@i@Xq@RmA@u@A{@OcBRc@hCsCmAcDTUpD_Cz@[hGoDhBoEhCoIhB}EhB}DjAaBpCoDh@e@b@W^@XN`@j@`FxIzC~DJATIJKPa@|@mGvCqOD_@B[A_EkBWoASeC_A@ODSFGbAoDHu@HsAb@{LFc_@IiBSaLEG@y@hFgBdCeAT]L[D_@?W[aDqAaLGKMIC?OMEOA[DW@a@GaAKcAg@_CkBuHuCyIqCwHq@{Bc@kB[qByCsL_@o@OECEIWBc@BGLKLg@VgBz@aU@}@EoBGy@a@wBwAsJBg@ToBk@eKK]IgAI]EKyAeHS}JQw@MKGMG_@B]BSVe@NUNETJJNBFbAfAb@Hb@DL?\\Gv@YxA_ApE{BSmB[eB~AcAy@oDu@_E`@eAzCeFtAoAr@gA_GmK_Am@UIMMEMk@KCKTgClAwK`@_ICsAUaEa@}IEyDF}GFsNEKQKq@FaBKkA_D_@_BIq@KiBBmEBOHQRU\\InGF\\gFBsDM_AiIu_@o@iB]YOI}Aa@mB_AOWKWcGcTe@_D@g@NoAj@uDTqDCgAKuAgAqFKCc@aAu@CiMyCy@@EJQzAyAdIUbAAd@KTKJQBm@i@y@MmQaEMTOFG?OIIQEWsAe@sCqBeByBo@mA}@}Bi@eC_A}FuBiKCCIeA@EPUN?NJDFVCf@Oj@}AbByCVUb@QvAO|@J|FXVMb@]x@cAf@iAZeAZ{BHwCCaAEm@[wBWcAm@sAaOcWqE_ISq@U}@UsBCu@Q}SM_AIW_@cASYUUq@]e@KmBGm@J[^Qd@qCnJuBbFu@jA_@bARr@^p@jBjFNnAFrA@bBGhAK`OLl@P`AP^vBzCz@j@hA^LGVBNJJPFTFT?XAXK`@Ej@A`BvCxQbAfEBBL|@MXEDMBEAOICGy@d@OTwAzD","Color":"663366","hasRunTwo":1,"startPoint":{"Latitude":51.500051,"Longitude":0.002945},"endPoint":{"Latitude":51.507583,"Longitude":0.108372}}]}


