{"Stops" : [{"StopId":14070,"StopCode":"BP4272","PointLetter":"C","StopName":"Walthamstow Bus Station","Latitude":51.583892,"Longitude":-0.020424,"Action":0},{"StopId":841,"StopCode":"11481","PointLetter":"K","StopName":"Grosvenor Park Road","Latitude":51.579571,"Longitude":-0.018028,"Action":0},{"StopId":847,"StopCode":"7962","PointLetter":"SJ","StopName":"Grove Road","Latitude":51.577773,"Longitude":-0.016489,"Action":0},{"StopId":855,"StopCode":"7964","PointLetter":"SK","StopName":"Bakers Avenue","Latitude":51.576207,"Longitude":-0.014768,"Action":0},{"StopId":851,"StopCode":"4759","PointLetter":"WH","StopName":"High Road Leyton / Bakers Arms","Latitude":51.574904,"Longitude":-0.013280,"Action":0},{"StopId":857,"StopCode":"14262","PointLetter":"WJ","StopName":"Shortlands Road","Latitude":51.573084,"Longitude":-0.016260,"Action":0},{"StopId":833,"StopCode":"14258","PointLetter":"LJ","StopName":"Manor Road","Latitude":51.572092,"Longitude":-0.019796,"Action":0},{"StopId":853,"StopCode":"4760","PointLetter":"LK","StopName":"Markhouse Road","Latitude":51.570654,"Longitude":-0.024130,"Action":0},{"StopId":844,"StopCode":"14252","PointLetter":"LL","StopName":"Emmanuel Parish Church","Latitude":51.568829,"Longitude":-0.028942,"Action":0},{"StopId":832,"StopCode":"14245","PointLetter":"LM","StopName":"Perth Road","Latitude":51.567619,"Longitude":-0.032429,"Action":0},{"StopId":848,"StopCode":"3219","PointLetter":"LN","StopName":"Argall Way","Latitude":51.566678,"Longitude":-0.034778,"Action":0},{"StopId":845,"StopCode":"20668","PointLetter":"LP","StopName":"Lea Valley Riding Centre","Latitude":51.564032,"Longitude":-0.041111,"Action":0},{"StopId":859,"StopCode":"14242","PointLetter":"LQ","StopName":"Lee Valley Ice Centre","Latitude":51.562951,"Longitude":-0.043697,"Action":0},{"StopId":850,"StopCode":"3217","PointLetter":"LR","StopName":"Chatsworth Road","Latitude":51.561479,"Longitude":-0.047108,"Action":0},{"StopId":836,"StopCode":"14241","PointLetter":"U","StopName":"Wattisfield Road","Latitude":51.559911,"Longitude":-0.050681,"Action":0},{"StopId":834,"StopCode":"20727","PointLetter":"T","StopName":"Lea Bridge Roundabout","Latitude":51.558615,"Longitude":-0.054386,"Action":0},{"StopId":672,"StopCode":"1011","PointLetter":"E","StopName":"Clapton Pond","Latitude":51.556801,"Longitude":-0.055661,"Action":0},{"StopId":685,"StopCode":"29245","PointLetter":"G","StopName":"Millfields Road","Latitude":51.555138,"Longitude":-0.054563,"Action":0},{"StopId":21038,"StopCode":"BP5525","PointLetter":"N","StopName":"Clapton Girls' Technology College","Latitude":51.552816,"Longitude":-0.052859,"Action":0},{"StopId":775,"StopCode":"935","PointLetter":"V","StopName":"Hackney Baths","Latitude":51.550639,"Longitude":-0.052836,"Action":0},{"StopId":665,"StopCode":"2271","PointLetter":"S","StopName":"Clapton Square","Latitude":51.549921,"Longitude":-0.054007,"Action":0},{"StopId":21820,"StopCode":"BP5529","PointLetter":"Y","StopName":"Pembury Circus","Latitude":51.549461,"Longitude":-0.056046,"Action":0},{"StopId":21822,"StopCode":"BP5782","PointLetter":"H","StopName":"Hackney Central Station","Latitude":51.547959,"Longitude":-0.056614,"Action":0},{"StopId":805,"StopCode":"307","PointLetter":"B","StopName":"Hackney Town Hall","Latitude":51.545264,"Longitude":-0.055157,"Action":0},{"StopId":21817,"StopCode":"BP5762","PointLetter":"LZ","StopName":"St Thomas's Square","Latitude":51.541991,"Longitude":-0.055138,"Action":0},{"StopId":14134,"StopCode":"755","PointLetter":"LA","StopName":"Mare Street / Well Street","Latitude":51.539551,"Longitude":-0.056049,"Action":0},{"StopId":827,"StopCode":"784","PointLetter":"LE","StopName":"King Edward's Road","Latitude":51.538361,"Longitude":-0.056951,"Action":0},{"StopId":817,"StopCode":"2278","PointLetter":"LH","StopName":"St Joseph's Hospice","Latitude":51.536589,"Longitude":-0.056969,"Action":0},{"StopId":788,"StopCode":"1704","PointLetter":"Q","StopName":"Mare Street / Victoria Park Road","Latitude":51.534928,"Longitude":-0.057111,"Action":0},{"StopId":14377,"StopCode":"1707","PointLetter":"N","StopName":"Cambridge Heath Station","Latitude":51.532399,"Longitude":-0.058070,"Action":0},{"StopId":14034,"StopCode":"14234","PointLetter":"HC","StopName":"Pritchards Road","Latitude":51.531709,"Longitude":-0.061978,"Action":0},{"StopId":13992,"StopCode":"1615","PointLetter":"HD","StopName":"Warner Place","Latitude":51.531308,"Longitude":-0.064965,"Action":0},{"StopId":14344,"StopCode":"14231","PointLetter":"HE","StopName":"Queensbridge Road","Latitude":51.530926,"Longitude":-0.070676,"Action":0},{"StopId":14686,"StopCode":"14227","PointLetter":"HF","StopName":"Hoxton Station","Latitude":51.529162,"Longitude":-0.074990,"Action":0},{"StopId":13909,"StopCode":"14590","PointLetter":"S","StopName":"Shoreditch Church","Latitude":51.527553,"Longitude":-0.076629,"Action":0},{"StopId":637,"StopCode":"33346","PointLetter":"N","StopName":"Shoreditch High Street Station","Latitude":51.524991,"Longitude":-0.077271,"Action":0},{"StopId":629,"StopCode":"20803","PointLetter":"D","StopName":"Commercial Street / Worship Street","Latitude":51.521930,"Longitude":-0.078120,"Action":0},{"StopId":635,"StopCode":"2113","PointLetter":"J","StopName":"Primrose Street","Latitude":51.519785,"Longitude":-0.078946,"Action":0},{"StopId":385,"StopCode":"13456","PointLetter":"K","StopName":"Liverpool Street Station","Latitude":51.517258,"Longitude":-0.080580,"Action":0},{"StopId":623,"StopCode":"BP1576","PointLetter":"Y","StopName":"Wormwood Street","Latitude":51.515619,"Longitude":-0.082105,"Action":0},{"StopId":636,"StopCode":"2119","PointLetter":"S","StopName":"Threadneedle Street","Latitude":51.513894,"Longitude":-0.083820,"Action":0},{"StopId":632,"StopCode":"37676","PointLetter":"U","StopName":"Fenchurch Street","Latitude":51.511419,"Longitude":-0.085336,"Action":0},{"StopId":630,"StopCode":"BP140","PointLetter":"P","StopName":"Monument Station","Latitude":51.509485,"Longitude":-0.087003,"Action":0},{"StopId":21560,"StopCode":"OC478","PointLetter":"","StopName":"London Bridge Station","Latitude":51.505563,"Longitude":-0.086908,"Action":0}], "Routes" : [{"Id":9209,"Route":"48","From":"Walthamstow Bus Station","Towards":"London Bridge Station","Run":"1","IsDay":1,"encodedLevels":"PBEABF@B?@CB@EAB?AF?@B?@B@I@?BE?BAC?A?A@AA?E@A???CAIAC?E@A?@AAG?A?@DAE?@?CA??HB?@AG@?CAAAE?@?BE??B@@ACA@I@@@@@CB?@?FD@B?BC@AH??CCA?F@?AC@@B@FBAC?@D@BACA??CC?@CF@@?AAFA@P","encodedPoints":"w~yyHj_CpC?ZQWyCIuEZa@d@OZCVHb@R~@PjAYbIIl@GdA_@xDaCpCqCl@k@~EoDHKLWdBaFNs@TaB^yA^o@PMn@t@jClEbAzA~ClGx@|Cz@pDnBxMpBnJNRFP~AnGpCzLvAjEtB|H~F~U|CrKJh@hBfFbItWrR|l@pAxD|B`H|IxXf@dDdC|Ix@ZnAJTEvDaAjEsCr@YdEyChBuApGgEt@}@`EeCLTFVNdBDn@h@vDpAbB|BfE@JEj@@bCClSDj@HPJJDBZGTu@vDwJ`EkLTWlALpG\\vBN~EBbK_@HFhDCHBVNrEhDdAz@|DlBJ?REdDIfADfAP|EJtHf@|@?xAOnB]?\\DBBZCJHdAfE`d@dArSR`KBrB\\vNBXvCxKf@v@f@f@jAt@hB`AvBvBpCjEZz@hBvCz@Br@@JAtHsC|AM~@BVBlBr@fGzC^TbE|Al@FLGd@FtEhAp@XjDhB|A~AvG|E~ApBp@|@zEnFrAz@f@RHMp@H`@h@n@^`F`DbB`A`B`BDRBXA~@|Bv@P@nBb@xFxAvFtA|CbAb@?ROpAcEhAqC","Color":"993333","hasRunTwo":1,"startPoint":{"Latitude":51.583964,"Longitude":-0.020533},"endPoint":{"Latitude":51.505223,"Longitude":-0.086485}}]}


