{"Stops" : [{"StopId":13422,"StopCode":"BP5006","PointLetter":"L","StopName":"Hammersmith Bus Station","Latitude":51.492492,"Longitude":-0.222653,"Action":0},{"StopId":3837,"StopCode":"29954","PointLetter":"S","StopName":"Hammersmith Bridge Road","Latitude":51.491494,"Longitude":-0.226797,"Action":0},{"StopId":3795,"StopCode":"BP3191","PointLetter":"L","StopName":"Hammersmith Bridge","Latitude":51.489972,"Longitude":-0.228469,"Action":0},{"StopId":3875,"StopCode":"4609","PointLetter":"K","StopName":"Lonsdale Road","Latitude":51.485332,"Longitude":-0.233287,"Action":0},{"StopId":3830,"StopCode":"15236","PointLetter":"L","StopName":"The Spinney","Latitude":51.483695,"Longitude":-0.235007,"Action":0},{"StopId":3960,"StopCode":"986","PointLetter":"M","StopName":"Washington Road","Latitude":51.480246,"Longitude":-0.237055,"Action":0},{"StopId":3832,"StopCode":"15239","PointLetter":"WN","StopName":"Newport Road","Latitude":51.477431,"Longitude":-0.238287,"Action":0},{"StopId":3761,"StopCode":"1468","PointLetter":"BA","StopName":"Barnes / Red Lion","Latitude":51.475043,"Longitude":-0.240337,"Action":0},{"StopId":6763,"StopCode":"15249","PointLetter":"BB","StopName":"Glebe Road","Latitude":51.474074,"Longitude":-0.244104,"Action":0},{"StopId":9040,"StopCode":"FW31","PointLetter":"BD","StopName":"Barnes Pond","Latitude":51.473495,"Longitude":-0.246877,"Action":0},{"StopId":13418,"StopCode":"BP4923","PointLetter":"","StopName":"Beverley Road","Latitude":51.470507,"Longitude":-0.244903,"Action":0},{"StopId":5719,"StopCode":"11141","PointLetter":"E","StopName":"Commondale","Latitude":51.468433,"Longitude":-0.227777,"Action":0},{"StopId":5956,"StopCode":"11139","PointLetter":"F","StopName":"Festing Road","Latitude":51.468268,"Longitude":-0.223392,"Action":0},{"StopId":5967,"StopCode":"11137","PointLetter":"G","StopName":"Ruvigny Gardens","Latitude":51.467323,"Longitude":-0.219182,"Action":0},{"StopId":5733,"StopCode":"220","PointLetter":"Q","StopName":"Putney Pier","Latitude":51.466366,"Longitude":-0.214785,"Action":0},{"StopId":2064,"StopCode":"29620","PointLetter":"R","StopName":"St Mary's Church / Putney Pier","Latitude":51.465333,"Longitude":-0.214278,"Action":0},{"StopId":2087,"StopCode":"8871","PointLetter":"U","StopName":"Brewhouse Lane","Latitude":51.464426,"Longitude":-0.213176,"Action":0},{"StopId":2089,"StopCode":"8867","PointLetter":"V","StopName":"Deodar Road","Latitude":51.462430,"Longitude":-0.207899,"Action":0},{"StopId":2090,"StopCode":"8865","PointLetter":"","StopName":"Skelgill Road / Wandsworth Park","Latitude":51.461889,"Longitude":-0.205501,"Action":0},{"StopId":2103,"StopCode":"8863","PointLetter":"CC","StopName":"Riverside Quarter Pier","Latitude":51.460948,"Longitude":-0.201579,"Action":0},{"StopId":2095,"StopCode":"8861","PointLetter":"C","StopName":"Frogmore","Latitude":51.459045,"Longitude":-0.198300,"Action":0},{"StopId":2066,"StopCode":"29584","PointLetter":"D","StopName":"Armoury Way","Latitude":51.458326,"Longitude":-0.196572,"Action":0},{"StopId":13480,"StopCode":"34904","PointLetter":"Q","StopName":"Ram Street","Latitude":51.457932,"Longitude":-0.192024,"Action":0}], "Routes" : [{"Id":7048,"Route":"485","From":"Hammersmith Bus Station","Towards":"Ram Street","Run":"1","IsDay":1,"encodedLevels":"PCE@?C@B?BD?EA?BF@@?FC?BGA?B?A?B?@BF@CJAE?BD@@B@A?D?@A?D?@CAG@A?E?B??EACF@@BACF@CBG@@?CB?F@CP","encodedPoints":"kahyHjyj@`BwCnA??r@MlCCJMXSL{@?I@STCP?tBFx@Jl@L\\`CpE^VvF|F~NpOpXvYnBxA`A^lg@rPtBlAZfDLn@z@bDZlCRfCV|Ap@dDFnA@d@r@xGnA~Fv@Fn@ExGyD`B}BlCmFGkHSyLLmGVeC^kBtAeKf@uFxAuMt@kI~@sL@aAAyFMeM@}@HiBLkAvAcJ`BuMp@qJB}DTgAtDoLP_@HIHIRGfB|@nAr@TPn@uDjAqExDsJ^cBFw@`EuSd@aF`Gu^dCuHf@e@pDgCzA?|AaA?[o@eD_BsKK_Aw@gJDw@N}ARSLEbJbC","Color":"993333","hasRunTwo":1,"startPoint":{"Latitude":51.492221,"Longitude":-0.224370},"endPoint":{"Latitude":51.456916,"Longitude":-0.192644}}]}


