{"Stops" : [{"StopId":4814,"StopCode":"BP721","PointLetter":"A","StopName":"South Harrow Bus Station","Latitude":51.564984,"Longitude":-0.352294,"Action":0},{"StopId":4837,"StopCode":"26472","PointLetter":"G","StopName":"South Harrow Station","Latitude":51.564487,"Longitude":-0.353452,"Action":0},{"StopId":4622,"StopCode":"16137","PointLetter":"J","StopName":"Corbins Lane","Latitude":51.561685,"Longitude":-0.356900,"Action":0},{"StopId":4832,"StopCode":"27646","PointLetter":"NH","StopName":"St Gabriel's Church","Latitude":51.559852,"Longitude":-0.358928,"Action":0},{"StopId":4648,"StopCode":"16139","PointLetter":"NJ","StopName":"Station Parade","Latitude":51.558092,"Longitude":-0.361040,"Action":0},{"StopId":4833,"StopCode":"26968","PointLetter":"NK","StopName":"Danemead Grove","Latitude":51.556038,"Longitude":-0.361417,"Action":0},{"StopId":4806,"StopCode":"17234","PointLetter":"NP","StopName":"Wood End Lane","Latitude":51.554181,"Longitude":-0.357228,"Action":0},{"StopId":4667,"StopCode":"17236","PointLetter":"NQ","StopName":"Keble Close","Latitude":51.552834,"Longitude":-0.351608,"Action":0},{"StopId":4736,"StopCode":"17238","PointLetter":"NR","StopName":"Malden Avenue","Latitude":51.552771,"Longitude":-0.344527,"Action":0},{"StopId":4771,"StopCode":"17240","PointLetter":"A","StopName":"Greenford Road","Latitude":51.553932,"Longitude":-0.339509,"Action":0},{"StopId":4711,"StopCode":"17242","PointLetter":"S","StopName":"Ridding Lane","Latitude":51.553529,"Longitude":-0.333306,"Action":0},{"StopId":4712,"StopCode":"17245","PointLetter":"","StopName":"Rosewood Avenue","Latitude":51.552756,"Longitude":-0.326353,"Action":0},{"StopId":4805,"StopCode":"17246","PointLetter":"","StopName":"Allendale Road","Latitude":51.550794,"Longitude":-0.320626,"Action":0},{"StopId":4666,"StopCode":"17248","PointLetter":"D","StopName":"Sudbury Town Station","Latitude":51.549685,"Longitude":-0.317220,"Action":0},{"StopId":4613,"StopCode":"17250","PointLetter":"","StopName":"Sudbury Golf Club","Latitude":51.548264,"Longitude":-0.312888,"Action":0},{"StopId":4665,"StopCode":"17252","PointLetter":"Q","StopName":"Clifford Road","Latitude":51.543424,"Longitude":-0.305236,"Action":0},{"StopId":4738,"StopCode":"17255","PointLetter":"C","StopName":"Alperton Station","Latitude":51.540443,"Longitude":-0.301179,"Action":0},{"StopId":4673,"StopCode":"14827","PointLetter":"E","StopName":"Glacier Way","Latitude":51.537530,"Longitude":-0.298721,"Action":0},{"StopId":4696,"StopCode":"14832","PointLetter":"T","StopName":"Vicar's Bridge","Latitude":51.535052,"Longitude":-0.296521,"Action":0},{"StopId":4842,"StopCode":"R0579","PointLetter":"E","StopName":"Cleveley Crescent","Latitude":51.533586,"Longitude":-0.295264,"Action":0},{"StopId":4791,"StopCode":"35813","PointLetter":"K","StopName":"Hanger Lane Station","Latitude":51.529698,"Longitude":-0.291300,"Action":0},{"StopId":4682,"StopCode":"7810","PointLetter":"L","StopName":"Park Royal Station","Latitude":51.527202,"Longitude":-0.283594,"Action":0},{"StopId":4693,"StopCode":"14892","PointLetter":"N","StopName":"Concord Road","Latitude":51.526786,"Longitude":-0.277873,"Action":0},{"StopId":4758,"StopCode":"15285","PointLetter":"","StopName":"Wendover Court","Latitude":51.525753,"Longitude":-0.271842,"Action":0},{"StopId":4819,"StopCode":"15281","PointLetter":"R","StopName":"Gypsy Corner","Latitude":51.522154,"Longitude":-0.263834,"Action":0},{"StopId":4681,"StopCode":"6131","PointLetter":"S","StopName":"Victoria Road","Latitude":51.523168,"Longitude":-0.264271,"Action":0},{"StopId":4855,"StopCode":"6133","PointLetter":"F","StopName":"Gorst Road","Latitude":51.526142,"Longitude":-0.266551,"Action":0},{"StopId":3322,"StopCode":"37161","PointLetter":"G","StopName":"Park Royal Asda","Latitude":51.529290,"Longitude":-0.268392,"Action":0},{"StopId":3378,"StopCode":"BP4971","PointLetter":"A","StopName":"Central Middlesex Hospital","Latitude":51.530262,"Longitude":-0.269033,"Action":0},{"StopId":4796,"StopCode":"BP2610","PointLetter":"Q","StopName":"Central Way","Latitude":51.532954,"Longitude":-0.268686,"Action":0},{"StopId":3527,"StopCode":"6138","PointLetter":"U","StopName":"Barretts Green Road","Latitude":51.532529,"Longitude":-0.263627,"Action":0},{"StopId":3358,"StopCode":"R0266","PointLetter":"PN","StopName":"Waxlow Road","Latitude":51.534518,"Longitude":-0.260091,"Action":0},{"StopId":3359,"StopCode":"R0260","PointLetter":"HB","StopName":"Harlesden Station","Latitude":51.536165,"Longitude":-0.257158,"Action":0},{"StopId":3402,"StopCode":"6130","PointLetter":"HE","StopName":"Fairlight Avenue","Latitude":51.536785,"Longitude":-0.253486,"Action":0},{"StopId":3569,"StopCode":"1386","PointLetter":"T","StopName":"Willesden County Court","Latitude":51.535721,"Longitude":-0.248495,"Action":0},{"StopId":2108,"StopCode":"1382","PointLetter":"W","StopName":"Harlesden Jubilee Clock","Latitude":51.534808,"Longitude":-0.248141,"Action":0},{"StopId":2100,"StopCode":"R0261","PointLetter":"P","StopName":"Willesden Junction Station","Latitude":51.532236,"Longitude":-0.245125,"Action":0}], "Routes" : [{"Id":37,"Route":"487","From":"South Harrow Bus Station","Towards":"Willesden Junction Station","Run":"1","IsDay":1,"encodedLevels":"P@BD@@EA?@BED@IAB?@?B?A?A?C@DBB@A?ACB?F@C?AD?BA?AE@@B?AFAA@CBH?C?B@?E@AC@B?EB@AFBA?AABC@?BD@AC?D?A?B?EA?G@@BDABAIAC??BC?AF@BEB??AHABDA@D@BBB?F@?B@?C@B?ED??B?A?D?@@IAC@AE?AC@FB@CDCAADAAHB?D?AAB?BF?A?C@DB?ACA?EP","encodedPoints":"qgvyHjvcAB\\CTg@z@\\f@~@fCtA~CjBlC|DnEfJzKvGlHfItK|CtCp@QhCsAr@{AhBuFCMAYBc@BGHUFIJCN?ZWT_@pB}Gh@{B|@oFO_BDUJMZMF?Ha@jBuLXaCr@oI^cK@uBCsDG{BWgFm@kGk@sF_A{Gu@kE}@iEYgD@y@tAsSp@cOLcI@{D^wJ\\yBhJu^nBgJtNao@TaBO}@NM`B{BJYvBoJt@qBn@wAVc@jA_BfBqBpCmCpBqApF{C~A{Ar@s@tAuB|@sBtBeGdBcDbBaBbBu@~DkD^a@f@MjCcBtGcFz@y@tCmDjA_BjBwAbAMhAElBi@^OdDoBLYBU?sDB[DQP]X[XGfGeBLs@N{BhBgO|@gE|@mCrAoC`BcFb@qBvAcI`@gED_ABgQB{B\\oJHyAx@_Jj@oElAcHbGmYbB{FxBkEXa@dCuCXWvA_CGSi@IaADeEhFcFrFYN_Bh@cHrCeErCoFdCm@PyGvBMSEUEa@Bs@DSFIMc@qAsCI?IDoEhGARDjAATEPWd@AJOt@GCGO]UQ]y@qCi@_EFoASyIBmCNBj@A~Bc@FS?g@cDqJeEcIcByDkBeJy@cB_BoAuAa@oBoAu@cBiAyE@]\\cB`@y@pDiIJkARoAl@{BXkCAw@JuHf@qAL^FJFFNHV?`@KhFoDVYl@}@hBeB\\Gj@JJD~AuK","Color":"993333","hasRunTwo":1,"startPoint":{"Latitude":51.564896,"Longitude":-0.351899},"endPoint":{"Latitude":51.532020,"Longitude":-0.244593}}]}


