{"Stops" : [{"StopId":15992,"StopCode":"18505","PointLetter":"C","StopName":"Harold Wood Station","Latitude":51.593452,"Longitude":0.233491,"Action":0},{"StopId":16420,"StopCode":"29184","PointLetter":"E","StopName":"Harold Wood Library","Latitude":51.594830,"Longitude":0.235768,"Action":0},{"StopId":16243,"StopCode":"29110","PointLetter":"CS","StopName":"Firham Park Avenue","Latitude":51.597243,"Longitude":0.239351,"Action":0},{"StopId":16242,"StopCode":"29108","PointLetter":"CR","StopName":"David Drive","Latitude":51.599184,"Longitude":0.244169,"Action":0},{"StopId":15972,"StopCode":"29106","PointLetter":"CP","StopName":"Halidon Rise","Latitude":51.600278,"Longitude":0.247631,"Action":0},{"StopId":16208,"StopCode":"34132","PointLetter":"HT","StopName":"Colchester Road","Latitude":51.602705,"Longitude":0.247216,"Action":0},{"StopId":16581,"StopCode":"35419","PointLetter":"PA","StopName":"Fairford Way","Latitude":51.603163,"Longitude":0.244423,"Action":0},{"StopId":16351,"StopCode":"35414","PointLetter":"DJ","StopName":"Dagnam Park Square","Latitude":51.605520,"Longitude":0.243456,"Action":0},{"StopId":16515,"StopCode":"34137","PointLetter":"DK","StopName":"Sheffield Drive","Latitude":51.606630,"Longitude":0.242759,"Action":0},{"StopId":16406,"StopCode":"34138","PointLetter":"DL","StopName":"Settle Road","Latitude":51.608467,"Longitude":0.239817,"Action":0},{"StopId":16488,"StopCode":"35415","PointLetter":"LN","StopName":"Wickford Drive","Latitude":51.608677,"Longitude":0.237733,"Action":0},{"StopId":16407,"StopCode":"34135","PointLetter":"LP","StopName":"Redruth Road","Latitude":51.606609,"Longitude":0.237747,"Action":0},{"StopId":16460,"StopCode":"BP4965","PointLetter":"LR","StopName":"Petersfield Avenue","Latitude":51.604478,"Longitude":0.238219,"Action":0},{"StopId":16141,"StopCode":"26813","PointLetter":"PC","StopName":"St Neot's Road","Latitude":51.603879,"Longitude":0.237035,"Action":0},{"StopId":16139,"StopCode":"26806","PointLetter":"PD","StopName":"The Petersfield Centre","Latitude":51.605271,"Longitude":0.234778,"Action":0},{"StopId":15887,"StopCode":"26804","PointLetter":"PE","StopName":"Paines Brook Way","Latitude":51.605653,"Longitude":0.232198,"Action":0},{"StopId":16263,"StopCode":"26802","PointLetter":"PF","StopName":"Gooshays Drive","Latitude":51.604428,"Longitude":0.228094,"Action":0},{"StopId":14393,"StopCode":"BP4370","PointLetter":"FZ","StopName":"Dewsbury Road","Latitude":51.603333,"Longitude":0.226033,"Action":0},{"StopId":13922,"StopCode":"26800","PointLetter":"FG","StopName":"Dulverton Road","Latitude":51.602199,"Longitude":0.223277,"Action":0},{"StopId":14024,"StopCode":"26798","PointLetter":"","StopName":"Chatteris Avenue","Latitude":51.599735,"Longitude":0.221352,"Action":0},{"StopId":13907,"StopCode":"26796","PointLetter":"","StopName":"Ashton Road","Latitude":51.598270,"Longitude":0.218912,"Action":0},{"StopId":14420,"StopCode":"26794","PointLetter":"GH","StopName":"Neave Crescent","Latitude":51.597183,"Longitude":0.216000,"Action":0},{"StopId":14333,"StopCode":"R0308","PointLetter":"GF","StopName":"Faringdon Avenue","Latitude":51.595753,"Longitude":0.212682,"Action":0},{"StopId":14874,"StopCode":"20074","PointLetter":"GE","StopName":"Gallows Corner","Latitude":51.593736,"Longitude":0.213306,"Action":0},{"StopId":16132,"StopCode":"18469","PointLetter":"GQ","StopName":"Upper Brentwood Road","Latitude":51.591488,"Longitude":0.210887,"Action":0},{"StopId":16175,"StopCode":"20077","PointLetter":"PH","StopName":"Western Avenue","Latitude":51.589121,"Longitude":0.211494,"Action":0},{"StopId":16041,"StopCode":"20079","PointLetter":"PJ","StopName":"Belgrave Avenue","Latitude":51.586978,"Longitude":0.211159,"Action":0},{"StopId":16545,"StopCode":"20081","PointLetter":"PK","StopName":"Royal Liberty School","Latitude":51.584832,"Longitude":0.210477,"Action":0},{"StopId":15384,"StopCode":"18495","PointLetter":"PA","StopName":"Gidea Park Station","Latitude":51.581398,"Longitude":0.206125,"Action":0},{"StopId":15325,"StopCode":"18253","PointLetter":"AP","StopName":"The Drill Roundabout","Latitude":51.578034,"Longitude":0.207131,"Action":0},{"StopId":15161,"StopCode":"19267","PointLetter":"AQ","StopName":"Margaret Road","Latitude":51.577804,"Longitude":0.203584,"Action":0},{"StopId":15263,"StopCode":"18251","PointLetter":"AR","StopName":"Fairholme Avenue","Latitude":51.577776,"Longitude":0.198358,"Action":0},{"StopId":15264,"StopCode":"18249","PointLetter":"","StopName":"Manor Road","Latitude":51.577294,"Longitude":0.194770,"Action":0},{"StopId":15266,"StopCode":"18247","PointLetter":"VE","StopName":"Albert Road","Latitude":51.575401,"Longitude":0.188329,"Action":0},{"StopId":3132,"StopCode":"R0760","PointLetter":"Z","StopName":"Romford Station","Latitude":51.574584,"Longitude":0.183383,"Action":0},{"StopId":14225,"StopCode":"BP4227","PointLetter":"PP","StopName":"Western Road","Latitude":51.577381,"Longitude":0.184383,"Action":0},{"StopId":3192,"StopCode":"34118","PointLetter":"L","StopName":"Romford Market","Latitude":51.580410,"Longitude":0.182521,"Action":0},{"StopId":3193,"StopCode":"34115","PointLetter":"D","StopName":"North Street","Latitude":51.579389,"Longitude":0.177911,"Action":0},{"StopId":3105,"StopCode":"3539","PointLetter":"B","StopName":"Mawney Road","Latitude":51.577207,"Longitude":0.177288,"Action":0},{"StopId":3117,"StopCode":"BP2967","PointLetter":"S","StopName":"The Brewery","Latitude":51.574946,"Longitude":0.178421,"Action":0},{"StopId":14658,"StopCode":"BP5051","PointLetter":"HJ","StopName":"Queen's Hospital","Latitude":51.568611,"Longitude":0.181091,"Action":0}], "Routes" : [{"Id":849,"Route":"496","From":"Harold Wood Station","Towards":"Queen's Hospital","Run":"1","IsDay":1,"encodedLevels":"P@DA?BD?AEC@?I?F?B@FAC?A?D@DD?AEA?C@?HA@CB@ABG@C?B?F@B??AIDABE@BB@DAE?@B@?H?CA?C?A?F?@BBB@F?FAACAB??A?G?AD?F?@BCAG?@BABAIAB?BACA@F???BHAB??B@D@AF?B@F@A?AG@?C?EAI@D@A@FAA?C?@A?BD@CA?B?F?B?B??A?F?BCB@P","encodedPoints":"wx{yHwnl@o@uCqCsKWSKAc@AwANgHqNuAeCoD}HgEqM[wBeBoIkFuV_@\\mLjIGn@?NR~@|@bJsB`@k@\\Yb@IRMb@APc@OwB]kJhD]Tm@j@uDvEmBnDg@pA[lAUbAaAjG[~B~@^x@LdABvJ]`C[fBa@pE_@h@RUbBk@tCgD`GsEvIId@CZ?z@H~@F\\X~@nBjInDxRtA{@|AlIbBjGlD~JTXn@f@bGxCrC`C`@b@~@zAvErKRd@dArDR|@tBbLbCnNBZpBg@jIiBfCI~@L^@DMPUHEH?LHLNN^Bz@fChHb@fApBhDd@_AvDuG`@@dBr@zB`@xBDnHr@dACt@Ih@?VBTHTPvDbEtDxCZHdKpAFXBj@?z@q@nFPpB~@|ERWf@i@nGyF`FoF?Mp@_@NDHVEZQTIDb@vE^nIBra@KtNDlA|FjZdEtSbChMdBvIt@xFSRaA@KKCKIGMAYH{@h@gAbAsDlBaFgNe@uAu@kAKCi@POLa@f@yFzFy@^O^c@dBCVGvAOtK|BdMp@dBz@f@hFxBjB@zAOj@FXCTUDe@NUJKT?F@RGlK_E|@WpFyChC{BdAkAXm@Bs@Ha@LOTMF?PHL\\F\\DXD|ALtBVfBLb@`@UjBwAzEeGb@TLE^i@","Color":"993333","hasRunTwo":1,"startPoint":{"Latitude":51.593243,"Longitude":0.232921},"endPoint":{"Latitude":51.568583,"Longitude":0.181064}}]}


