{"Stops" : [{"StopId":10646,"StopCode":"BP4259","PointLetter":"H","StopName":"Waterloo Station / Tenison Way","Latitude":51.504174,"Longitude":-0.112773,"Action":0},{"StopId":140,"StopCode":"25893","PointLetter":"P","StopName":"Waterloo Bridge / South Bank","Latitude":51.506260,"Longitude":-0.114978,"Action":0},{"StopId":530,"StopCode":"455","PointLetter":"P","StopName":"Holborn Station","Latitude":51.517073,"Longitude":-0.120254,"Action":0},{"StopId":729,"StopCode":"33107","PointLetter":"H","StopName":"Procter Street","Latitude":51.518341,"Longitude":-0.119121,"Action":0},{"StopId":721,"StopCode":"8419","PointLetter":"S","StopName":"Brownlow Street","Latitude":51.518221,"Longitude":-0.115018,"Action":0},{"StopId":699,"StopCode":"1472","PointLetter":"E","StopName":"Chancery Lane Station","Latitude":51.518307,"Longitude":-0.112001,"Action":0},{"StopId":716,"StopCode":"20628","PointLetter":"D","StopName":"Holborn Circus / Fetter Lane","Latitude":51.518041,"Longitude":-0.109433,"Action":0},{"StopId":712,"StopCode":"2018","PointLetter":"K","StopName":"Holborn Circus","Latitude":51.517601,"Longitude":-0.106064,"Action":0},{"StopId":702,"StopCode":"1157","PointLetter":"HL","StopName":"City Thameslink Station","Latitude":51.516897,"Longitude":-0.103700,"Action":0},{"StopId":741,"StopCode":"8586","PointLetter":"ST","StopName":"King Edward Street","Latitude":51.515728,"Longitude":-0.099814,"Action":0},{"StopId":10179,"StopCode":"33385","PointLetter":"SM","StopName":"New Change / Cannon Street","Latitude":51.513511,"Longitude":-0.096231,"Action":0},{"StopId":207,"StopCode":"8551","PointLetter":"ME","StopName":"Mansion House Station","Latitude":51.512671,"Longitude":-0.094854,"Action":0},{"StopId":9546,"StopCode":"8553","PointLetter":"MB","StopName":"Cannon Street Station","Latitude":51.511845,"Longitude":-0.091098,"Action":0},{"StopId":630,"StopCode":"BP140","PointLetter":"P","StopName":"Monument Station","Latitude":51.509485,"Longitude":-0.087003,"Action":0},{"StopId":21712,"StopCode":"BP5680","PointLetter":"B","StopName":"London Bridge Station","Latitude":51.505206,"Longitude":-0.086548,"Action":0}], "Routes" : [{"Id":5160,"Route":"521","From":"Waterloo Station / Tenison Way","Towards":"London Bridge Station","Run":"1","IsDay":1,"encodedLevels":"P?B@E?A@DA@@F?AD?@F?A@?DBA@CIB@?EA@E@@AE?A@D?A@B@E?C?B@?CH?ACAC@C@C@?C?AFA@@AGA@?AAFAA@P","encodedPoints":"_ljyHz|TG|@o@~ESTSl@GFSFo@EgADiQfOaFzDkAdAgGrES@i@G{EoAg@s@Yg@aBuBKDkHlEkAdAqGtDsAz@yDjAq@j@eBn@[T[o@}@}BCW@ODO^i@tAy@fE_D?aAy@wMW{FWwKP_Ff@wJbAiQNyAPiAhB{JdA_FnByHj@iDn@iFE_AIm@EAc@SW[Ue@EQJmDJWHMf@OlAPhAENIfAsAVPTBVIPOzAaAd@EV?|AThAkK|BmQf@_DtAoMtAqJfBl@vCn@xFxAvFtA|CbAb@?ROj@kBp@mAhAoC","Color":"993333","hasRunTwo":1,"startPoint":{"Latitude":51.504166,"Longitude":-0.112293},"endPoint":{"Latitude":51.505170,"Longitude":-0.086545}}]}


