{"Stops" : [{"StopId":14440,"StopCode":"34707","PointLetter":"WU","StopName":"Orchard Road / Griffin Road","Latitude":51.488984,"Longitude":0.085817,"Action":0},{"StopId":13994,"StopCode":"27984","PointLetter":"WV","StopName":"Conway Road","Latitude":51.487188,"Longitude":0.084669,"Action":0},{"StopId":13844,"StopCode":"27986","PointLetter":"","StopName":"Griffin Road / Brewery Road","Latitude":51.485376,"Longitude":0.083866,"Action":0},{"StopId":14446,"StopCode":"27988","PointLetter":"A","StopName":"Heavitree Road","Latitude":51.483531,"Longitude":0.082961,"Action":0},{"StopId":14890,"StopCode":"BP2321","PointLetter":"C","StopName":"Warwick Terrace / Plumstead Common Road","Latitude":51.480720,"Longitude":0.084777,"Action":0},{"StopId":11424,"StopCode":"18741","PointLetter":"R","StopName":"Plumstead Common Road / Warwick Terrace","Latitude":51.480164,"Longitude":0.084161,"Action":0},{"StopId":11431,"StopCode":"18742","PointLetter":"S","StopName":"Plumstead Common / The Ship","Latitude":51.480622,"Longitude":0.081201,"Action":0},{"StopId":11474,"StopCode":"18745","PointLetter":"T","StopName":"Kirk Lane","Latitude":51.481271,"Longitude":0.076031,"Action":0},{"StopId":11645,"StopCode":"1827","PointLetter":"WP","StopName":"Trinity Church","Latitude":51.481545,"Longitude":0.073753,"Action":0},{"StopId":11673,"StopCode":"29608","PointLetter":"WQ","StopName":"Herbert Road","Latitude":51.482057,"Longitude":0.070723,"Action":0},{"StopId":11672,"StopCode":"29609","PointLetter":"WJ","StopName":"Frederick Place","Latitude":51.485359,"Longitude":0.068597,"Action":0},{"StopId":11423,"StopCode":"18752","PointLetter":"WK","StopName":"Crescent Road","Latitude":51.487877,"Longitude":0.073176,"Action":0},{"StopId":11769,"StopCode":"36822","PointLetter":"","StopName":"Burrage Road","Latitude":51.490390,"Longitude":0.072945,"Action":0},{"StopId":11371,"StopCode":"BP4396","PointLetter":"Z","StopName":"Plumstead Road / Woolwich Public Market","Latitude":51.491193,"Longitude":0.070748,"Action":0},{"StopId":13357,"StopCode":"35482","PointLetter":"H","StopName":"Woolwich Arsenal Station","Latitude":51.490199,"Longitude":0.068989,"Action":0},{"StopId":13336,"StopCode":"12927","PointLetter":"S","StopName":"The Woolwich Centre","Latitude":51.489515,"Longitude":0.065472,"Action":0},{"StopId":13345,"StopCode":"18757","PointLetter":"X","StopName":"Artillery Place / John Wilson Street","Latitude":51.487868,"Longitude":0.061479,"Action":0},{"StopId":13321,"StopCode":"18758","PointLetter":"","StopName":"Artillery Place / Frances Street","Latitude":51.487395,"Longitude":0.057684,"Action":0},{"StopId":12336,"StopCode":"18760","PointLetter":"","StopName":"Erwood Road","Latitude":51.485111,"Longitude":0.049458,"Action":0},{"StopId":12476,"StopCode":"18762","PointLetter":"","StopName":"Cemetery Lane","Latitude":51.482857,"Longitude":0.046692,"Action":0},{"StopId":12343,"StopCode":"18764","PointLetter":"Q","StopName":"Charlton Park Road","Latitude":51.481992,"Longitude":0.040071,"Action":0},{"StopId":13374,"StopCode":"13533","PointLetter":"P","StopName":"Charlton Church Lane","Latitude":51.480860,"Longitude":0.035901,"Action":0},{"StopId":13380,"StopCode":"18766","PointLetter":"","StopName":"Charlton Road / Victoria Way","Latitude":51.479516,"Longitude":0.030930,"Action":0},{"StopId":13326,"StopCode":"18768","PointLetter":"BT","StopName":"Wyndcliff Road","Latitude":51.479386,"Longitude":0.025437,"Action":0},{"StopId":14194,"StopCode":"44007","PointLetter":"BD","StopName":"Blackheath / Royal Standard","Latitude":51.477710,"Longitude":0.020438,"Action":0},{"StopId":14803,"StopCode":"13535","PointLetter":"BK","StopName":"Vanbrugh Park / Stratheden Road","Latitude":51.476947,"Longitude":0.018258,"Action":0},{"StopId":14508,"StopCode":"19621","PointLetter":"BX","StopName":"Vanbrugh Park / Beaconsfield Road","Latitude":51.476663,"Longitude":0.013882,"Action":0},{"StopId":14115,"StopCode":"18770","PointLetter":"Q","StopName":"Maze Hill","Latitude":51.474653,"Longitude":0.009906,"Action":0},{"StopId":14051,"StopCode":"35357","PointLetter":"T","StopName":"Greenwich Park","Latitude":51.472189,"Longitude":0.003620,"Action":0},{"StopId":14705,"StopCode":"R0533","PointLetter":"L","StopName":"Wat Tyler Road","Latitude":51.472535,"Longitude":-0.007193,"Action":0},{"StopId":14536,"StopCode":"18844","PointLetter":"M","StopName":"Lewisham Road","Latitude":51.472486,"Longitude":-0.013833,"Action":0},{"StopId":12373,"StopCode":"13851","PointLetter":"N","StopName":"Egerton Drive","Latitude":51.473162,"Longitude":-0.018210,"Action":0},{"StopId":12458,"StopCode":"4627","PointLetter":"T","StopName":"Deptford Bridge","Latitude":51.474380,"Longitude":-0.023211,"Action":0},{"StopId":12270,"StopCode":"485","PointLetter":"F","StopName":"Florence Road","Latitude":51.475252,"Longitude":-0.028545,"Action":0},{"StopId":12171,"StopCode":"13714","PointLetter":"W","StopName":"New Cross Station","Latitude":51.475683,"Longitude":-0.031190,"Action":0},{"StopId":10596,"StopCode":"288","PointLetter":"X","StopName":"Marquis Of Granby / Goldsmiths","Latitude":51.475395,"Longitude":-0.035984,"Action":0},{"StopId":10387,"StopCode":"26343","PointLetter":"O","StopName":"New Cross Gate Station","Latitude":51.475048,"Longitude":-0.039426,"Action":0},{"StopId":10579,"StopCode":"24705","PointLetter":"J","StopName":"New Cross Bus Garage","Latitude":51.474227,"Longitude":-0.044645,"Action":0},{"StopId":10585,"StopCode":"BP2388","PointLetter":"C","StopName":"New Cross Road / Besson Street","Latitude":51.475685,"Longitude":-0.047391,"Action":0},{"StopId":10570,"StopCode":"BP2389","PointLetter":"D","StopName":"Briant Street","Latitude":51.476823,"Longitude":-0.049848,"Action":0},{"StopId":10569,"StopCode":"R0464","PointLetter":"W","StopName":"Pomeroy Street","Latitude":51.477706,"Longitude":-0.052100,"Action":0},{"StopId":10564,"StopCode":"26726","PointLetter":"WA","StopName":"Old Kent Road / Ilderton Road","Latitude":51.479128,"Longitude":-0.056000,"Action":0},{"StopId":10565,"StopCode":"26728","PointLetter":"WB","StopName":"Commercial Way","Latitude":51.480328,"Longitude":-0.058959,"Action":0},{"StopId":10589,"StopCode":"2558","PointLetter":"WE","StopName":"Peckham Park Road","Latitude":51.482706,"Longitude":-0.063553,"Action":0},{"StopId":3150,"StopCode":"447","PointLetter":"WH","StopName":"Malt Street","Latitude":51.485424,"Longitude":-0.070208,"Action":0},{"StopId":3148,"StopCode":"4622","PointLetter":"WJ","StopName":"Trafalgar Avenue","Latitude":51.486479,"Longitude":-0.073087,"Action":0},{"StopId":364,"StopCode":"23105","PointLetter":"WN","StopName":"Dunton Road","Latitude":51.488585,"Longitude":-0.077564,"Action":0},{"StopId":341,"StopCode":"2554","PointLetter":"F","StopName":"Old Kent Road / East Street","Latitude":51.491458,"Longitude":-0.082269,"Action":0},{"StopId":330,"StopCode":"26743","PointLetter":"BQ","StopName":"Bricklayer's Arms","Latitude":51.493610,"Longitude":-0.085161,"Action":0},{"StopId":413,"StopCode":"34288","PointLetter":"BS","StopName":"Bricklayer's Arms / New Kent Road","Latitude":51.494034,"Longitude":-0.090214,"Action":0},{"StopId":414,"StopCode":"2573","PointLetter":"BT","StopName":"Rodney Place","Latitude":51.494170,"Longitude":-0.094675,"Action":0},{"StopId":361,"StopCode":"33628","PointLetter":"M","StopName":"Elephant & Castle / New Kent Road","Latitude":51.494771,"Longitude":-0.097934,"Action":0},{"StopId":1574,"StopCode":"33623","PointLetter":"Z","StopName":"London College Of Communication","Latitude":51.495251,"Longitude":-0.102034,"Action":0},{"StopId":1575,"StopCode":"2569","PointLetter":"N","StopName":"St George's Road / Imperial War Museum","Latitude":51.496632,"Longitude":-0.106242,"Action":0},{"StopId":1588,"StopCode":"523","PointLetter":"B","StopName":"Lambeth North Station","Latitude":51.498556,"Longitude":-0.111795,"Action":0},{"StopId":1639,"StopCode":"4741","PointLetter":"A","StopName":"Lower Marsh","Latitude":51.499573,"Longitude":-0.114073,"Action":0},{"StopId":1557,"StopCode":"26487","PointLetter":"D","StopName":"Westminster Bridge / County Hall","Latitude":51.500689,"Longitude":-0.119199,"Action":0},{"StopId":5647,"StopCode":"996","PointLetter":"A","StopName":"Parliament Square","Latitude":51.501874,"Longitude":-0.126341,"Action":0},{"StopId":5675,"StopCode":"7867","PointLetter":"","StopName":"Horse Guards Parade","Latitude":51.504051,"Longitude":-0.126381,"Action":0}], "Routes" : [{"Id":1269,"Route":"53","From":"Orchard Road / Griffin Road","Towards":"Horse Guards Parade","Run":"1","IsDay":1,"encodedLevels":"PE??CF?E?@C@HBACACAB@?C@H?AD@G?BA?EC@G?FI?B?@CEAE@@EAF@D?AA?G@BABE?DA@AD?@EA@BAFA@CB??BE@BA?GA@C?F@@C@DA@H@A??C?BE@A?DA??AF?B@C@?A@C@AD?BA@@B?F?CD@BE@C?AE???DAJ?BA?B@AC?E?AB?AACBAB@D?@B@B?E@A?DA?AG??C?A?AD?@@ADA@F@@A?ACD?BDAAABF?A@C?A?CG?@BBBAP","encodedPoints":"_mgyH}zOUjEvFnBjLvDjJ~CEl@r@?xFLNU~AiBdGsGf@Ad@LcDt`@FpBOpDq@lBK~@BfBi@bMQxAK`@sAzHGzCYhGyAF_BJwCf@yBzAiFzCq@a@gA{@cBwB]o@c@kAwAqF_@iD[kG_Gt@wIbA_BrNRbADLLLTHpA~@lFzJs@fAuAnAfBpG`FpOvCdKvBli@TdBtD~KxEzMn@`A`C`DtJnLTf@DRFd@Pn\\YlEGlENlCFh@rAjH\\XbBf@z@Pn@^FVh@bD`BlLRvF@`KRxPXhKThBPfArChJlAbDjCxGVVPHd@`@H`@QbBg@bJK~GDx@Hf@j@|BzA~CrBfF~@jDjB|Hx@AbDVxCB^m@F?RFZl@DTCRUf@@VEn@?f@fBd\\nAlTN`JAt@}AjU}@vL]|D?bBHnBX`Ej@~LA|AEbAM`AiAdDS`AMjB?v@Q|HSpD[dCcAhEiA|Dc@fC?`@{@fN_AjHoArOqAzNIPM~COlEBPJV`C?DnBZdEh@|Aa@f@eBpDOh@EZUnETfBhB~KrBhNFl@J~AAlREVIR_@PG?ME]ZqAn@yArA_@r@[v@cCbHqAdE_EhNiB|Hi@rBgC~HgFfRgCdHwApBwBbEMh@uC`IcDhKeApDqCfIoFpT_ClIi@bBmCrHa@v@mElKeEtImAzBcEzG_GdIgCdDiAxB@LQbA_AhIAjBAjXAh@I`@MxPMjAGbAIPiBpO_@tEHx@v@|B@ZC^i@xAcBtGOx@}BrKwAfFkHhRE^W~E_A~FaAdDMDwDlKkA|AeAhD?TDVd@`AJh@AXGXYl@e@rAs@fu@GHIDQ@eDg@eEIOJoEJ","Color":"993333","hasRunTwo":1,"startPoint":{"Latitude":51.488960,"Longitude":0.086392},"endPoint":{"Latitude":51.504138,"Longitude":-0.126242}},{"Id":6553,"Route":"53","From":"Orchard Road / Griffin Road","Towards":"Horse Guards Parade","Run":"1","IsDay":0,"encodedLevels":"PE??CF?E?@C@HBACACAB@?C@H?AD@G?BA?EC@G?FI?B?@CEAE@@EAF@D?AA?G@BABE?DA@AD?@EA@BAFA@CB??BE@BA?GA@C?F@@C@DA@H@A??C?BE@A?DA??AF?B@C@?A@C@AD?BA@@B?F?CD@BE@C?AE???DAJ?BA?B@AC?E?AB?AACBAB@D?@B@B?E@A?DA?AG??C?A?AD?@@ADA@F@@A?ACD?BDAAABF?A@C?A?CG?@BBBAP","encodedPoints":"_mgyH}zOUjEvFnBjLvDjJ~CEl@r@?xFLNU~AiBdGsGf@Ad@LcDt`@FpBOpDq@lBK~@BfBi@bMQxAK`@sAzHGzCYhGyAF_BJwCf@yBzAiFzCq@a@gA{@cBwB]o@c@kAwAqF_@iD[kG_Gt@wIbA_BrNRbADLLLTHpA~@lFzJs@fAuAnAfBpG`FpOvCdKvBli@TdBtD~KxEzMn@`A`C`DtJnLTf@DRFd@Pn\\YlEGlENlCFh@rAjH\\XbBf@z@Pn@^FVh@bD`BlLRvF@`KRxPXhKThBPfArChJlAbDjCxGVVPHd@`@H`@QbBg@bJK~GDx@Hf@j@|BzA~CrBfF~@jDjB|Hx@AbDVxCB^m@F?RFZl@DTCRUf@@VEn@?f@fBd\\nAlTN`JAt@}AjU}@vL]|D?bBHnBX`Ej@~LA|AEbAM`AiAdDS`AMjB?v@Q|HSpD[dCcAhEiA|Dc@fC?`@{@fN_AjHoArOqAzNIPM~COlEBPJV`C?DnBZdEh@|Aa@f@eBpDOh@EZUnETfBhB~KrBhNFl@J~AAlREVIR_@PG?ME]ZqAn@yArA_@r@[v@cCbHqAdE_EhNiB|Hi@rBgC~HgFfRgCdHwApBwBbEMh@uC`IcDhKeApDqCfIoFpT_ClIi@bBmCrHa@v@mElKeEtImAzBcEzG_GdIgCdDiAxB@LQbA_AhIAjBAjXAh@I`@MxPMjAGbAIPiBpO_@tEHx@v@|B@ZC^i@xAcBtGOx@}BrKwAfFkHhRE^W~E_A~FaAdDMDwDlKkA|AeAhD?TDVd@`AJh@AXGXYl@e@rAs@fu@GHIDQ@eDg@eEIOJoEJ","Color":"663366","hasRunTwo":1,"startPoint":{"Latitude":51.488960,"Longitude":0.086392},"endPoint":{"Latitude":51.504138,"Longitude":-0.126242}}]}


