{"Stops" : [{"StopId":2607,"StopCode":"29463","PointLetter":"C","StopName":"South Woodford Station","Latitude":51.591285,"Longitude":0.028939,"Action":0},{"StopId":2553,"StopCode":"15501","PointLetter":"B","StopName":"George Lane / Chigwell Road","Latitude":51.590092,"Longitude":0.030301,"Action":0},{"StopId":2666,"StopCode":"35166","PointLetter":"A","StopName":"Onslow Gardens","Latitude":51.590559,"Longitude":0.032964,"Action":0},{"StopId":2629,"StopCode":"R0499","PointLetter":"D","StopName":"Southend Road","Latitude":51.592847,"Longitude":0.036372,"Action":0},{"StopId":2589,"StopCode":"35170","PointLetter":"B","StopName":"Raven Road","Latitude":51.595163,"Longitude":0.038194,"Action":0},{"StopId":14984,"StopCode":"35172","PointLetter":"C","StopName":"Maybank Road","Latitude":51.597593,"Longitude":0.039616,"Action":0},{"StopId":2622,"StopCode":"BP2504","PointLetter":"U","StopName":"Chigwell Road","Latitude":51.601063,"Longitude":0.042241,"Action":0},{"StopId":2621,"StopCode":"BP2505","PointLetter":"V","StopName":"Orchard Estate","Latitude":51.602062,"Longitude":0.038084,"Action":0},{"StopId":3439,"StopCode":"29222","PointLetter":"H","StopName":"Spring Gardens","Latitude":51.603698,"Longitude":0.034460,"Action":0},{"StopId":3438,"StopCode":"29221","PointLetter":"A","StopName":"Woodford Station","Latitude":51.607435,"Longitude":0.035768,"Action":0},{"StopId":14987,"StopCode":"29218","PointLetter":"AA","StopName":"Hillside Close","Latitude":51.610827,"Longitude":0.038216,"Action":0},{"StopId":14989,"StopCode":"29216","PointLetter":"","StopName":"Heronway","Latitude":51.613577,"Longitude":0.040391,"Action":0},{"StopId":14988,"StopCode":"29214","PointLetter":"","StopName":"Bush Road","Latitude":51.615709,"Longitude":0.043968,"Action":0},{"StopId":14970,"StopCode":"BP4700","PointLetter":"","StopName":"Monkhams Inn","Latitude":51.618322,"Longitude":0.045746,"Action":0},{"StopId":14972,"StopCode":"BP4701","PointLetter":"","StopName":"Oak Rise","Latitude":51.621652,"Longitude":0.046647,"Action":0},{"StopId":14968,"StopCode":"BP4702","PointLetter":"","StopName":"Cedar Close","Latitude":51.624742,"Longitude":0.047379,"Action":0},{"StopId":14973,"StopCode":"BP4703","PointLetter":"","StopName":"Buckhurst Court","Latitude":51.626575,"Longitude":0.047952,"Action":0},{"StopId":14964,"StopCode":"BP4836","PointLetter":"","StopName":"Buckhurst Hill Station","Latitude":51.626506,"Longitude":0.046216,"Action":0},{"StopId":14981,"StopCode":"BP4704","PointLetter":"","StopName":"Roebuck Lane","Latitude":51.627009,"Longitude":0.042640,"Action":0},{"StopId":14967,"StopCode":"BP4705","PointLetter":"","StopName":"Westbury Road","Latitude":51.627151,"Longitude":0.038081,"Action":0},{"StopId":14977,"StopCode":"BP4706","PointLetter":"","StopName":"The Green","Latitude":51.626926,"Longitude":0.033462,"Action":0},{"StopId":1135,"StopCode":"BP4724","PointLetter":"","StopName":"Russell Road","Latitude":51.627764,"Longitude":0.033369,"Action":0},{"StopId":1098,"StopCode":"BP4725","PointLetter":"","StopName":"Cricket Ground","Latitude":51.631279,"Longitude":0.036012,"Action":0},{"StopId":1183,"StopCode":"BP4832","PointLetter":"","StopName":"North Farm","Latitude":51.638028,"Longitude":0.041474,"Action":0},{"StopId":1132,"StopCode":"BP4726","PointLetter":"","StopName":"Spring Grove","Latitude":51.640748,"Longitude":0.045845,"Action":0},{"StopId":1083,"StopCode":"BP4931","PointLetter":"","StopName":"Upper Park","Latitude":51.642362,"Longitude":0.049228,"Action":0},{"StopId":1087,"StopCode":"BP4727","PointLetter":"","StopName":"The Crown","Latitude":51.644137,"Longitude":0.052603,"Action":0},{"StopId":14994,"StopCode":"BP5044","PointLetter":"","StopName":"Loughton Station","Latitude":51.642256,"Longitude":0.054773,"Action":0}], "Routes" : [{"Id":5044,"Route":"549","From":"South Woodford Station","Towards":"Loughton Station","Run":"1","IsDay":1,"encodedLevels":"PD@?F?B??G@BAEA?C?BE?@E@B?AE?A@H?AC@@E?AH@?ADAFA@C@B@GACAE@AD?C@@?I?DC@CA?DC@D@C@B@CI?@CA??DB@?GACAB?D?@A@@G@?BD@A@?CP","encodedPoints":"qm{yHauDn@~A|@gAfAiBpCkEwAmH}BoKg@uAYq@Sa@}AsBm@m@gDgCmAo@c@TOVo@v@]HM?e@UESWyC_@qBoAcAaF{CmB_AqJcE_DmBi@o@]i@qC_G{AmCg@dASh@m@~CSrBuBlN}D|VQBeHhCUAw@Y}A_AsDsB_OkHaa@aZmD}C]cA_AqHs@wDk@uBeAsCWYi@_@qAYm@HyGlCY@WEsBuA_F{Ba@EwH[wB]yJqBkKqBe@GBbBXhHh@HD}@HKZFB@?JE`Ai@MeAAP`GJrIMlAQnEOrJ@hHp@r`@q@a@mGyCeAo@mPeMcEqCgIeGgIyF_GsEyDqDyD_E}@cA{AkCk@{AoAsE_BsHm@oBsB}F]k@k@w@wBkC_D{Ee@_A_CwDf@y@HY|A}CpCmDXKJUL?h@]xBeAWT","Color":"993333","hasRunTwo":1,"startPoint":{"Latitude":51.591452,"Longitude":0.029139},"endPoint":{"Latitude":51.641963,"Longitude":0.054699}}]}


