{"Stops" : [{"StopId":6695,"StopCode":"R0705","PointLetter":"D","StopName":"Fairfield Bus Station","Latitude":51.410374,"Longitude":-0.299866,"Action":0},{"StopId":2790,"StopCode":"R0699","PointLetter":"E2","StopName":"Eden Street","Latitude":51.410418,"Longitude":-0.302266,"Action":0},{"StopId":2192,"StopCode":"BP1084","PointLetter":"A2","StopName":"Cromwell Road Bus Station","Latitude":51.412375,"Longitude":-0.298900,"Action":0},{"StopId":2849,"StopCode":"BP272","PointLetter":"B","StopName":"Tiffin School / London Road","Latitude":51.410749,"Longitude":-0.295969,"Action":0},{"StopId":2203,"StopCode":"19542","PointLetter":"","StopName":"Norbiton Church","Latitude":51.410797,"Longitude":-0.293048,"Action":0},{"StopId":19995,"StopCode":"BP5304","PointLetter":"NZ","StopName":"Gordon Road","Latitude":51.412586,"Longitude":-0.289329,"Action":0},{"StopId":2841,"StopCode":"1917","PointLetter":"NP","StopName":"Park Road","Latitude":51.414279,"Longitude":-0.287008,"Action":0},{"StopId":2769,"StopCode":"19545","PointLetter":"NM","StopName":"Queens Road / Kingston Hospital","Latitude":51.416377,"Longitude":-0.283507,"Action":0},{"StopId":2839,"StopCode":"29817","PointLetter":"NK","StopName":"Kingston Hospital","Latitude":51.415592,"Longitude":-0.280876,"Action":0},{"StopId":2797,"StopCode":"R0901","PointLetter":"NG","StopName":"Wolsey Close","Latitude":51.413092,"Longitude":-0.277849,"Action":0},{"StopId":2888,"StopCode":"16741","PointLetter":"","StopName":"Albion Road","Latitude":51.413563,"Longitude":-0.273172,"Action":0},{"StopId":2830,"StopCode":"16739","PointLetter":"","StopName":"Coombe Hill School","Latitude":51.415673,"Longitude":-0.266275,"Action":0},{"StopId":2825,"StopCode":"16737","PointLetter":"","StopName":"Traps Lane","Latitude":51.416854,"Longitude":-0.262189,"Action":0},{"StopId":2898,"StopCode":"29819","PointLetter":"","StopName":"New Victoria Hospital","Latitude":51.416399,"Longitude":-0.254584,"Action":0},{"StopId":2901,"StopCode":"29813","PointLetter":"","StopName":"Holland Avenue","Latitude":51.414409,"Longitude":-0.248347,"Action":0},{"StopId":2897,"StopCode":"29820","PointLetter":"","StopName":"Cottenham Park Road","Latitude":51.413457,"Longitude":-0.246025,"Action":0},{"StopId":2786,"StopCode":"19966","PointLetter":"","StopName":"Cambridge Road","Latitude":51.412004,"Longitude":-0.241493,"Action":0},{"StopId":2744,"StopCode":"BP962","PointLetter":"","StopName":"Avenue Road","Latitude":51.410590,"Longitude":-0.237751,"Action":0},{"StopId":2810,"StopCode":"19091","PointLetter":"A","StopName":"Durham Road","Latitude":51.409721,"Longitude":-0.233816,"Action":0},{"StopId":2904,"StopCode":"9145","PointLetter":"B","StopName":"Raynes Park Station","Latitude":51.409514,"Longitude":-0.230789,"Action":0},{"StopId":2735,"StopCode":"27398","PointLetter":"D","StopName":"Raynes Park Methodist Church","Latitude":51.410624,"Longitude":-0.228719,"Action":0},{"StopId":2954,"StopCode":"27393","PointLetter":"E","StopName":"Arterberry Road","Latitude":51.412425,"Longitude":-0.224091,"Action":0},{"StopId":2785,"StopCode":"20600","PointLetter":"","StopName":"Lower Downs Road","Latitude":51.413598,"Longitude":-0.221974,"Action":0},{"StopId":2753,"StopCode":"9138","PointLetter":"","StopName":"Albert Grove","Latitude":51.415634,"Longitude":-0.218688,"Action":0},{"StopId":2773,"StopCode":"27934","PointLetter":"","StopName":"Darlaston Road","Latitude":51.417143,"Longitude":-0.216199,"Action":0},{"StopId":2906,"StopCode":"9131","PointLetter":"","StopName":"Spencer Hill","Latitude":51.419229,"Longitude":-0.212637,"Action":0},{"StopId":2940,"StopCode":"9127","PointLetter":"N","StopName":"Francis Grove","Latitude":51.421215,"Longitude":-0.209597,"Action":0},{"StopId":2798,"StopCode":"BP106","PointLetter":"D","StopName":"Wimbledon Station","Latitude":51.420628,"Longitude":-0.205319,"Action":0},{"StopId":2812,"StopCode":"17617","PointLetter":"X","StopName":"Wimbledon Theatre","Latitude":51.419202,"Longitude":-0.199751,"Action":0},{"StopId":2987,"StopCode":"18725","PointLetter":"SU","StopName":"The Polka Theatre","Latitude":51.419421,"Longitude":-0.195860,"Action":0},{"StopId":2835,"StopCode":"18726","PointLetter":"SV","StopName":"Merton Road","Latitude":51.417463,"Longitude":-0.192485,"Action":0},{"StopId":2779,"StopCode":"26192","PointLetter":"SZ","StopName":"South Wimbledon Station","Latitude":51.415715,"Longitude":-0.190512,"Action":0},{"StopId":2781,"StopCode":"18675","PointLetter":"SH","StopName":"Merton High Street / Haydons Road","Latitude":51.416061,"Longitude":-0.186126,"Action":0},{"StopId":2733,"StopCode":"1785","PointLetter":"E","StopName":"Merton Abbey","Latitude":51.416421,"Longitude":-0.181510,"Action":0},{"StopId":2925,"StopCode":"4495","PointLetter":"D","StopName":"Colliers Wood Station","Latitude":51.418842,"Longitude":-0.177573,"Action":0},{"StopId":2774,"StopCode":"25631","PointLetter":"L","StopName":"Walpole Road","Latitude":51.420977,"Longitude":-0.175489,"Action":0},{"StopId":2957,"StopCode":"25633","PointLetter":"HQ","StopName":"Longley Road","Latitude":51.423393,"Longitude":-0.173020,"Action":0},{"StopId":2775,"StopCode":"25635","PointLetter":"HN","StopName":"Nutwell Street","Latitude":51.425759,"Longitude":-0.170192,"Action":0},{"StopId":2926,"StopCode":"4837","PointLetter":"L","StopName":"Tooting Broadway Station","Latitude":51.427383,"Longitude":-0.168789,"Action":0},{"StopId":2902,"StopCode":"29686","PointLetter":"C","StopName":"Mitcham Road / Tooting Broadway Station","Latitude":51.427179,"Longitude":-0.166669,"Action":0},{"StopId":2866,"StopCode":"8816","PointLetter":"TJ","StopName":"Tooting / The Mitre","Latitude":51.425416,"Longitude":-0.164351,"Action":0},{"StopId":2941,"StopCode":"3198","PointLetter":"TL","StopName":"Amen Corner","Latitude":51.423622,"Longitude":-0.161733,"Action":0},{"StopId":2958,"StopCode":"25658","PointLetter":"TM","StopName":"Crowborough Road","Latitude":51.422522,"Longitude":-0.158167,"Action":0},{"StopId":2863,"StopCode":"25660","PointLetter":"TN","StopName":"Eastbourne Road","Latitude":51.421742,"Longitude":-0.155394,"Action":0},{"StopId":2937,"StopCode":"25662","PointLetter":"T","StopName":"Nimrod Road","Latitude":51.420713,"Longitude":-0.151768,"Action":0},{"StopId":2880,"StopCode":"25664","PointLetter":"U","StopName":"Southcroft Road / Mitcham Lane","Latitude":51.419654,"Longitude":-0.147294,"Action":0},{"StopId":2945,"StopCode":"12810","PointLetter":"R","StopName":"Dahomey Road","Latitude":51.421558,"Longitude":-0.144916,"Action":0},{"StopId":2759,"StopCode":"97","PointLetter":"S","StopName":"Thrale Road","Latitude":51.423571,"Longitude":-0.142504,"Action":0},{"StopId":2947,"StopCode":"12808","PointLetter":"","StopName":"Aldrington Road","Latitude":51.425016,"Longitude":-0.140633,"Action":0},{"StopId":2948,"StopCode":"12806","PointLetter":"SP","StopName":"Conyers Road","Latitude":51.426769,"Longitude":-0.136074,"Action":0},{"StopId":2950,"StopCode":"12804","PointLetter":"SR","StopName":"Ambleside Avenue","Latitude":51.427465,"Longitude":-0.134031,"Action":0},{"StopId":2952,"StopCode":"12802","PointLetter":"ST","StopName":"Streatham / St Leonard's Church","Latitude":51.428318,"Longitude":-0.132271,"Action":0},{"StopId":2808,"StopCode":"25857","PointLetter":"O","StopName":"Becmead Avenue","Latitude":51.432558,"Longitude":-0.129148,"Action":0},{"StopId":2846,"StopCode":"2403","PointLetter":"M","StopName":"Kingscourt Road","Latitude":51.434489,"Longitude":-0.128422,"Action":0},{"StopId":2833,"StopCode":"36915","PointLetter":"K","StopName":"Mount Ephraim Road","Latitude":51.435941,"Longitude":-0.128161,"Action":0},{"StopId":2807,"StopCode":"25856","PointLetter":"A","StopName":"Streatham Hill Stn  / Streatham Hill","Latitude":51.439382,"Longitude":-0.126251,"Action":0},{"StopId":2768,"StopCode":"1764","PointLetter":"S","StopName":"Barrhill Road","Latitude":51.440782,"Longitude":-0.125546,"Action":0},{"StopId":2791,"StopCode":"R0420","PointLetter":"TA","StopName":"Telford Avenue","Latitude":51.442443,"Longitude":-0.124773,"Action":0},{"StopId":2873,"StopCode":"43","PointLetter":"BS","StopName":"Christchurch Road","Latitude":51.444592,"Longitude":-0.124757,"Action":0},{"StopId":2909,"StopCode":"BP2083","PointLetter":"BP","StopName":"Streatham Place","Latitude":51.446082,"Longitude":-0.126840,"Action":0},{"StopId":2955,"StopCode":"12758","PointLetter":"H","StopName":"Atkins Road / New Park Road","Latitude":51.447159,"Longitude":-0.129516,"Action":0}], "Routes" : [{"Id":4081,"Route":"57","From":"Fairfield Bus Station","Towards":"Atkins Road / New Park Road","Run":"1","IsDay":1,"encodedLevels":"PB?DB?C@BEA?GA?D@?B?EAGFA?CECB??FAA@AAB@BC@AAH?@CD?AG?C@@E?CCB?@F@C@AC?GAD?AAC?@?B@@?EA?DA@HA@CA@EAEA?A?B@@ABA?AAH@D@@@BBC@@@@FAC@?G@D?G?B?A?C?H?A@?@D@A?@?AA?CB@C?CH@A@?CABAFA@CAAB@DC?@C??J?AAB@EA?C?@CAE?A@AHABCAA@E@B@A@BB@@AEA?CH?@?AP","encodedPoints":"wbxxH|my@DrCNz@Nb@n@Zf@Cj@?j@`@tBrB~@|AcA~CKz@[`BcAkAiFuEQSQk@ASq@_Da@q@KKSK_E@FeVXq@LOFAjGHJuN]kHEOE_@u@{Do@kAQG[a@K_@cF_Is@}A_DuDCBeC_EcByCaC{Em@iByFaLJOPQdE_DhCu@l@ItCSdGQC}F@{OO{CyAkRu@cMc@wCOs@kJgWiB_HSkA[_COeBGuA@aC^gDz@}EN}BAoHMyPnBoP\\wAz@gDd@wAdDqIhCqIJc@~@}Ed@qB|CkNfAqEnBmG|CgLR_At@sE`BaNj@qFHoDEsGIsBKUKIK?}At@G@IKgD_Uy@aEgBoCqAiCyGsNeAoBeG}KcD_H}@yAsCcGgAqCoDaG{D_I}EoJGFqGqLn@s@fCyD`@yB?UVwAh@eCp@eAjAqFZ_CCQHq@JMzAqMJkCAqIO_Es@yLQ_CnDkChFcDhCOrFg@?cBS{NQ_FS_Ek@qRWeLy@aFUiBg@wAe@cAICK[cAgB_@c@[YM?i@o@EKiEkEg@k@uFmFi@c@eGsF}CeD{JuN}@cAoBcBuHaGiDkE`@u@NA\\q@|BuCjG{Hj@cBx@yAjEwEt@kA`CgJ`@aAHCAm@Z{BzAeJPa@vFiZhBqLBkAAqDFu@DYzCgKj@}A]i@k@q@kEcEeIiJ_DkEeGoHsCcGyCaI[cAUoAGq@wBkLkAiEwEqMSSkA_AkBoBcAuAmEgEi@OwFa@eC}AyGkAi@@{HkA_AWgEwAi@W_@WU[cCoAq@g@kEwAeAm@uCsBsBoAkA_@eA?SDoHh@oFeAiAbDwFdQc@~Aq@nBa@xB","Color":"993333","hasRunTwo":1,"startPoint":{"Latitude":51.410521,"Longitude":-0.299348},"endPoint":{"Latitude":51.447346,"Longitude":-0.129921}},{"Id":2002,"Route":"57","From":"Fairfield Bus Station","Towards":"Atkins Road / New Park Road","Run":"1","IsDay":0,"encodedLevels":"PB?DB?C@BEA?GA?D@?B?EAGFA?CECB??FAA@AAB@BC@AAH?@CD?AG?C@@E?CCB?@F@C@AC?GAD?AAC?@?B@@?EA?DA@HA@CA@EAEA?A?B@@ABA?AAH@D@@@BBC@@@@FAC@?G@D?G?B?A?C?H?A@?@D@A?@?AA?CB@C?CH@A@?CABAFA@CAAB@DC?@C??J?AAB@EA?C?@CAE?A@AHABCAA@E@B@A@BB@@AEA?CH?@?AP","encodedPoints":"wbxxH|my@DrCNz@Nb@n@Zf@Cj@?j@`@tBrB~@|AcA~CKz@[`BcAkAiFuEQSQk@ASq@_Da@q@KKSK_E@FeVXq@LOFAjGHJuN]kHEOE_@u@{Do@kAQG[a@K_@cF_Is@}A_DuDCBeC_EcByCaC{Em@iByFaLJOPQdE_DhCu@l@ItCSdGQC}F@{OO{CyAkRu@cMc@wCOs@kJgWiB_HSkA[_COeBGuA@aC^gDz@}EN}BAoHMyPnBoP\\wAz@gDd@wAdDqIhCqIJc@~@}Ed@qB|CkNfAqEnBmG|CgLR_At@sE`BaNj@qFHoDEsGIsBKUKIK?}At@G@IKgD_Uy@aEgBoCqAiCyGsNeAoBeG}KcD_H}@yAsCcGgAqCoDaG{D_I}EoJGFqGqLn@s@fCyD`@yB?UVwAh@eCp@eAjAqFZ_CCQHq@JMzAqMJkCAqIO_Es@yLQ_CnDkChFcDhCOrFg@?cBS{NQ_FS_Ek@qRWeLy@aFUiBg@wAe@cAICK[cAgB_@c@[YM?i@o@EKiEkEg@k@uFmFi@c@eGsF}CeD{JuN}@cAoBcBuHaGiDkE`@u@NA\\q@|BuCjG{Hj@cBx@yAjEwEt@kA`CgJ`@aAHCAm@Z{BzAeJPa@vFiZhBqLBkAAqDFu@DYzCgKj@}A]i@k@q@kEcEeIiJ_DkEeGoHsCcGyCaI[cAUoAGq@wBkLkAiEwEqMSSkA_AkBoBcAuAmEgEi@OwFa@eC}AyGkAi@@{HkA_AWgEwAi@W_@WU[cCoAq@g@kEwAeAm@uCsBsBoAkA_@eA?SDoHh@oFeAiAbDwFdQc@~Aq@nBa@xB","Color":"663366","hasRunTwo":1,"startPoint":{"Latitude":51.410521,"Longitude":-0.299348},"endPoint":{"Latitude":51.447346,"Longitude":-0.129921}}]}


