{"Stops" : [{"StopId":13889,"StopCode":"BP559","PointLetter":"K","StopName":"London City Airport","Latitude":51.503084,"Longitude":0.050668,"Action":0},{"StopId":13958,"StopCode":"BP727","PointLetter":"D","StopName":"Constance Street","Latitude":51.502537,"Longitude":0.044923,"Action":0},{"StopId":14944,"StopCode":"9525","PointLetter":"E","StopName":"Saville Road","Latitude":51.501785,"Longitude":0.048852,"Action":0},{"StopId":13954,"StopCode":"9531","PointLetter":"C","StopName":"Fernhill Street","Latitude":51.500807,"Longitude":0.056430,"Action":0},{"StopId":13810,"StopCode":"9533","PointLetter":"D","StopName":"Dockland Street","Latitude":51.500297,"Longitude":0.059865,"Action":0},{"StopId":14943,"StopCode":"9535","PointLetter":"E","StopName":"Roebourne Way","Latitude":51.500084,"Longitude":0.062795,"Action":0},{"StopId":14127,"StopCode":"FC27","PointLetter":"A","StopName":"North Woolwich Ferry","Latitude":51.498994,"Longitude":0.060844,"Action":0}], "Routes" : [{"Id":602,"Route":"573","From":"London City Airport","Towards":"North Woolwich Ferry","Run":"1","IsDay":1,"encodedLevels":"PB?ADA@DCH@@CAE?B?C@F?CAE@B@C?BEA?BP","encodedPoints":"uejyHo}HCpEBRN\\I`AUtAuCvKA^KpJ~AjM\\i@vBwEV{@j@sBtAoIl@_J|Bca@t@yI~BiZ`@wJPcJbDc@VAL?Xh@HXJvBM|@S|DH`@f@hBYVO?EGAI?qC","Color":"993333","hasRunTwo":1,"startPoint":{"Latitude":51.503151,"Longitude":0.050963},"endPoint":{"Latitude":51.498949,"Longitude":0.061378}}]}


