{"Stops" : [{"StopId":21367,"StopCode":"BP5603","PointLetter":"W","StopName":"Stratford City Bus Station","Latitude":51.543824,"Longitude":-0.004150,"Action":0},{"StopId":21845,"StopCode":"BP5773","PointLetter":"","StopName":"Westfield Avenue","Latitude":51.543119,"Longitude":-0.010281,"Action":0},{"StopId":2510,"StopCode":"34395","PointLetter":"M","StopName":"Hackney Marsh","Latitude":51.551965,"Longitude":-0.022358,"Action":0},{"StopId":16308,"StopCode":"35956","PointLetter":"C","StopName":"Lee Conservancy Road / Poplar Close","Latitude":51.550606,"Longitude":-0.030364,"Action":0},{"StopId":15907,"StopCode":"BP2781","PointLetter":"D","StopName":"Crowfoot Close","Latitude":51.549001,"Longitude":-0.028472,"Action":0},{"StopId":16508,"StopCode":"BP4165","PointLetter":"","StopName":"Hackney Wick","Latitude":51.546788,"Longitude":-0.029520,"Action":0}], "Routes" : [{"Id":2339,"Route":"588","From":"Stratford City Bus Station","Towards":"Hackney Wick","Run":"1","IsDay":1,"encodedLevels":"P@B@CAE?AC?@GCAF@ACA?H@CB?BA@A@H?@?D@GGCAP","encodedPoints":"ieryHlYj@CHGFSB[dA@zCh@j@`@n@n@fCjDf@bAp@dB^rAcOrWeApCUlA[|ASbBMhDMnJ@tDJxJsE`@y@PwS|HiFlAoA^KRw@Xu@LeEfBCHAr@hAlf@B`HBn@Nz@tAnEpSqVjAfGZv@vChE","Color":"993333","hasRunTwo":1,"startPoint":{"Latitude":51.544058,"Longitude":-0.004223},"endPoint":{"Latitude":51.546578,"Longitude":-0.029915}}]}


