{"Stops" : [{"StopId":11825,"StopCode":"BP1582","PointLetter":"A","StopName":"Thamesmead Town Centre","Latitude":51.507426,"Longitude":0.109039,"Action":0},{"StopId":11718,"StopCode":"36669","PointLetter":"D","StopName":"Linton Mead Primary School","Latitude":51.507467,"Longitude":0.112788,"Action":0},{"StopId":11716,"StopCode":"36673","PointLetter":"","StopName":"Hoveton Road","Latitude":51.509346,"Longitude":0.116824,"Action":0},{"StopId":11433,"StopCode":"36674","PointLetter":"NE","StopName":"Nickelby Close","Latitude":51.509476,"Longitude":0.120044,"Action":0},{"StopId":11715,"StopCode":"36675","PointLetter":"NG","StopName":"Eastgate Close","Latitude":51.509015,"Longitude":0.126162,"Action":0},{"StopId":11678,"StopCode":"36677","PointLetter":"NH","StopName":"Lister Walk","Latitude":51.506632,"Longitude":0.126627,"Action":0},{"StopId":11677,"StopCode":"36678","PointLetter":"SE","StopName":"Poplar Place","Latitude":51.506209,"Longitude":0.121679,"Action":0},{"StopId":11861,"StopCode":"35406","PointLetter":"SJ","StopName":"Carlyle Road / Crossway","Latitude":51.503736,"Longitude":0.119230,"Action":0},{"StopId":11658,"StopCode":"34812","PointLetter":"","StopName":"Newacres Library","Latitude":51.497538,"Longitude":0.121319,"Action":0},{"StopId":11604,"StopCode":"34611","PointLetter":"T","StopName":"Yarnton Way / Harrow Manorway","Latitude":51.496419,"Longitude":0.122492,"Action":0},{"StopId":11656,"StopCode":"34815","PointLetter":"","StopName":"Limestone Walk","Latitude":51.496463,"Longitude":0.129021,"Action":0},{"StopId":11654,"StopCode":"34817","PointLetter":"","StopName":"The Business Academy","Latitude":51.495440,"Longitude":0.133843,"Action":0},{"StopId":11609,"StopCode":"35929","PointLetter":"","StopName":"Northwood Place","Latitude":51.493956,"Longitude":0.138816,"Action":0},{"StopId":11813,"StopCode":"36642","PointLetter":"","StopName":"Thames Innovation Centre","Latitude":51.494068,"Longitude":0.142019,"Action":0},{"StopId":11768,"StopCode":"36780","PointLetter":"","StopName":"Hailey Road","Latitude":51.494393,"Longitude":0.150304,"Action":0},{"StopId":11845,"StopCode":"34819","PointLetter":"","StopName":"Yarnton Way / Norman Road","Latitude":51.495793,"Longitude":0.152905,"Action":0},{"StopId":11550,"StopCode":"37078","PointLetter":"","StopName":"Picardy Manorway / Eastern Way","Latitude":51.498128,"Longitude":0.156531,"Action":0},{"StopId":11379,"StopCode":"37071","PointLetter":"F","StopName":"Picardy Manorway / Belvedere Station","Latitude":51.491377,"Longitude":0.155895,"Action":0},{"StopId":11757,"StopCode":"6238","PointLetter":"H","StopName":"Lower Road / Belvedere Station","Latitude":51.490606,"Longitude":0.152315,"Action":0},{"StopId":11633,"StopCode":"3955","PointLetter":"L","StopName":"Halt Robin Road","Latitude":51.488262,"Longitude":0.149713,"Action":0},{"StopId":11855,"StopCode":"3953","PointLetter":"M","StopName":"Belvedere Police Station","Latitude":51.484857,"Longitude":0.148544,"Action":0},{"StopId":11329,"StopCode":"23273","PointLetter":"N","StopName":"All Saints Church","Latitude":51.483393,"Longitude":0.147424,"Action":0},{"StopId":11402,"StopCode":"23271","PointLetter":"","StopName":"Stapley Road","Latitude":51.481936,"Longitude":0.145497,"Action":0},{"StopId":11330,"StopCode":"23269","PointLetter":"","StopName":"Nuxley Road / Dryhill Road","Latitude":51.479580,"Longitude":0.143514,"Action":0},{"StopId":11331,"StopCode":"23267","PointLetter":"","StopName":"Parsonage Manorway","Latitude":51.477622,"Longitude":0.145323,"Action":0},{"StopId":11484,"StopCode":"23265","PointLetter":"","StopName":"Little Heath Road","Latitude":51.473107,"Longitude":0.145385,"Action":0},{"StopId":11762,"StopCode":"23263","PointLetter":"","StopName":"Hollingbourne Avenue","Latitude":51.470787,"Longitude":0.144873,"Action":0},{"StopId":11400,"StopCode":"23261","PointLetter":"","StopName":"Bedonwell Road / Long Lane","Latitude":51.468450,"Longitude":0.142848,"Action":0},{"StopId":11333,"StopCode":"23259","PointLetter":"","StopName":"Heversham Road","Latitude":51.466100,"Longitude":0.145949,"Action":0},{"StopId":11646,"StopCode":"25605","PointLetter":"NW","StopName":"Bexleyheath Bus Garage","Latitude":51.459577,"Longitude":0.152998,"Action":0},{"StopId":11523,"StopCode":"16697","PointLetter":"C","StopName":"Halcot Avenue","Latitude":51.452760,"Longitude":0.152015,"Action":0},{"StopId":11355,"StopCode":"14381","PointLetter":"D","StopName":"Broomfield Road","Latitude":51.451448,"Longitude":0.152961,"Action":0},{"StopId":11770,"StopCode":"34277","PointLetter":"E","StopName":"Gravel Hill Close","Latitude":51.448677,"Longitude":0.156933,"Action":0},{"StopId":11815,"StopCode":"14379","PointLetter":"J","StopName":"Hartford Road","Latitude":51.444823,"Longitude":0.152318,"Action":0},{"StopId":11808,"StopCode":"16696","PointLetter":"G","StopName":"Bexley Library","Latitude":51.442330,"Longitude":0.150935,"Action":0},{"StopId":11354,"StopCode":"14382","PointLetter":"M","StopName":"Vicarage Road","Latitude":51.438206,"Longitude":0.154137,"Action":0},{"StopId":11343,"StopCode":"31051","PointLetter":"","StopName":"St Mary's Road","Latitude":51.437205,"Longitude":0.161126,"Action":0},{"StopId":11795,"StopCode":"3901","PointLetter":"","StopName":"Dartford Road / Baldwyns Park","Latitude":51.435469,"Longitude":0.166051,"Action":0},{"StopId":11357,"StopCode":"BP3327","PointLetter":"","StopName":"Bexley Park","Latitude":51.435128,"Longitude":0.173272,"Action":0},{"StopId":12191,"StopCode":"OC584","PointLetter":"","StopName":"Wilmington Hall School","Latitude":51.430321,"Longitude":0.193358,"Action":0}], "Routes" : [{"Id":4850,"Route":"601","From":"Thamesmead Town Centre","Towards":"Wilmington Hall School","Run":"1","IsDay":1,"encodedLevels":"PE?@B@BADBAB?EA?C?@E?ACA@F?@@C??AIA@?ABBEAC?B?E?B?@?H@D?BAD?B@?F@CBAD@BCC@H@@A?E@A?EABG???BAG?AC@EACAB?@EAA@F@B?C?A??B?A?JB@C@?@E@A?CA??F@BA@C?GA?@@D@E@B?B@F?A?DAC?@EBBE@IA?CA?F?AC?DAB?G?AAB@HABAB@EB@GA@BCB@@E@@CB@GB@D@@AD?C@?BA@?H@BE?B?B@?A?C?@B@EAA@@J?@C?@EDBE@?@BGA?CBC?E@ADA@CAAC@F@A?C??B@@BF?A@BC?@AD@?AB??E?@AB?D?A@@E??DB@P","encodedPoints":"sakyHqdTjD}Ha@}CiA_HaCsMYWGOKm@Fw@e@oA{@k@}@aAi@}@a@{@g@sCGy@EaAHaDDi@NwKOoAIg@s@sBmAaCc@_@MW?IDMFA|D_GHSRaApCoJTgBDILBBHl@P|@B|CbAZd@f@hBN~ABfBDzNN`CHf@T|@Rp@t@rA|D~GtAxBX\\VDr@Zh@y@z@eAxBiBlEsCHyBFo@HUNQRKRArDh@`Ai@`Ba@h@?j@FxExAlDd@zB?XKh@g@Dm@?uFOgj@?uALyCLgAXuAxCkKzFaTb@}CFgBG{K]gTC}ESoJSsP[cIM}@K[q@}Ai@y@c@a@_Aa@uCk@wBMk@?c@NKFGJk@ZSWEm@a@cAcAwD?kAVoFJ_A^_CJc@Pa@\\k@RST]CSB]FUDKROXFLPJ`@A^@VXvAfAX`CTxPlDrFdAtCZhBAb@CLBFFDVqA`QUvAMfCTp@JP`@Rj@FfADr@AVHPRbDrFx@L`@@bDq@zBa@NA\\HJJFJNp@tAnEpBEnARn@\\jAt@pAdA|BzBvItMdDrDVN`IzAPMHg@pAiFb@k@XU^OZG`BOtAFZJpHdB|G{AtDi@`BMdCGVLh@ZzGlFhGnFd@\\|B`A~AmCrB}E\\eBdCyHtA}CxJ_VdMwKh@w@@IRMNFbFf@lFHtEa@dGM~@Hr@ClA\\lGnCbA\\pCb@t@@d@EvAo@b@i@~@aB`AgD@YjBiGXg@X_@fDqDbAi@z@]XEr@c@DWHKHEPBvHlEp@x@tAxCTp@x@tDJXTVNDDDFJFTD`@AfALx@h@hAf@l@r@h@p@L`DjA`Af@nGzBHMr@y@fAiBJm@ZmCNg@dDaCpB|@pAJNc@zC{FzAkChEmI|@_DJ}@?e@Eo@mCcJ_@gDCe@AcEJyBTkBj@qC`AsCbAuB~AmCrAoAJB\\g@v@_EB_@AaAIy@kAgJG}@Cu@DiAHkOE]MU?UIqNHCP@Rc@HANo@Bg@E}DEKT{Fj@}ENs@x@gFnE}\\HeBCEBc@DCRm@f@uCb@yAXo@`EoLPWRSb@STExA}@JuAHa@^gDUkE[yCy@aF","Color":"993333","hasRunTwo":1,"startPoint":{"Latitude":51.507627,"Longitude":0.108417},"endPoint":{"Latitude":51.430837,"Longitude":0.196259}}]}


