{"Stops" : [{"StopId":1291,"StopCode":"25366","PointLetter":"H","StopName":"Princes Avenue","Latitude":51.590056,"Longitude":-0.143936,"Action":0},{"StopId":1387,"StopCode":"16022","PointLetter":"L","StopName":"Muswell Hill Road","Latitude":51.589744,"Longitude":-0.145811,"Action":0},{"StopId":1502,"StopCode":"16024","PointLetter":"K","StopName":"Birchwood Avenue","Latitude":51.590954,"Longitude":-0.148389,"Action":0},{"StopId":1318,"StopCode":"16026","PointLetter":"","StopName":"Midhurst Avenue","Latitude":51.590937,"Longitude":-0.153601,"Action":0},{"StopId":1404,"StopCode":"16028","PointLetter":"L","StopName":"Twyford Avenue","Latitude":51.590084,"Longitude":-0.160002,"Action":0},{"StopId":1271,"StopCode":"10242","PointLetter":"J","StopName":"Fairlawn Avenue","Latitude":51.588904,"Longitude":-0.163890,"Action":0},{"StopId":10081,"StopCode":"27477","PointLetter":"G","StopName":"East Finchley Station","Latitude":51.586674,"Longitude":-0.163879,"Action":0},{"StopId":10094,"StopCode":"9877","PointLetter":"C","StopName":"The Bishops Avenue","Latitude":51.585052,"Longitude":-0.162486,"Action":0},{"StopId":10093,"StopCode":"9873","PointLetter":"P","StopName":"Woodside Avenue","Latitude":51.583200,"Longitude":-0.159097,"Action":0},{"StopId":10106,"StopCode":"34628","PointLetter":"X","StopName":"North Hill Avenue","Latitude":51.579966,"Longitude":-0.154724,"Action":0},{"StopId":10136,"StopCode":"70101","PointLetter":"Y","StopName":"Highgate Group Practice","Latitude":51.577575,"Longitude":-0.152512,"Action":0},{"StopId":10108,"StopCode":"34624","PointLetter":"Z","StopName":"Hillcrest Estate","Latitude":51.575475,"Longitude":-0.150475,"Action":0},{"StopId":10652,"StopCode":"34626","PointLetter":"A","StopName":"St Michaels School","Latitude":51.574210,"Longitude":-0.149517,"Action":0},{"StopId":9834,"StopCode":"BP4306","PointLetter":"B","StopName":"Highgate School","Latitude":51.572099,"Longitude":-0.149689,"Action":0},{"StopId":10061,"StopCode":"17263","PointLetter":"M","StopName":"Highgate Close","Latitude":51.571654,"Longitude":-0.151698,"Action":0},{"StopId":10170,"StopCode":"33266","PointLetter":"N","StopName":"Athlone House","Latitude":51.572088,"Longitude":-0.157525,"Action":0},{"StopId":10080,"StopCode":"17262","PointLetter":"P","StopName":"Stormont Road","Latitude":51.572596,"Longitude":-0.162440,"Action":0},{"StopId":10148,"StopCode":"634","PointLetter":"E","StopName":"Compton Avenue / Kenwood House","Latitude":51.572666,"Longitude":-0.165150,"Action":0},{"StopId":10062,"StopCode":"17260","PointLetter":"","StopName":"Kenwood House","Latitude":51.571625,"Longitude":-0.172812,"Action":0},{"StopId":10078,"StopCode":"20363","PointLetter":"","StopName":"The Spaniards Inn","Latitude":51.570022,"Longitude":-0.173785,"Action":0},{"StopId":10145,"StopCode":"29182","PointLetter":"","StopName":"Hampstead Heath","Latitude":51.565749,"Longitude":-0.177188,"Action":0},{"StopId":10165,"StopCode":"638","PointLetter":"N","StopName":"Jack Straws Castle / Whitestone Pond","Latitude":51.563020,"Longitude":-0.179216,"Action":0},{"StopId":10114,"StopCode":"33808","PointLetter":"P","StopName":"Whitestone Pond / Jack Straw's Castle","Latitude":51.562019,"Longitude":-0.179603,"Action":0},{"StopId":10049,"StopCode":"BP4172","PointLetter":"Q","StopName":"Hampstead Station","Latitude":51.557340,"Longitude":-0.178231,"Action":0},{"StopId":10102,"StopCode":"37173","PointLetter":"C","StopName":"Fitzjohn's Avenue","Latitude":51.554916,"Longitude":-0.177953,"Action":0},{"StopId":10149,"StopCode":"BP1901","PointLetter":"","StopName":"Lyndhurst Road / Akenside Road","Latitude":51.552941,"Longitude":-0.175825,"Action":0},{"StopId":10103,"StopCode":"37174","PointLetter":"","StopName":"St Mary's School","Latitude":51.551241,"Longitude":-0.175792,"Action":0},{"StopId":10045,"StopCode":"37175","PointLetter":"","StopName":"Nutley Terrace","Latitude":51.548704,"Longitude":-0.175764,"Action":0},{"StopId":10104,"StopCode":"37176","PointLetter":"","StopName":"Belsize Lane","Latitude":51.546672,"Longitude":-0.175730,"Action":0},{"StopId":10151,"StopCode":"BP1898","PointLetter":"G","StopName":"College Crescent","Latitude":51.544273,"Longitude":-0.174744,"Action":0},{"StopId":3287,"StopCode":"34615","PointLetter":"D","StopName":"Swiss Cottage Station /  Avenue Road","Latitude":51.542959,"Longitude":-0.174104,"Action":0},{"StopId":10083,"StopCode":"BP4171","PointLetter":"N","StopName":"Swiss Cottage Station","Latitude":51.542375,"Longitude":-0.175281,"Action":0}], "Routes" : [{"Id":2767,"Route":"603","From":"Princes Avenue","Towards":"Swiss Cottage Station","Run":"1","IsDay":1,"encodedLevels":"P@E@BFAC?C??BIA?@A@DAACF?A?C?AAAFABAEB??@CAFB?I?@@@DBBD?A@DA@FA?DAB?IABACB@BBHB?E?B@@C@?CAB@F?B?AAE?@EBBAACB@FAB?E@A@P","encodedPoints":"ue{yHhb[f@~@zApE[h@aHrR_@vBn@vENfCAhCD~M`@fFf@xHpCd`@jApJPGH@@DtBVtE^v@?`@[nAQ~DkAfAgAfA}Az@}AdCeF|AoDnCuGpAqCdEiKdByFt@yANHh@bBTNTAtI{Gp@o@dDsDV[lGmGlG_F|Au@dCKtAFhHp@@DIT?fAg@fSaAdX[jF}@zCo@fFPbDPjBRlG?rAGpCUhB{@lNPhFr@vJBR\\~AjAzCVn@zBdEbAv@hAh@j@HlEfBbAhAlKtHtOpKnItFjBp@tASrBw@`JuDh@CX?^HZRrATp@Cf@KfEk@n@`@v@RxBBPCTMrC{BfB{BbCaDvA_Bb@UnGItLAlRO`Dc@xCiBfCu@d@?~CgAnE{DXAJDRp@T~E?FM`@MF[@_EUi@@","Color":"993333","hasRunTwo":1,"startPoint":{"Latitude":51.590197,"Longitude":-0.143882},"endPoint":{"Latitude":51.543153,"Longitude":-0.175101}}]}


