{"Stops" : [{"StopId":4679,"StopCode":"16116","PointLetter":"AA","StopName":"Queensbury Station","Latitude":51.594456,"Longitude":-0.285420,"Action":0},{"StopId":7957,"StopCode":"16114","PointLetter":"A","StopName":"Turner Road","Latitude":51.596664,"Longitude":-0.285770,"Action":0},{"StopId":7888,"StopCode":"12882","PointLetter":"","StopName":"The Parade / Cotman Gardens","Latitude":51.597846,"Longitude":-0.279257,"Action":0},{"StopId":7978,"StopCode":"16113","PointLetter":"Y","StopName":"The Highlands","Latitude":51.598737,"Longitude":-0.273202,"Action":0},{"StopId":9028,"StopCode":"2987","PointLetter":"C","StopName":"Burnt Oak Broadway","Latitude":51.601254,"Longitude":-0.268240,"Action":0},{"StopId":8983,"StopCode":"2989","PointLetter":"B","StopName":"North Road","Latitude":51.603206,"Longitude":-0.270751,"Action":0},{"StopId":8930,"StopCode":"14586","PointLetter":"HB","StopName":"Edgware Community Hospital","Latitude":51.606127,"Longitude":-0.274265,"Action":0},{"StopId":2365,"StopCode":"6070","PointLetter":"HC","StopName":"Deansbrook Road","Latitude":51.607339,"Longitude":-0.275403,"Action":0},{"StopId":2326,"StopCode":"14803","PointLetter":"P","StopName":"Spring Villa Road","Latitude":51.609821,"Longitude":-0.278487,"Action":0},{"StopId":2324,"StopCode":"15039","PointLetter":"K","StopName":"St Margarets Church","Latitude":51.611261,"Longitude":-0.278562,"Action":0},{"StopId":4101,"StopCode":"BP090","PointLetter":"G","StopName":"Edgware Station","Latitude":51.613401,"Longitude":-0.275492,"Action":0},{"StopId":11197,"StopCode":"R0792","PointLetter":"F","StopName":"Edgware Bus Station","Latitude":51.612708,"Longitude":-0.274204,"Action":0},{"StopId":9207,"StopCode":"25118","PointLetter":"B","StopName":"Edgware Station  / Station Road","Latitude":51.614548,"Longitude":-0.275824,"Action":0},{"StopId":11303,"StopCode":"15760","PointLetter":"P","StopName":"Purcells Avenue","Latitude":51.617899,"Longitude":-0.277430,"Action":0},{"StopId":11253,"StopCode":"20498","PointLetter":"Q","StopName":"Edgwarebury Lane / Edgware Way","Latitude":51.620824,"Longitude":-0.277623,"Action":0},{"StopId":12851,"StopCode":"15758","PointLetter":"T","StopName":"Broadfields Avenue","Latitude":51.621751,"Longitude":-0.273398,"Action":0},{"StopId":12854,"StopCode":"15756","PointLetter":"U","StopName":"Broadhurst Avenue","Latitude":51.622266,"Longitude":-0.269869,"Action":0},{"StopId":12852,"StopCode":"16105","PointLetter":"A","StopName":"Kenilworth Road","Latitude":51.622332,"Longitude":-0.265850,"Action":0},{"StopId":12855,"StopCode":"15754","PointLetter":"B","StopName":"Edgware Way","Latitude":51.621962,"Longitude":-0.262657,"Action":0},{"StopId":12823,"StopCode":"14702","PointLetter":"C","StopName":"Mount Grove","Latitude":51.621641,"Longitude":-0.258638,"Action":0},{"StopId":9249,"StopCode":"16457","PointLetter":"E","StopName":"Apex Corner","Latitude":51.622761,"Longitude":-0.254724,"Action":0},{"StopId":9220,"StopCode":"16460","PointLetter":"F","StopName":"The Fairway","Latitude":51.626849,"Longitude":-0.254494,"Action":0},{"StopId":9257,"StopCode":"27598","PointLetter":"","StopName":"Moat Mount Park","Latitude":51.631707,"Longitude":-0.254004,"Action":0},{"StopId":9256,"StopCode":"27596","PointLetter":"D","StopName":"Scratchwood Park","Latitude":51.639898,"Longitude":-0.256306,"Action":0},{"StopId":11254,"StopCode":"19216","PointLetter":"E","StopName":"Stirling Corner / Barnet Road","Latitude":51.641824,"Longitude":-0.252228,"Action":0},{"StopId":11292,"StopCode":"12199","PointLetter":"C","StopName":"Brickfield Lane","Latitude":51.642524,"Longitude":-0.241881,"Action":0},{"StopId":11275,"StopCode":"18104","PointLetter":"","StopName":"Glebe Lane","Latitude":51.645613,"Longitude":-0.236226,"Action":0},{"StopId":11259,"StopCode":"18105","PointLetter":"","StopName":"Rowley Green Road","Latitude":51.647311,"Longitude":-0.232503,"Action":0},{"StopId":11302,"StopCode":"18107","PointLetter":"","StopName":"Quinta Drive","Latitude":51.649856,"Longitude":-0.225928,"Action":0},{"StopId":11273,"StopCode":"18109","PointLetter":"","StopName":"Garden Close","Latitude":51.650857,"Longitude":-0.221971,"Action":0},{"StopId":11272,"StopCode":"18111","PointLetter":"K","StopName":"Galley Lane","Latitude":51.652637,"Longitude":-0.218967,"Action":0},{"StopId":1923,"StopCode":"12086","PointLetter":"L","StopName":"Barnet Hospital / Queens Road","Latitude":51.652926,"Longitude":-0.213188,"Action":0},{"StopId":1956,"StopCode":"12088","PointLetter":"","StopName":"Union Street","Latitude":51.653043,"Longitude":-0.207285,"Action":0},{"StopId":1120,"StopCode":"12218","PointLetter":"F","StopName":"Barnet Church / Wood Street","Latitude":51.653064,"Longitude":-0.201588,"Action":0},{"StopId":1119,"StopCode":"14927","PointLetter":"H","StopName":"Barnet High Street / Barnet Church","Latitude":51.652626,"Longitude":-0.198786,"Action":0},{"StopId":990,"StopCode":"1478","PointLetter":"N","StopName":"High Barnet Station/Meadway","Latitude":51.651364,"Longitude":-0.196871,"Action":0},{"StopId":968,"StopCode":"9923","PointLetter":"R","StopName":"High Barnet Station","Latitude":51.649356,"Longitude":-0.193192,"Action":0},{"StopId":13145,"StopCode":"BP1110","PointLetter":"U","StopName":"Underhill","Latitude":51.647428,"Longitude":-0.192387,"Action":0},{"StopId":13120,"StopCode":"BP1140","PointLetter":"","StopName":"The Totteridge Academy","Latitude":51.639610,"Longitude":-0.198551,"Action":0}], "Routes" : [{"Id":2977,"Route":"606","From":"Queensbury Station","Towards":"The Totteridge Academy","Run":"1","IsDay":1,"encodedLevels":"P?B?C@B@B?AGA@B@DBABA@BBEA?BAD?A@AF?A??ABI?@?CAAC?@BH?AC@AFBACHABF?BABAE?A@D?AEAB?@I?A@CA?AC@D@B@@ADAD@I?@C@C?@AF@BC@BAF?BC@C@??@B@J?B@D?AA?DAE?BC?AGB?@D@@CAAE@A@D?B?@E@?BGBA??AACA@B@B?IACABH@BF@BA?D??CBA@AE@AD?DB@P","encodedPoints":"m_|yHpuv@UPIBQCKIc@bByCvIDZCj@SZGDS@UKIWAk@k@q@o@wAoFsh@QCMUC]FYJKWmCoAgHCg@JWFC}AgOS{EBaAFgAXyBT_APqCGYM_@g@eAGGcEsI_@yAqCwEWTgAxAkPrUeHvJsB~ByAbA}GxGaDrEAHcF~GoEzEKYcBkD_AiAu@u@yFoEaBkB~AqEP?dBeFWW_BpE?j@_BpEWU]WCHgE{@qAK{@D@FETE?yAlCe@Zk@X}FnBqAHyEIkCPeFd@y@NFk@HaBDqDCmBYyEy@cH_@cEm@sISqFKqH@gCNaINaDp@kJt@oMDcDHgNEiGe@uAq@oAWWUMYIuh@sAaIYk@G{Dk@sA[_Hk@{CNcANmDbAuGdDaBp@kIvCsF~AsACeAGoBg@mAo@yB_BMEW@SFQ@KESQ[o@W{@AO@c@Rq@PKLChAJZIDEhD_IjBqF\\}CFw@VsKA}GBmDKmGiFkMuF_LsFoKq@aByAuEwBkIyAqEgBoEs@cAsCwHcC_J_@}@uC}Ke@_Cw@oFOoAKyBC}A[oDcBkC{B{DiAuBwC{GUsACyMIsBQyJEaDBoMW{NJ_GNkA@gBQ{CQkKA_CFsLR{CVu@bCmFpFmJ~Qma@Rd@FZ]vHv@UZCf@APBh@NVNb@b@|AhA|B`@vHnDnGbChA\\vAr@bBvArFdE`@j@T|@pAbGi@GMMGY","Color":"993333","hasRunTwo":1,"startPoint":{"Latitude":51.594316,"Longitude":-0.285202},"endPoint":{"Latitude":51.639739,"Longitude":-0.198352}}]}


