{"Stops" : [{"StopId":463,"StopCode":"33696","PointLetter":"T","StopName":"Turnpike Lane Bus Station","Latitude":51.590085,"Longitude":-0.102416,"Action":0},{"StopId":423,"StopCode":"15836","PointLetter":"","StopName":"Westbury Avenue Baptist Church","Latitude":51.593821,"Longitude":-0.097669,"Action":0},{"StopId":305,"StopCode":"34082","PointLetter":"NE","StopName":"Lordship Lane","Latitude":51.597597,"Longitude":-0.094898,"Action":0},{"StopId":1057,"StopCode":"15839","PointLetter":"RA","StopName":"Granville Road","Latitude":51.598947,"Longitude":-0.092199,"Action":0},{"StopId":1050,"StopCode":"29426","PointLetter":"RB","StopName":"Gospatrick Road","Latitude":51.601797,"Longitude":-0.091011,"Action":0},{"StopId":1051,"StopCode":"15841","PointLetter":"RC","StopName":"Courtman Road","Latitude":51.602802,"Longitude":-0.088702,"Action":0},{"StopId":1045,"StopCode":"9110","PointLetter":"RD","StopName":"White Hart Lane","Latitude":51.604904,"Longitude":-0.086361,"Action":0},{"StopId":1052,"StopCode":"10835","PointLetter":"NA","StopName":"Empire Parade","Latitude":51.609526,"Longitude":-0.085805,"Action":0},{"StopId":1058,"StopCode":"10833","PointLetter":"NB","StopName":"Pasteur Gardens","Latitude":51.612383,"Longitude":-0.086754,"Action":0},{"StopId":1073,"StopCode":"3171","PointLetter":"NC","StopName":"Weir Hall Gardens","Latitude":51.615220,"Longitude":-0.086996,"Action":0},{"StopId":2405,"StopCode":"15861","PointLetter":"ND","StopName":"Cambridge Roundabout","Latitude":51.617431,"Longitude":-0.086397,"Action":0},{"StopId":2439,"StopCode":"15863","PointLetter":"NE","StopName":"The Fairway","Latitude":51.622555,"Longitude":-0.082425,"Action":0},{"StopId":2438,"StopCode":"15865","PointLetter":"EJ","StopName":"Deansway","Latitude":51.625493,"Longitude":-0.081145,"Action":0},{"StopId":2435,"StopCode":"2509","PointLetter":"EK","StopName":"Church Street","Latitude":51.629091,"Longitude":-0.079014,"Action":0},{"StopId":2432,"StopCode":"4539","PointLetter":"E","StopName":"Bury Street","Latitude":51.634931,"Longitude":-0.069432,"Action":0},{"StopId":2425,"StopCode":"3173","PointLetter":"B","StopName":"Trinity Ave / Bush Hill Park Station","Latitude":51.640710,"Longitude":-0.062639,"Action":0},{"StopId":2436,"StopCode":"15867","PointLetter":"F","StopName":"Lincoln Road","Latitude":51.644141,"Longitude":-0.060772,"Action":0},{"StopId":2434,"StopCode":"2507","PointLetter":"U","StopName":"Southbury Road","Latitude":51.650249,"Longitude":-0.060323,"Action":0},{"StopId":2400,"StopCode":"15868","PointLetter":"E","StopName":"Crown Road","Latitude":51.654370,"Longitude":-0.059945,"Action":0},{"StopId":2410,"StopCode":"3176","PointLetter":"U","StopName":"Cambridge Gardens","Latitude":51.658980,"Longitude":-0.059199,"Action":0},{"StopId":2433,"StopCode":"5535","PointLetter":"V","StopName":"Carterhatch Lane","Latitude":51.661243,"Longitude":-0.058466,"Action":0},{"StopId":2431,"StopCode":"5538","PointLetter":"W","StopName":"Hoe Lane","Latitude":51.664664,"Longitude":-0.057105,"Action":0},{"StopId":2397,"StopCode":"5539","PointLetter":"A","StopName":"Enfield Crematorium","Latitude":51.668594,"Longitude":-0.055462,"Action":0},{"StopId":2423,"StopCode":"3494","PointLetter":"B","StopName":"Turkey Street Station","Latitude":51.673820,"Longitude":-0.053416,"Action":0}], "Routes" : [{"Id":1046,"Route":"617","From":"Turnpike Lane Bus Station","Towards":"Turkey Street Station","Run":"1","IsDay":1,"encodedLevels":"PBD@E?@@AFDF@?@F@?D?B@F?AD?B?H@C?AD?@AF@BD@BAAC??B?GAA?C@@C@A@E?BACAHC@D@A?CB?EACA@H?BC?@@A??C?AFA?C?@??C?@P","encodedPoints":"ef{yHz_Sh@AZ`A_A|@{@l@KSI[kBcE_Vcg@cBqCuCaBuKvAGsCBkCDu@CkEmBGkG_@}@KsBq@WOqA_AUWkAaBc@w@m@gB}@wDO}@OaBYwEoDIUEmAw@{F_Dc@Ii@GyAE}HSuGAwAJkCd@cMbDoE`@{@BgDEmAMkBHUXS\\QRYFIA[Y_@sAY]a@_@i@SiGeDo@c@mDqCeBgBiEiD_BiAqBiAyBeAeFkBoI_CcDwAeOcI{D{CqAkBw@{AaAmCYeAiAoF{@iDsBcG[s@sCuFeEwF}g@yn@aAgAiDoCs@a@mBq@i@MuD_@sFK}HUeMe@gA?sJ]iJc@kHSkF[wDY_I{@mGiAqHcB_Cm@uKgDyGmBcQuFoEoAgUcHgHkBiWmGkH_B","Color":"993333","hasRunTwo":1,"startPoint":{"Latitude":51.590274,"Longitude":-0.102533},"endPoint":{"Latitude":51.679602,"Longitude":-0.051341}}]}


