{"Stops" : [{"StopId":13011,"StopCode":"OC608","PointLetter":"","StopName":"Jewish Free School","Latitude":51.581204,"Longitude":-0.282498,"Action":0},{"StopId":2367,"StopCode":"BP3565","PointLetter":"H","StopName":"Lyndsey Park","Latitude":51.582180,"Longitude":-0.285334,"Action":0},{"StopId":2374,"StopCode":"36758","PointLetter":"F","StopName":"Kingsbury Circle / The Mall","Latitude":51.584388,"Longitude":-0.282580,"Action":0},{"StopId":2340,"StopCode":"26524","PointLetter":"C","StopName":"Kingsbury Circle","Latitude":51.586114,"Longitude":-0.282558,"Action":0},{"StopId":2347,"StopCode":"26527","PointLetter":"W","StopName":"Cowbridge Road","Latitude":51.589015,"Longitude":-0.283531,"Action":0},{"StopId":2333,"StopCode":"26528","PointLetter":"DD","StopName":"Queensbury Morrisons","Latitude":51.592123,"Longitude":-0.286388,"Action":0},{"StopId":2357,"StopCode":"16117","PointLetter":"D","StopName":"The Honeypot","Latitude":51.593976,"Longitude":-0.291357,"Action":0},{"StopId":2299,"StopCode":"27503","PointLetter":"K","StopName":"St Bride's Avenue","Latitude":51.601706,"Longitude":-0.288049,"Action":0},{"StopId":2300,"StopCode":"27501","PointLetter":"","StopName":"Merlin Crescent","Latitude":51.603358,"Longitude":-0.283511,"Action":0},{"StopId":2301,"StopCode":"27499","PointLetter":"","StopName":"Bacon Lane","Latitude":51.604520,"Longitude":-0.280637,"Action":0},{"StopId":2375,"StopCode":"M27","PointLetter":"HE","StopName":"Blood Transfusion Centre","Latitude":51.607646,"Longitude":-0.273601,"Action":0},{"StopId":2338,"StopCode":"M28","PointLetter":"S","StopName":"Deansbrook Close","Latitude":51.609036,"Longitude":-0.267280,"Action":0},{"StopId":2345,"StopCode":"33499","PointLetter":"T","StopName":"Deans Lane","Latitude":51.609440,"Longitude":-0.264810,"Action":0},{"StopId":2372,"StopCode":"33500","PointLetter":"U","StopName":"Edwin Road","Latitude":51.610158,"Longitude":-0.260449,"Action":0},{"StopId":2355,"StopCode":"33502","PointLetter":"V","StopName":"Goldbeaters Grove","Latitude":51.610268,"Longitude":-0.254524,"Action":0},{"StopId":2356,"StopCode":"33152","PointLetter":"","StopName":"Lyndhurst Avenue","Latitude":51.610854,"Longitude":-0.249143,"Action":0},{"StopId":2384,"StopCode":"15636","PointLetter":"F","StopName":"Mill Hill Broadway Station","Latitude":51.614408,"Longitude":-0.248082,"Action":0},{"StopId":2390,"StopCode":"15634","PointLetter":"M","StopName":"Mill Hill Circus / Flower Lane","Latitude":51.616070,"Longitude":-0.244984,"Action":0},{"StopId":2383,"StopCode":"15632","PointLetter":"","StopName":"Birkbeck Road","Latitude":51.615662,"Longitude":-0.239915,"Action":0},{"StopId":2350,"StopCode":"17469","PointLetter":"M","StopName":"Wise Lane","Latitude":51.615909,"Longitude":-0.236626,"Action":0},{"StopId":2353,"StopCode":"15630","PointLetter":"","StopName":"Shakespeare Road","Latitude":51.618911,"Longitude":-0.235918,"Action":0},{"StopId":2321,"StopCode":"19146","PointLetter":"","StopName":"Holcombe Hill","Latitude":51.625374,"Longitude":-0.237545,"Action":0},{"StopId":2351,"StopCode":"19147","PointLetter":"","StopName":"Mill Hill / The Rising Sun","Latitude":51.627003,"Longitude":-0.241282,"Action":0},{"StopId":2319,"StopCode":"19149","PointLetter":"","StopName":"Hendon Wood Lane","Latitude":51.630508,"Longitude":-0.235150,"Action":0},{"StopId":2352,"StopCode":"19151","PointLetter":"","StopName":"West End House","Latitude":51.630519,"Longitude":-0.229861,"Action":0},{"StopId":2317,"StopCode":"19153","PointLetter":"","StopName":"St Edward's College","Latitude":51.631044,"Longitude":-0.226546,"Action":0},{"StopId":2316,"StopCode":"19155","PointLetter":"","StopName":"Ellern Mede","Latitude":51.631768,"Longitude":-0.222674,"Action":0},{"StopId":2314,"StopCode":"19159","PointLetter":"","StopName":"Horseshoe Lane","Latitude":51.633704,"Longitude":-0.212773,"Action":0},{"StopId":2312,"StopCode":"19163","PointLetter":"","StopName":"Grange Avenue","Latitude":51.634610,"Longitude":-0.205598,"Action":0},{"StopId":2310,"StopCode":"19165","PointLetter":"","StopName":"Totteridge War Memorial","Latitude":51.633765,"Longitude":-0.201470,"Action":0},{"StopId":2308,"StopCode":"19167","PointLetter":"","StopName":"Orange Tree","Latitude":51.630482,"Longitude":-0.197309,"Action":0},{"StopId":2306,"StopCode":"19169","PointLetter":"","StopName":"Pine Grove","Latitude":51.630590,"Longitude":-0.192088,"Action":0},{"StopId":2305,"StopCode":"19171","PointLetter":"","StopName":"Links Drive","Latitude":51.630999,"Longitude":-0.187101,"Action":0},{"StopId":2304,"StopCode":"19173","PointLetter":"","StopName":"Longland Drive","Latitude":51.630865,"Longitude":-0.183090,"Action":0},{"StopId":2303,"StopCode":"19175","PointLetter":"A","StopName":"Totteridge and Whetstone Station","Latitude":51.630148,"Longitude":-0.178018,"Action":0},{"StopId":989,"StopCode":"14721","PointLetter":"C","StopName":"Whetstone / The Griffin","Latitude":51.630268,"Longitude":-0.173028,"Action":0},{"StopId":964,"StopCode":"70120","PointLetter":"","StopName":"Ashcroft Court","Latitude":51.629922,"Longitude":-0.169256,"Action":0},{"StopId":1020,"StopCode":"15418","PointLetter":"BA","StopName":"Myddelton Park","Latitude":51.629026,"Longitude":-0.164842,"Action":0},{"StopId":955,"StopCode":"2294","PointLetter":"BB","StopName":"Pollard Road","Latitude":51.627869,"Longitude":-0.162173,"Action":0},{"StopId":1347,"StopCode":"17271","PointLetter":"BC","StopName":"Beresford Avenue","Latitude":51.629669,"Longitude":-0.157736,"Action":0},{"StopId":1434,"StopCode":"17269","PointLetter":"C","StopName":"Dene Road","Latitude":51.630936,"Longitude":-0.154246,"Action":0},{"StopId":1168,"StopCode":"17268","PointLetter":"B","StopName":"Osidge Library","Latitude":51.631066,"Longitude":-0.149891,"Action":0},{"StopId":1248,"StopCode":"13425","PointLetter":"G","StopName":"Hampden Square","Latitude":51.632098,"Longitude":-0.143520,"Action":0},{"StopId":1500,"StopCode":"27459","PointLetter":"H","StopName":"Manor Drive","Latitude":51.634740,"Longitude":-0.139973,"Action":0},{"StopId":1485,"StopCode":"17771","PointLetter":"R","StopName":"Avenue Road","Latitude":51.636182,"Longitude":-0.137341,"Action":0},{"StopId":1285,"StopCode":"19261","PointLetter":"K","StopName":"Southgate Asda","Latitude":51.634712,"Longitude":-0.134295,"Action":0},{"StopId":1260,"StopCode":"27769","PointLetter":"L","StopName":"Southgate Police Station","Latitude":51.633240,"Longitude":-0.130468,"Action":0},{"StopId":2358,"StopCode":"70355","PointLetter":"H","StopName":"Southgate Station","Latitude":51.632410,"Longitude":-0.128060,"Action":0}], "Routes" : [{"Id":2744,"Route":"628","From":"Jewish Free School","Towards":"Southgate Station","Run":"1","IsDay":1,"encodedLevels":"PEB?GABCCA?B?GAAC@BGCA?E@BADC?A?AGA@C?A@@CAE?@CBJA?B?B@D?BE?@@?@CAA@GA?B@@C@AB@?E?@B@C@?GFABFA?@E?BC?A@BAG@B@?@BDAIAD?CAAB@G@E@C@ABAF@AAD?B?D?G@CD?A@J?C??CA?DAAAB??B?D?AHC@EA?CCAEB@C?GBC?@B@ED??C@AACEA?F???B@D?A?H@CAFA?DAEBB@A@F?A?CG@B?@D?CCP","encodedPoints":"_kyyH~cv@_DZ\\rPC^OdAiA}@sDmE{H}KcA{@e@VODGCGGOe@_ARiDfB}DlAcAHoHrA{DvAgE`DqBbCU`@g@dA[z@kAlE_@rCaCjLqFzK]hAcCjH@HGf@OVULIAGGMUCIEWBy@KWeBeBu@[O?ODwHzB{BPWQ]c@ISOq@Iy@g@uHc@mCQo@a@oAa@y@gIiKEMC]Ug@y@oDyGcXu@kCaPge@g@{BeDsIQ}@mD}WmAeLGy@m@qCECKu@Jm@?c@KaBuAuPQ}AyA_PGiBG_DBu@dAsXBwACiEMcDEQwDsKqApA{ChBwFnCW_@mBkIcA{DmCyJm@_AWWwAy@OGO?_AHMF_@GMSCWF_@LQLKPGPU`B_H`@eErBg_@iJg@iEm@}@UoGuB}A_A_@i@_FgC}AWWAkGrKOHYJaADa@Oq@g@}@_Ao@UOJQf@C^GvC[dBy@jBwDxHa@`AsAbE@h@TpC_@QaEkC{BaDaAwBUq@oCiI[kAsAiGAMAs@?qLE_P[sHK{@w@}K{AoPk@oDqA{McBcR{@yG_@}B{BeP}@_KuA{MOaEOuGAiFp@iKb@mBtAmEj@w@XWj@]nCQd@Uf@w@nCqF|@yBfBkFVcBRmBL_EOaKKaA]{Bw@_Ik@uM?uADg[JcAfB_M\\qCJoBNaOOmDFkHr@Q_BkMGs@CkBBa@p@qFJa@fA}ILqCv@gIlA_Fd@eB~@kCzCmJsAyDaFoLcCuH}DcOY}B]aKWoJt@{@v@g@a@aFeF_]Y}Aa@_AFQGUM[oA_BsFmG}E{FgHoFl@yAhDkKjCkGl@mAzDaJZaB~BeOjAeFj@C","Color":"993333","hasRunTwo":0,"startPoint":{"Latitude":51.580805,"Longitude":-0.282391},"endPoint":{"Latitude":51.632257,"Longitude":-0.128163}}]}


