{"Stops" : [{"StopId":10605,"StopCode":"M41","PointLetter":"QK","StopName":"South Mead","Latitude":51.602491,"Longitude":-0.242489,"Action":0},{"StopId":10604,"StopCode":"M42","PointLetter":"QL","StopName":"Barnet College","Latitude":51.604031,"Longitude":-0.243888,"Action":0},{"StopId":10603,"StopCode":"M43","PointLetter":"QM","StopName":"Wiggins Mead","Latitude":51.605756,"Longitude":-0.244399,"Action":0},{"StopId":10626,"StopCode":"M35","PointLetter":"QR","StopName":"Royal Air Force Museum","Latitude":51.597817,"Longitude":-0.240850,"Action":0},{"StopId":10607,"StopCode":"M36","PointLetter":"QS","StopName":"Beaufort Park","Latitude":51.596689,"Longitude":-0.244142,"Action":0},{"StopId":9356,"StopCode":"17037","PointLetter":"CA","StopName":"Colindale Station","Latitude":51.595652,"Longitude":-0.248802,"Action":0},{"StopId":9325,"StopCode":"17039","PointLetter":"CC","StopName":"Ajax Avenue","Latitude":51.593806,"Longitude":-0.252887,"Action":0},{"StopId":9509,"StopCode":"34229","PointLetter":"CE","StopName":"Colindale Avenue","Latitude":51.591623,"Longitude":-0.256666,"Action":0},{"StopId":9530,"StopCode":"2984","PointLetter":"CF","StopName":"Colindeep Lane","Latitude":51.590192,"Longitude":-0.254743,"Action":0},{"StopId":10614,"StopCode":"2982","PointLetter":"CG","StopName":"Sheaveshill Avenue","Latitude":51.587818,"Longitude":-0.251688,"Action":0},{"StopId":10625,"StopCode":"1329","PointLetter":"HA","StopName":"Kingsbury Road","Latitude":51.584731,"Longitude":-0.248486,"Action":0},{"StopId":5354,"StopCode":"25102","PointLetter":"HB","StopName":"Hendon Magistrates Court","Latitude":51.581494,"Longitude":-0.244352,"Action":0},{"StopId":5306,"StopCode":"6051","PointLetter":"HC","StopName":"West Hendon Broadway / Herbert Road","Latitude":51.579192,"Longitude":-0.241309,"Action":0},{"StopId":10610,"StopCode":"2978","PointLetter":"HH","StopName":"Park Road","Latitude":51.576770,"Longitude":-0.238689,"Action":0},{"StopId":10619,"StopCode":"6047","PointLetter":"HJ","StopName":"Sutherland House","Latitude":51.574256,"Longitude":-0.236001,"Action":0},{"StopId":10602,"StopCode":"24280","PointLetter":"SA","StopName":"Staples Corner","Latitude":51.571698,"Longitude":-0.232724,"Action":0},{"StopId":10615,"StopCode":"2976","PointLetter":"SB","StopName":"Staples Corner Retail Park","Latitude":51.569115,"Longitude":-0.229606,"Action":0},{"StopId":10622,"StopCode":"6045","PointLetter":"SC","StopName":"Humber Road","Latitude":51.566381,"Longitude":-0.226019,"Action":0},{"StopId":9833,"StopCode":"2972","PointLetter":"SD","StopName":"Dollis Hill Lane","Latitude":51.564164,"Longitude":-0.223306,"Action":0},{"StopId":9856,"StopCode":"6691","PointLetter":"BA","StopName":"Cricklewood Bus Garage","Latitude":51.562177,"Longitude":-0.220975,"Action":0},{"StopId":10617,"StopCode":"2970","PointLetter":"BC","StopName":"Mora Road","Latitude":51.559807,"Longitude":-0.218860,"Action":0},{"StopId":9724,"StopCode":"R0744","PointLetter":"BD","StopName":"Cricklewood Lane","Latitude":51.557288,"Longitude":-0.215842,"Action":0},{"StopId":9278,"StopCode":"27454","PointLetter":"BE","StopName":"Cricklewood Broadway / The Crown","Latitude":51.556024,"Longitude":-0.214305,"Action":0},{"StopId":9307,"StopCode":"BP3819","PointLetter":"BF","StopName":"Skardu Road","Latitude":51.553948,"Longitude":-0.212064,"Action":0},{"StopId":9309,"StopCode":"4916","PointLetter":"BH","StopName":"Minster Road","Latitude":51.551756,"Longitude":-0.209236,"Action":0},{"StopId":9404,"StopCode":"BP3512","PointLetter":"BJ","StopName":"Mill Lane","Latitude":51.550846,"Longitude":-0.207973,"Action":0},{"StopId":9525,"StopCode":"4917","PointLetter":"","StopName":"St Cuthbert's Road","Latitude":51.548859,"Longitude":-0.205614,"Action":0},{"StopId":9514,"StopCode":"4918","PointLetter":"B","StopName":"Kilburn Station","Latitude":51.547424,"Longitude":-0.204098,"Action":0},{"StopId":9454,"StopCode":"BP1648","PointLetter":"D","StopName":"Brondesbury Station","Latitude":51.545349,"Longitude":-0.201887,"Action":0},{"StopId":9553,"StopCode":"4919","PointLetter":"E","StopName":"Buckley Road","Latitude":51.543601,"Longitude":-0.199923,"Action":0},{"StopId":9347,"StopCode":"20723","PointLetter":"H","StopName":"Kingsgate Place","Latitude":51.541191,"Longitude":-0.197018,"Action":0},{"StopId":5063,"StopCode":"25367","PointLetter":"M","StopName":"Kilburn High Road / Quex Road","Latitude":51.539451,"Longitude":-0.194981,"Action":0},{"StopId":10608,"StopCode":"BP1137","PointLetter":"Q","StopName":"Kilburn High Road Station","Latitude":51.537904,"Longitude":-0.193211,"Action":0},{"StopId":5217,"StopCode":"1622","PointLetter":"Y","StopName":"Kilburn High Rd Stn  / Cambridge Avenue","Latitude":51.536533,"Longitude":-0.192343,"Action":0},{"StopId":5188,"StopCode":"10241","PointLetter":"KB","StopName":"Kilburn Park Station","Latitude":51.534692,"Longitude":-0.193670,"Action":0}], "Routes" : [{"Id":6138,"Route":"632","From":"South Mead","Towards":"Kilburn Park Station","Run":"1","IsDay":1,"encodedLevels":"P@BF?A?BBE@HEACB@GA@C@E@@BH?B?D??C@B?@C@@EC@?@CIBD?ABA?D???BADA?B@E?B?AA?E?B@?BA?EA?B?C@D?@D?AB?@AC?@D@?@CA@G@P","encodedPoints":"wr}yH~an@AvBUpJS^SPQHMDa@BqHSiCZc@d@cC|CeByE~GwH|ByB|IoHlC_B~@[tA]lAIdA?fAFrB\\`A^~Ax@z@l@xF~E`ApAJVLb@^zBF~BNpMDdALnAPn@BFZNN\\Bd@K\\?dA|Mz^Jv@Ax@FrAFXdIjV~J}NbF_JzBsCr@w@zEgEhDeEfCgCtFaGfA}A~C}Ed@m@bEeGr@i@zLgRzG_IrH}HvHmI`FeGpKiNVg@Z}@Lu@LaBCi@Jg@JWRMREXFd@D^An@QPKVUbEsFrD_Er@q@rBeDlGgKtFmHzNuQbD{C`J_IzA{ArBiCrKmNNi@~CmDjHoI|A}A|CaEnC}DtFuItE{GfQyRvGcHNM~I_K`QaUdScVxD{E`@`@|KfH","Color":"993333","hasRunTwo":1,"startPoint":{"Latitude":51.602521,"Longitude":-0.241110},"endPoint":{"Latitude":51.534648,"Longitude":-0.193810}}]}


