{"Stops" : [{"StopId":19040,"StopCode":"OC580","PointLetter":"","StopName":"Kemnal Manor College","Latitude":51.411763,"Longitude":0.112340,"Action":0},{"StopId":15954,"StopCode":"BP788","PointLetter":"N","StopName":"Crouch Croft","Latitude":51.433356,"Longitude":0.062304,"Action":0},{"StopId":16074,"StopCode":"BP1327","PointLetter":"V","StopName":"Partridge Green","Latitude":51.431256,"Longitude":0.058009,"Action":0},{"StopId":16562,"StopCode":"BP787","PointLetter":"W","StopName":"Coldharbour Library","Latitude":51.429851,"Longitude":0.057557,"Action":0},{"StopId":16561,"StopCode":"BP786","PointLetter":"X","StopName":"St Alban's Church","Latitude":51.428905,"Longitude":0.057155,"Action":0},{"StopId":16716,"StopCode":"17532","PointLetter":"Q","StopName":"Elmstead Lane","Latitude":51.427866,"Longitude":0.054346,"Action":0},{"StopId":16797,"StopCode":"17534","PointLetter":"MJ","StopName":"Mottingham Road / Ravensworth Road","Latitude":51.431331,"Longitude":0.051164,"Action":0},{"StopId":16796,"StopCode":"17536","PointLetter":"MK","StopName":"Mottingham / Prince Of Wales","Latitude":51.433866,"Longitude":0.047580,"Action":0},{"StopId":16828,"StopCode":"14386","PointLetter":"","StopName":"Mottingham Road / Court Road","Latitude":51.436654,"Longitude":0.044468,"Action":0},{"StopId":16930,"StopCode":"R0408","PointLetter":"","StopName":"Eltham College","Latitude":51.437324,"Longitude":0.040641,"Action":0},{"StopId":17075,"StopCode":"18534","PointLetter":"","StopName":"Hall View","Latitude":51.434174,"Longitude":0.037667,"Action":0},{"StopId":17242,"StopCode":"17732","PointLetter":"Z","StopName":"Marvels Lane","Latitude":51.431679,"Longitude":0.032204,"Action":0},{"StopId":16714,"StopCode":"18536","PointLetter":"E","StopName":"Amblecote Road","Latitude":51.431570,"Longitude":0.026516,"Action":0},{"StopId":16732,"StopCode":"35677","PointLetter":"F","StopName":"Chinbrook Road / Baring Road","Latitude":51.431511,"Longitude":0.022154,"Action":0}], "Routes" : [{"Id":3429,"Route":"636","From":"Kemnal Manor College","Towards":"Chinbrook Road / Baring Road","Run":"1","IsDay":1,"encodedLevels":"PEA?@C???E@BAFA@D@B??B?GBB@BAI@E@CBBAF@CA@E?ABH@BAAE?@C?AD@CA?H@@?BE?AB?F@AG@@P","encodedPoints":"}ixxHa~TwFTY|@q@vE{AzIw@rDaBxFIb@gCbJ{ChKcIlRaFdMaIhQ}DpHuG|KiEvGqDbFgDdEcEvEoBnBaHnG{GtGS^Wl@kAnEsCjQuE|[iKvv@uApIe@bAdAQjDW\\fDh@pDpAzChA|GfAnD\\j@\\b@zBbB`Ez@hGfBVRTRv@`Ab@|@bC`HeApA_BzAaHnF}CvCaDlDqApB}F`KwAxBe@l@iLbM}B|Cy@xAiAbC{@tCK~AGV@|AHP@`AB\\`BjINNJDZ?JAtHMnEtLvMj_@XjAD~@El`@JjX","Color":"993333","hasRunTwo":0,"startPoint":{"Latitude":51.411671,"Longitude":0.112499},"endPoint":{"Latitude":51.431559,"Longitude":0.022017}}]}


