{"Stops" : [{"StopId":19040,"StopCode":"OC580","PointLetter":"","StopName":"Kemnal Manor College","Latitude":51.411763,"Longitude":0.112340,"Action":0},{"StopId":16930,"StopCode":"R0408","PointLetter":"","StopName":"Eltham College","Latitude":51.437324,"Longitude":0.040641,"Action":0},{"StopId":17075,"StopCode":"18534","PointLetter":"","StopName":"Hall View","Latitude":51.434174,"Longitude":0.037667,"Action":0},{"StopId":17242,"StopCode":"17732","PointLetter":"Z","StopName":"Marvels Lane","Latitude":51.431679,"Longitude":0.032204,"Action":0},{"StopId":16714,"StopCode":"18536","PointLetter":"E","StopName":"Amblecote Road","Latitude":51.431570,"Longitude":0.026516,"Action":0},{"StopId":16732,"StopCode":"35677","PointLetter":"F","StopName":"Chinbrook Road / Baring Road","Latitude":51.431511,"Longitude":0.022154,"Action":0}], "Routes" : [{"Id":4677,"Route":"637","From":"Kemnal Manor College","Towards":"Chinbrook Road / Baring Road","Run":"1","IsDay":1,"encodedLevels":"PEA?@C???E@BAFA@D@B??B?GBC@AEA@??D@AC?IAC??F@B@E?C@AFA?C??F@AF@@P","encodedPoints":"}ixxHa~TwFTY|@q@vE{AzIw@rDaBxFIb@gCbJ{ChKcIlRaFdMaIhQ}DpHuG|KiEvGqDbFgDdEcEvEoBnBaHnG{GtGS^Wl@kAnEsCjQuE|[iKvv@uApIe@bAcBpGmBfGmDrLQt@k@zC_DbUaBzJsBdHKd@tB|CxCdGb@dA|DfL`AfCq@~@sBpD_@bA{@tCK~AEtBFHLzC`AjFXj@NNJDZ?JAtHMnEtLvMj_@XjAD~@El`@JjX","Color":"993333","hasRunTwo":0,"startPoint":{"Latitude":51.411671,"Longitude":0.112499},"endPoint":{"Latitude":51.431559,"Longitude":0.022017}}]}


