{"Stops" : [{"StopId":3132,"StopCode":"R0760","PointLetter":"Z","StopName":"Romford Station","Latitude":51.574584,"Longitude":0.183383,"Action":0},{"StopId":14362,"StopCode":"34120","PointLetter":"N","StopName":"Mercury Gardens","Latitude":51.578937,"Longitude":0.184847,"Action":0},{"StopId":14244,"StopCode":"18468","PointLetter":"MB","StopName":"Romford Police Station","Latitude":51.581134,"Longitude":0.185674,"Action":0},{"StopId":14509,"StopCode":"2492","PointLetter":"","StopName":"Pettits Lane","Latitude":51.583039,"Longitude":0.189605,"Action":0},{"StopId":13770,"StopCode":"20511","PointLetter":"","StopName":"Raphael Park","Latitude":51.584378,"Longitude":0.192527,"Action":0},{"StopId":14614,"StopCode":"9002","PointLetter":"PU","StopName":"Repton Avenue","Latitude":51.585801,"Longitude":0.195786,"Action":0},{"StopId":14875,"StopCode":"4348","PointLetter":"PV","StopName":"Links Avenue","Latitude":51.587424,"Longitude":0.202721,"Action":0},{"StopId":13857,"StopCode":"9003","PointLetter":"PW","StopName":"Castellan Avenue","Latitude":51.589630,"Longitude":0.208314,"Action":0},{"StopId":14144,"StopCode":"18470","PointLetter":"GN","StopName":"Upper Brentwood Road","Latitude":51.591513,"Longitude":0.210542,"Action":0},{"StopId":13827,"StopCode":"20073","PointLetter":"GL","StopName":"Gallows Corner","Latitude":51.594093,"Longitude":0.213006,"Action":0},{"StopId":13923,"StopCode":"20071","PointLetter":"GK","StopName":"Faringdon Avenue","Latitude":51.596852,"Longitude":0.212115,"Action":0},{"StopId":13888,"StopCode":"20069","PointLetter":"","StopName":"Heaton Avenue","Latitude":51.599324,"Longitude":0.211224,"Action":0},{"StopId":13802,"StopCode":"20067","PointLetter":"","StopName":"Myrtle Road","Latitude":51.602195,"Longitude":0.210165,"Action":0},{"StopId":14911,"StopCode":"20065","PointLetter":"","StopName":"Grange Road","Latitude":51.604087,"Longitude":0.209492,"Action":0},{"StopId":13883,"StopCode":"BP1588","PointLetter":"","StopName":"Charlbury Crescent","Latitude":51.605169,"Longitude":0.210801,"Action":0},{"StopId":14274,"StopCode":"26506","PointLetter":"","StopName":"Chatteris Avenue","Latitude":51.606252,"Longitude":0.214406,"Action":0},{"StopId":13764,"StopCode":"26508","PointLetter":"","StopName":"Hilldene Avenue Shopping Centre","Latitude":51.607702,"Longitude":0.219011,"Action":0},{"StopId":14288,"StopCode":"26510","PointLetter":"HJ","StopName":"Chippenham Road","Latitude":51.608236,"Longitude":0.221709,"Action":0},{"StopId":19324,"StopCode":"27463","PointLetter":"NK","StopName":"Dorking Road","Latitude":51.609230,"Longitude":0.221440,"Action":0},{"StopId":19313,"StopCode":"27465","PointLetter":"","StopName":"Dorking Walk","Latitude":51.610628,"Longitude":0.218374,"Action":0},{"StopId":14060,"StopCode":"27469","PointLetter":"","StopName":"Troopers Drive","Latitude":51.612689,"Longitude":0.219717,"Action":0},{"StopId":16544,"StopCode":"27923","PointLetter":"","StopName":"Tees Drive","Latitude":51.613011,"Longitude":0.222650,"Action":0},{"StopId":16173,"StopCode":"27922","PointLetter":"","StopName":"Wigton Way","Latitude":51.611850,"Longitude":0.228876,"Action":0},{"StopId":13988,"StopCode":"35411","PointLetter":"DC","StopName":"Harkness Close","Latitude":51.609371,"Longitude":0.230589,"Action":0},{"StopId":13834,"StopCode":"35413","PointLetter":"DD","StopName":"Sedgefield Crescent","Latitude":51.609473,"Longitude":0.235649,"Action":0},{"StopId":14510,"StopCode":"26809","PointLetter":"DE","StopName":"Settle Road","Latitude":51.608869,"Longitude":0.238523,"Action":0}], "Routes" : [{"Id":7690,"Route":"647","From":"Romford Station","Towards":"Settle Road","Run":"1","IsDay":1,"encodedLevels":"PD@BF?B@F@B?AA?C?A?GA@C@A?@B@E?AAD?A?AFAAC@AB?B@C@H@ABC@?HAC@CBB@HABC?@CAF?BDIACABDF?AB?E?B?FA?D@BP","encodedPoints":"abxyHqyb@_ERgAbAuCxBWCgFoNe@uAu@kAKCi@POLa@f@yFzFy@^CLW`@IDQAMIGG[kBAeAIy@qDsI}AcEqBqFwFiPwE}LaCyHeBiGMq@QwBs@{K_AiHg@}BgBeHmBaJaAcFeBwGcA{A}EeF_DqEi@{@yBcFgBuCIHOFI?SOOa@iAkBg@Gk@?iALkIhBcj@pNmIzBsBl@]}EeAcImHo[yCwNqAmIe@eIIYY]e@H[\\sA~BOn@YxAkBjHeBzDi@j@SLy@\\_A?kGoBT{IIaDc@uB[yC?qBzBoYLs@XoAz@wBR_@|@gA|@m@^QxBa@xEq@a@kJY}L@y@HeCZ}DlCmS","Color":"993333","hasRunTwo":1,"startPoint":{"Latitude":51.574255,"Longitude":0.183453},"endPoint":{"Latitude":51.608675,"Longitude":0.239226}}]}


