{"Stops" : [{"StopId":13870,"StopCode":"33795","PointLetter":"","StopName":"Abbey Wood Lane","Latitude":51.529369,"Longitude":0.213501,"Action":0},{"StopId":13979,"StopCode":"33796","PointLetter":"","StopName":"Thorn Lane","Latitude":51.526220,"Longitude":0.214559,"Action":0},{"StopId":13980,"StopCode":"33792","PointLetter":"","StopName":"Lake Avenue","Latitude":51.525443,"Longitude":0.217578,"Action":0},{"StopId":14843,"StopCode":"18452","PointLetter":"","StopName":"Acer Avenue","Latitude":51.522720,"Longitude":0.217503,"Action":0},{"StopId":14617,"StopCode":"9756","PointLetter":"","StopName":"Lambs Lane","Latitude":51.521787,"Longitude":0.212153,"Action":0},{"StopId":13893,"StopCode":"20807","PointLetter":"","StopName":"Allen Road","Latitude":51.521054,"Longitude":0.209047,"Action":0},{"StopId":14293,"StopCode":"8517","PointLetter":"","StopName":"New Road","Latitude":51.520371,"Longitude":0.204719,"Action":0},{"StopId":14687,"StopCode":"18450","PointLetter":"","StopName":"Brights Avenue","Latitude":51.519800,"Longitude":0.201116,"Action":0},{"StopId":14717,"StopCode":"18448","PointLetter":"P","StopName":"Rainham Village School","Latitude":51.519361,"Longitude":0.196223,"Action":0},{"StopId":21790,"StopCode":"BP5750","PointLetter":"R","StopName":"St Helen's Court","Latitude":51.518370,"Longitude":0.192024,"Action":0},{"StopId":14095,"StopCode":"20479","PointLetter":"C","StopName":"Rainham War Memorial","Latitude":51.518708,"Longitude":0.189792,"Action":0},{"StopId":14544,"StopCode":"18385","PointLetter":"G","StopName":"Dovers Corner","Latitude":51.521728,"Longitude":0.188452,"Action":0},{"StopId":14577,"StopCode":"BP3551","PointLetter":"Q","StopName":"Cherry Tree Lane","Latitude":51.522114,"Longitude":0.185112,"Action":0},{"StopId":14002,"StopCode":"29926","PointLetter":"M","StopName":"Dunedin Road","Latitude":51.523420,"Longitude":0.181613,"Action":0},{"StopId":14373,"StopCode":"26558","PointLetter":"N","StopName":"Edmund Road","Latitude":51.524431,"Longitude":0.183334,"Action":0},{"StopId":14656,"StopCode":"26557","PointLetter":"P","StopName":"Stanley Road South","Latitude":51.526474,"Longitude":0.186156,"Action":0},{"StopId":14810,"StopCode":"26554","PointLetter":"F","StopName":"Rainham Road","Latitude":51.528696,"Longitude":0.189017,"Action":0},{"StopId":14946,"StopCode":"29339","PointLetter":"G","StopName":"Alexandra Road","Latitude":51.530508,"Longitude":0.190675,"Action":0},{"StopId":14006,"StopCode":"29409","PointLetter":"H","StopName":"Ford Lane","Latitude":51.534086,"Longitude":0.192231,"Action":0},{"StopId":14827,"StopCode":"37192","PointLetter":"K","StopName":"Dowding Way","Latitude":51.538736,"Longitude":0.202274,"Action":0},{"StopId":14945,"StopCode":"37095","PointLetter":"L","StopName":"Gosport Drive","Latitude":51.540559,"Longitude":0.205723,"Action":0},{"StopId":14622,"StopCode":"37100","PointLetter":"M","StopName":"Sarre Avenue","Latitude":51.543559,"Longitude":0.209286,"Action":0},{"StopId":14621,"StopCode":"37101","PointLetter":"N","StopName":"Hornchurch Country Park","Latitude":51.543690,"Longitude":0.214239,"Action":0},{"StopId":14484,"StopCode":"36643","PointLetter":"C","StopName":"Miramar Way","Latitude":51.545868,"Longitude":0.215613,"Action":0},{"StopId":14283,"StopCode":"34130","PointLetter":"D","StopName":"St Georges Hospital","Latitude":51.547839,"Longitude":0.216964,"Action":0},{"StopId":14690,"StopCode":"27876","PointLetter":"E","StopName":"Vaughan Avenue","Latitude":51.550459,"Longitude":0.218202,"Action":0},{"StopId":14588,"StopCode":"BP1789","PointLetter":"L","StopName":"Hornchurch Station","Latitude":51.554252,"Longitude":0.219252,"Action":0},{"StopId":14954,"StopCode":"18267","PointLetter":"H","StopName":"Devonshire Road","Latitude":51.558323,"Longitude":0.220359,"Action":0},{"StopId":14899,"StopCode":"8527","PointLetter":"F","StopName":"Hornchurch Town Centre","Latitude":51.561694,"Longitude":0.221403,"Action":0},{"StopId":14895,"StopCode":"20420","PointLetter":"","StopName":"St Andrew's Church","Latitude":51.560667,"Longitude":0.226706,"Action":0},{"StopId":14589,"StopCode":"8525","PointLetter":"K","StopName":"Hacton Lane","Latitude":51.560347,"Longitude":0.228869,"Action":0},{"StopId":13863,"StopCode":"9767","PointLetter":"B","StopName":"Upminster Bridge Station","Latitude":51.559021,"Longitude":0.236176,"Action":0},{"StopId":14530,"StopCode":"18034","PointLetter":"P","StopName":"Upminster Windmill","Latitude":51.557670,"Longitude":0.242401,"Action":0},{"StopId":14504,"StopCode":"27707","PointLetter":"R","StopName":"St Laurence Church","Latitude":51.556596,"Longitude":0.245926,"Action":0},{"StopId":14528,"StopCode":"25140","PointLetter":"D","StopName":"Gaynes Road","Latitude":51.557005,"Longitude":0.249437,"Action":0},{"StopId":14355,"StopCode":"25138","PointLetter":"A","StopName":"Upminster Station","Latitude":51.558539,"Longitude":0.250076,"Action":0}], "Routes" : [{"Id":5289,"Route":"652","From":"Abbey Wood Lane","Towards":"Upminster Station","Run":"1","IsDay":1,"encodedLevels":"P@ABA?F?FF@@H@C?@C@??A@@CAAGAD@F?@@BDAC?F@A@C?A?JAA@D@B@BAE?CD?@BF?B@?E@CAG?CEA@CAE?@B@D@B?F@B@@C?GA@D@?B?AC@HB@C?@FAAD@?@@EBB@BB?C?AA@I?A@?BC??C@A@DAB?GA?E????P","encodedPoints":"cfoyHoeh@SMMUMaAm@oGCgA?eBxEq@pMsBe@yObFyA`HgBzBc@bApPXlC|A`MfC~QvBbQX`EJfC|@|MH|@t@dNb@`LRrCz@tJlBxLx@fIU|CDfBcAv@sDxBG?MOCMeBuBo@Oq@KcCBQ\\GFAd@S|@E`FYhH}@~JiApLIt@u@pEi@W_B}AwAwA_@o@U{@Go@CmBFoAEeAQk@OO{JeHkGgHYo@wCcFa@}@yDmFc@UYIqDYy@A_FYaCaAi@[eDsDaAgBWm@{@eCwAeNyG_LUk@gFaJaDeCYo@FON{@Dm@BgAC_CYyDU{A_@cA_@}@]c@e@_@_FqCmDgBaGoD_@i@Wi@a@_BSoBEuABoAVwC^sD`@}BT{@p@wFSq@SUqUiMsBmAeGaEy@_@gA_@gD_AsDu@gDYmHeA_Aa@qE{Au@[eIqCe@IsC[qAN{GWy@?_Ge@]MWOa@AKBmAb@OCEGEU@MJ[\\_BDc@h@uNb@wCR}@rBgNPgCxCa]tAcL`CgVbB{K|Gk]RoBXuDLiC?sCCkAk@OGE[KkHuBsBq@","Color":"993333","hasRunTwo":1,"startPoint":{"Latitude":51.528823,"Longitude":0.210968},"endPoint":{"Latitude":51.558742,"Longitude":0.250247}}]}


