{"Stops" : [{"StopId":1291,"StopCode":"25366","PointLetter":"H","StopName":"Princes Avenue","Latitude":51.590056,"Longitude":-0.143936,"Action":0},{"StopId":1387,"StopCode":"16022","PointLetter":"L","StopName":"Muswell Hill Road","Latitude":51.589744,"Longitude":-0.145811,"Action":0},{"StopId":1502,"StopCode":"16024","PointLetter":"K","StopName":"Birchwood Avenue","Latitude":51.590954,"Longitude":-0.148389,"Action":0},{"StopId":1318,"StopCode":"16026","PointLetter":"","StopName":"Midhurst Avenue","Latitude":51.590937,"Longitude":-0.153601,"Action":0},{"StopId":1404,"StopCode":"16028","PointLetter":"L","StopName":"Twyford Avenue","Latitude":51.590084,"Longitude":-0.160002,"Action":0},{"StopId":10701,"StopCode":"16512","PointLetter":"","StopName":"Abbots Gardens","Latitude":51.589195,"Longitude":-0.169826,"Action":0},{"StopId":10683,"StopCode":"16509","PointLetter":"","StopName":"Trinity Avenue","Latitude":51.590783,"Longitude":-0.173617,"Action":0},{"StopId":10669,"StopCode":"16507","PointLetter":"G","StopName":"Ossulton Way","Latitude":51.592010,"Longitude":-0.179689,"Action":0},{"StopId":10695,"StopCode":"33334","PointLetter":"H","StopName":"East Finchley Cemetery","Latitude":51.592870,"Longitude":-0.181791,"Action":0},{"StopId":10684,"StopCode":"16505","PointLetter":"D","StopName":"Basing Way","Latitude":51.594583,"Longitude":-0.186704,"Action":0},{"StopId":11194,"StopCode":"16503","PointLetter":"E","StopName":"Manor View","Latitude":51.595859,"Longitude":-0.189540,"Action":0},{"StopId":11190,"StopCode":"34042","PointLetter":"F","StopName":"Holmwood Gardens","Latitude":51.596365,"Longitude":-0.192624,"Action":0},{"StopId":11174,"StopCode":"16501","PointLetter":"G","StopName":"Church End","Latitude":51.596714,"Longitude":-0.197202,"Action":0},{"StopId":1283,"StopCode":"BP2834","PointLetter":"L","StopName":"Gravel Hill","Latitude":51.597690,"Longitude":-0.198665,"Action":0},{"StopId":8853,"StopCode":"16497","PointLetter":"M","StopName":"St Mary's Avenue","Latitude":51.597330,"Longitude":-0.201581,"Action":0},{"StopId":8859,"StopCode":"16495","PointLetter":"N","StopName":"Arden Road","Latitude":51.594966,"Longitude":-0.205139,"Action":0},{"StopId":8855,"StopCode":"16493","PointLetter":"","StopName":"Crooked Usage","Latitude":51.593267,"Longitude":-0.208123,"Action":0},{"StopId":8843,"StopCode":"BP2833","PointLetter":"","StopName":"Broughton Avenue","Latitude":51.592003,"Longitude":-0.210194,"Action":0},{"StopId":8844,"StopCode":"16492","PointLetter":"","StopName":"Great North Way","Latitude":51.590540,"Longitude":-0.213297,"Action":0},{"StopId":8850,"StopCode":"16489","PointLetter":"","StopName":"Alexandra Road","Latitude":51.589795,"Longitude":-0.216373,"Action":0},{"StopId":2361,"StopCode":"16487","PointLetter":"T","StopName":"The Quadrant","Latitude":51.589541,"Longitude":-0.220901,"Action":0},{"StopId":8845,"StopCode":"15927","PointLetter":"R","StopName":"Church End","Latitude":51.589947,"Longitude":-0.225158,"Action":0},{"StopId":8857,"StopCode":"15929","PointLetter":"P","StopName":"Hendon Town Hall","Latitude":51.588191,"Longitude":-0.228604,"Action":0},{"StopId":8863,"StopCode":"15951","PointLetter":"N","StopName":"Watford Way","Latitude":51.586541,"Longitude":-0.230069,"Action":0},{"StopId":8861,"StopCode":"34454","PointLetter":"K","StopName":"Edgeworth Avenue","Latitude":51.585554,"Longitude":-0.231435,"Action":0},{"StopId":8866,"StopCode":"15933","PointLetter":"","StopName":"Audley Road","Latitude":51.583124,"Longitude":-0.233651,"Action":0},{"StopId":2337,"StopCode":"17580","PointLetter":"HE","StopName":"Hendon Station","Latitude":51.579996,"Longitude":-0.237987,"Action":0},{"StopId":5511,"StopCode":"BP1693","PointLetter":"HL","StopName":"West Hendon Broadway","Latitude":51.578226,"Longitude":-0.240437,"Action":0},{"StopId":5312,"StopCode":"6052","PointLetter":"HM","StopName":"West Hendon Broadway / Herbert Road","Latitude":51.579250,"Longitude":-0.241581,"Action":0},{"StopId":5305,"StopCode":"6056","PointLetter":"HP","StopName":"Hendon Magistrates Court","Latitude":51.581986,"Longitude":-0.245344,"Action":0},{"StopId":5390,"StopCode":"11136","PointLetter":"HS","StopName":"Edgware Road / The Hyde","Latitude":51.584104,"Longitude":-0.248698,"Action":0},{"StopId":5386,"StopCode":"34606","PointLetter":"E","StopName":"Springfield Gardens","Latitude":51.582611,"Longitude":-0.252927,"Action":0},{"StopId":5428,"StopCode":"15936","PointLetter":"F","StopName":"Townsend Lane","Latitude":51.582213,"Longitude":-0.257590,"Action":0},{"StopId":8849,"StopCode":"17170","PointLetter":"H","StopName":"Church Lane","Latitude":51.583031,"Longitude":-0.263015,"Action":0},{"StopId":2336,"StopCode":"17171","PointLetter":"J","StopName":"Slough Lane","Latitude":51.584412,"Longitude":-0.267033,"Action":0},{"StopId":8858,"StopCode":"17173","PointLetter":"M","StopName":"Valley Drive","Latitude":51.585936,"Longitude":-0.274683,"Action":0},{"StopId":2376,"StopCode":"14853","PointLetter":"B","StopName":"Kingsbury Station","Latitude":51.584844,"Longitude":-0.279301,"Action":0},{"StopId":2366,"StopCode":"36759","PointLetter":"E","StopName":"Kingsbury Circle / The Mall","Latitude":51.584084,"Longitude":-0.282721,"Action":0},{"StopId":2368,"StopCode":"BP3564","PointLetter":"G","StopName":"Lyndsey Park","Latitude":51.582539,"Longitude":-0.284685,"Action":0},{"StopId":13011,"StopCode":"OC608","PointLetter":"","StopName":"Jewish Free School","Latitude":51.581204,"Longitude":-0.282498,"Action":0}], "Routes" : [{"Id":2575,"Route":"653","From":"Princes Avenue","Towards":"Jewish Free School","Run":"1","IsDay":1,"encodedLevels":"PAEA?@F@CAC??BEB@D@ABH?@BAA?DA?BDB?C@@DBFB@EC@AIA@D@D?@B@B?D?G?C?B@@D@@CAG?A?BB@D@D?ABADC?AD?C@CIC?BA?H@??CBEAAG?AA?ACBCCB?G@B?AD?@BA@B?FB@GBEAE@DP","encodedPoints":"yi{yHp{ZbGdLDd@E`@ILoDvJeDvJd@~C^rEGlKJzE`@fFf@xHpCd`@jApJ{@nKQlFBv@J^rAtBbAfCAd@EZq@`D{@bD]b@aCxHc@zAaBrGy@fIKlBq@bKi@~BcDxLqBtEkCvGQx@ItBcA|HcHhSwAxF]|We@zKOfA{@bDQDa@`@mEjF|ElNZh@jEzKvBpBzBlC\\|@f@~A~BrFXVjAfBzC~FhE|IfD|JfB|F`A`GDd@DlB?nFXtIN|@LpDOhD_AbKGzAE~Dh@tQNVXVdAf@lAd@zDnC\\`@pGfFd@t@xFnKVRJN|EtB|AdArCnCtDfEfAfCzDlIl@z@~CnDNJ`@HfDrAt@|AmItJqDpF}H|LiFtG_D|EgA|ANf@v@lEJ~@lBfK~CvHPnANjCX`UInDIdAYtBs@zDK|@Q`D{@nHiE|No@rEoFha@}@|IElAA~CN|Bh@tDLj@dBtFh@~CHzAJxC?x@JvAPZN|@IbAI\\tJhNxElFb@\\ReBY_N`DSDMCaAGK_DZ","Color":"993333","hasRunTwo":1,"startPoint":{"Latitude":51.590855,"Longitude":-0.142801},"endPoint":{"Latitude":51.581607,"Longitude":-0.282534}}]}


