{"Stops" : [{"StopId":13312,"StopCode":"R0675","PointLetter":"D","StopName":"Raleigh Gardens","Latitude":51.405622,"Longitude":-0.166007,"Action":0},{"StopId":13337,"StopCode":"18660","PointLetter":"","StopName":"Sadler Close","Latitude":51.407460,"Longitude":-0.169097,"Action":0},{"StopId":13348,"StopCode":"18662","PointLetter":"","StopName":"Lewis Road","Latitude":51.408640,"Longitude":-0.170372,"Action":0},{"StopId":13378,"StopCode":"18664","PointLetter":"","StopName":"Lavender Avenue","Latitude":51.410316,"Longitude":-0.172333,"Action":0},{"StopId":13368,"StopCode":"18666","PointLetter":"","StopName":"Chelsea Fields","Latitude":51.411519,"Longitude":-0.175650,"Action":0},{"StopId":13382,"StopCode":"LG06","PointLetter":"J","StopName":"Runnymede","Latitude":51.413493,"Longitude":-0.178865,"Action":0},{"StopId":13332,"StopCode":"33644","PointLetter":"C","StopName":"Colliers Wood Station","Latitude":51.417699,"Longitude":-0.178079,"Action":0},{"StopId":13381,"StopCode":"LG03","PointLetter":"F","StopName":"Merton Abbey","Latitude":51.416130,"Longitude":-0.183017,"Action":0},{"StopId":2782,"StopCode":"18674","PointLetter":"SE","StopName":"Merton High Street / Haydons Road","Latitude":51.415792,"Longitude":-0.187949,"Action":0},{"StopId":2928,"StopCode":"341","PointLetter":"SF","StopName":"South Wimbledon Station","Latitude":51.415568,"Longitude":-0.191453,"Action":0},{"StopId":13350,"StopCode":"25450","PointLetter":"SN","StopName":"Morden Road","Latitude":51.415491,"Longitude":-0.193512,"Action":0},{"StopId":13366,"StopCode":"18676","PointLetter":"SQ","StopName":"Wimbledon Fire Station","Latitude":51.415271,"Longitude":-0.196138,"Action":0},{"StopId":13353,"StopCode":"18678","PointLetter":"MD","StopName":"Merton Park Tram Stop","Latitude":51.414743,"Longitude":-0.200991,"Action":0},{"StopId":6703,"StopCode":"18680","PointLetter":"ME","StopName":"Wilton Crescent","Latitude":51.412474,"Longitude":-0.206688,"Action":0},{"StopId":6659,"StopCode":"1806","PointLetter":"MF","StopName":"Nelson Hospital","Latitude":51.410556,"Longitude":-0.210013,"Action":0},{"StopId":6687,"StopCode":"18682","PointLetter":"MH","StopName":"Wimbledon Chase Station","Latitude":51.409262,"Longitude":-0.213630,"Action":0},{"StopId":13386,"StopCode":"19100","PointLetter":"MJ","StopName":"Merton Park Baptist Church","Latitude":51.408277,"Longitude":-0.216818,"Action":0},{"StopId":6738,"StopCode":"27916","PointLetter":"U","StopName":"Bushey Road / Grand Drive","Latitude":51.406974,"Longitude":-0.230543,"Action":0},{"StopId":6685,"StopCode":"18686","PointLetter":"Q","StopName":"Carters Bridge","Latitude":51.404726,"Longitude":-0.237085,"Action":0},{"StopId":5744,"StopCode":"18688","PointLetter":"U","StopName":"Raynes Park High School","Latitude":51.403196,"Longitude":-0.240609,"Action":0}], "Routes" : [{"Id":8687,"Route":"655","From":"Raleigh Gardens","Towards":"Raynes Park High School","Run":"1","IsDay":1,"encodedLevels":"P?B?D?C@D@@@FB?@BCA@G@CAA@E@AAC@E@D?A?@CI?B?D?E?AA@?@@AF@?D?A@B@CA?C?D?B?AA@@F@A?CAA@F?@AC@CB?P","encodedPoints":"acwxHpk_@MJQF]Ks@a@Gb@yAlGuAbD{BvEeAtAaB`B{AfB}I`LcBlF[dBk@tDuBdLo@jACZPv@D|@yEp@aARoCfAMZGFO@MEOc@?c@YsAIKsAq@oAQuGg@_@B_@JS?[Eq@LKj@PTfDjFZp@f@vAnAjI@T^jPRzGp@rPRpK@nCXvNd@rQApAb@zK`CvLfCzLNh@f@jAR\\p@v@x@hB\\dA|DxJv@h@r@z@HPZv@zAhF~@dDdCtJ~DpQNd@hAbHr@~CPb@d@bBRlBLhBd@xJBpAv@n`@AdFNjOHr@Px@Tz@bAzCtB`FtAvGzFxUnB`Gd@j@VT","Color":"993333","hasRunTwo":1,"startPoint":{"Latitude":51.405459,"Longitude":-0.165850},"endPoint":{"Latitude":51.403209,"Longitude":-0.240802}}]}


