{"Stops" : [{"StopId":18029,"StopCode":"BP5048","PointLetter":"","StopName":"Charles Darwin School","Latitude":51.315707,"Longitude":0.044541,"Action":0},{"StopId":16236,"StopCode":"40145","PointLetter":"B","StopName":"Main Road / Sunningvale Avenue","Latitude":51.322132,"Longitude":0.027274,"Action":0},{"StopId":16357,"StopCode":"40144","PointLetter":"C","StopName":"Main Road / Saltbox Hill","Latitude":51.325465,"Longitude":0.023301,"Action":0},{"StopId":17836,"StopCode":"40141","PointLetter":"D","StopName":"Hanbury Drive","Latitude":51.328711,"Longitude":0.023344,"Action":0},{"StopId":17837,"StopCode":"40140","PointLetter":"E","StopName":"Biggin Hill Airport / Passenger Terminal","Latitude":51.330754,"Longitude":0.026908,"Action":0},{"StopId":17789,"StopCode":"40135","PointLetter":"F","StopName":"Leaves Green / The Kings Arms","Latitude":51.336228,"Longitude":0.030179,"Action":0},{"StopId":17765,"StopCode":"40137","PointLetter":"G","StopName":"Leaves Green / Ashmore Lane","Latitude":51.339386,"Longitude":0.030649,"Action":0},{"StopId":17788,"StopCode":"40134","PointLetter":"","StopName":"Blackness Lane","Latitude":51.343611,"Longitude":0.032300,"Action":0},{"StopId":17487,"StopCode":"40132","PointLetter":"KH","StopName":"Keston Church","Latitude":51.348573,"Longitude":0.036066,"Action":0},{"StopId":17839,"StopCode":"40129","PointLetter":"WS","StopName":"Westerham Road / Heathfield Road","Latitude":51.354659,"Longitude":0.033592,"Action":0},{"StopId":17787,"StopCode":"40128","PointLetter":"WT","StopName":"Westerham Road / Keston Common","Latitude":51.356506,"Longitude":0.036518,"Action":0},{"StopId":17840,"StopCode":"40126","PointLetter":"WU","StopName":"Fishponds Road","Latitude":51.360076,"Longitude":0.038543,"Action":0},{"StopId":18019,"StopCode":"40124","PointLetter":"WV","StopName":"Rolinsden Way","Latitude":51.362766,"Longitude":0.039036,"Action":0},{"StopId":18017,"StopCode":"40122","PointLetter":"WX","StopName":"Westerham Road / The Keston Mark","Latitude":51.366581,"Longitude":0.038918,"Action":0},{"StopId":17472,"StopCode":"R0602","PointLetter":"KU","StopName":"Keston Methodist Church","Latitude":51.367246,"Longitude":0.037382,"Action":0},{"StopId":17536,"StopCode":"R0605","PointLetter":"KV","StopName":"Baston Road","Latitude":51.367747,"Longitude":0.027664,"Action":0},{"StopId":17381,"StopCode":"R0613","PointLetter":"","StopName":"Hartfield Crescent","Latitude":51.368597,"Longitude":0.012760,"Action":0},{"StopId":17473,"StopCode":"R0612","PointLetter":"R","StopName":"Coney Hall","Latitude":51.370105,"Longitude":0.002970,"Action":0},{"StopId":15879,"StopCode":"17714","PointLetter":"L","StopName":"Addington Road / Glebe Way","Latitude":51.370534,"Longitude":-0.002126,"Action":0},{"StopId":16145,"StopCode":"17815","PointLetter":"M","StopName":"Layhams Road","Latitude":51.368912,"Longitude":-0.004596,"Action":0},{"StopId":16239,"StopCode":"BP2205","PointLetter":"","StopName":"Addington Road / Pumping Station","Latitude":51.363912,"Longitude":-0.018403,"Action":0},{"StopId":8138,"StopCode":"BP2330","PointLetter":"A","StopName":"Addington Village Interchange","Latitude":51.356362,"Longitude":-0.031987,"Action":0},{"StopId":8164,"StopCode":"33659","PointLetter":"FE","StopName":"Applegarth","Latitude":51.353271,"Longitude":-0.024148,"Action":0},{"StopId":8150,"StopCode":"33661","PointLetter":"","StopName":"The Coppins","Latitude":51.355045,"Longitude":-0.020538,"Action":0},{"StopId":8195,"StopCode":"33664","PointLetter":"","StopName":"Foxcombe","Latitude":51.356261,"Longitude":-0.021693,"Action":0},{"StopId":8120,"StopCode":"33665","PointLetter":"","StopName":"North Walk","Latitude":51.358316,"Longitude":-0.020929,"Action":0},{"StopId":8187,"StopCode":"33670","PointLetter":"","StopName":"Oakbank","Latitude":51.357715,"Longitude":-0.016746,"Action":0},{"StopId":8107,"StopCode":"33669","PointLetter":"","StopName":"Castle Hill School","Latitude":51.355785,"Longitude":-0.015335,"Action":0},{"StopId":8169,"StopCode":"33671","PointLetter":"","StopName":"Merrow Way","Latitude":51.353908,"Longitude":-0.013377,"Action":0},{"StopId":8173,"StopCode":"27754","PointLetter":"","StopName":"Frimley Close","Latitude":51.352124,"Longitude":-0.010510,"Action":0},{"StopId":8100,"StopCode":"27756","PointLetter":"","StopName":"Goldcrest Community Centre","Latitude":51.350229,"Longitude":-0.010161,"Action":0},{"StopId":8184,"StopCode":"27758","PointLetter":"","StopName":"Goldcrest Way / King Henrys Drive","Latitude":51.348374,"Longitude":-0.010543,"Action":0},{"StopId":8112,"StopCode":"W6","PointLetter":"S","StopName":"Betchworth Way","Latitude":51.347878,"Longitude":-0.017861,"Action":0},{"StopId":8124,"StopCode":"19801","PointLetter":"T","StopName":"Wolsey Crescent","Latitude":51.346189,"Longitude":-0.019039,"Action":0},{"StopId":8145,"StopCode":"19802","PointLetter":"U","StopName":"Grenville Road","Latitude":51.344398,"Longitude":-0.017350,"Action":0},{"StopId":8139,"StopCode":"25588","PointLetter":"E","StopName":"Salcot Crescent","Latitude":51.342740,"Longitude":-0.016661,"Action":0},{"StopId":16194,"StopCode":"BP2012","PointLetter":"L","StopName":"Overbury Crescent","Latitude":51.340320,"Longitude":-0.017627,"Action":0},{"StopId":16262,"StopCode":"BP2516","PointLetter":"","StopName":"Homestead Way / Overbury Crescent","Latitude":51.339065,"Longitude":-0.015771,"Action":0},{"StopId":16421,"StopCode":"BP2013","PointLetter":"","StopName":"Cleves Crescent","Latitude":51.338060,"Longitude":-0.014292,"Action":0},{"StopId":15909,"StopCode":"BP2014","PointLetter":"","StopName":"Kennelwood Crescent","Latitude":51.335053,"Longitude":-0.009813,"Action":0},{"StopId":8136,"StopCode":"27764","PointLetter":"","StopName":"Homestead Way / Milne Park","Latitude":51.335574,"Longitude":-0.005038,"Action":0}], "Routes" : [{"Id":1973,"Route":"664","From":"Charles Darwin School","Towards":"Homestead Way / Milne Park","Run":"1","IsDay":1,"encodedLevels":"PBC?FCB@ADD?AD@GA@CBD@AAD?@C@?AC?IBC?E?@B??@B@E?AC?@BE?C@@CF@ACBABAF@A?B?E@BG@AA?F@B@DBA?HA?D?CBGAAC?BE?KA?C?@@D?BD?@BCAF@B@D@C@F@AAAE?BH?B?@EA?@C@ABE@CAAD@C@D@@B?AJAC?EA@@D?@BB?A?E@C@F@B?BE?B?GBBFC@AEAB@AC@AG?ADA?I?ABA?A@B@E?A@CAFACA@D@C?AH?BAF?B@E?AC@HAC?@@G?ACA?B@D@AE@CAH?A@AAABF@B@DACBB?P","encodedPoints":"eqexHcpGi@W?a@`@aDNs@h@Tq@lFErBDpDSdGoErMSvAOpAo@dJAhAt@vPs@XoBzAs@v@eHbMaC|CeAl@U?oCtA}@x@wCvCcAv@iG`GyAvBqAtBu@pAwDdFcANk@JmC?gCk@i@YiBeAW][i@K[Ia@Ga@Ci@eAaIUi@US{@g@}@a@cFeBi@I{AO_F]gCw@c@WmB}AeAuAi@eA{BgDgBw@q@QeEe@kDMwG?}F`@kATiAGc@Q]YqAyAeA{AiG}HcBmCyDqGaCwAmBaA{DkAi@B{@T{KvDSHONWn@Y~Aq@~HU|A}AtDSTWJO@e@Ky@k@}GaEiDaGaIuNkCmDw@a@u@WiCO_B_@gGqDkAw@eBi@gb@b@yBDChE_@|KWxK@tAFfBLrA`@pKWjCmAtJCdFBlADz@^rEp@j[FfHOzFk@vFStAiArFoHv`@CxBa@fJs@zBiBfH@fARdC\\pAhB|MEf@Kl@W|@kE`IDTFx@fAfBfB`DxJdRRtAfBvGxDfN`Lxb@z@rE`AfIr@xDjBlG~EdMlCdG`A`BbGpH`BrCtBpFdEtLb@`@|AtB@b@IhA@l@LdAJl@d@|A^IFSDg@P_F]UOUSq@G?MFOPO^IhAQVGHOHO@UUy@mAAe@TcBRUJEZFtERj@c@hAyA^m@`H_OnF{KiAcGgF_QsAiCuB_CYI_@Aa@Hc@j@a@pAQt@OzA{A|GGLUNU?GIoFiLoD}I?sAFc@J[RY~BcCnFcFvBuAzEeFPMZi@AGtAiAzFmFBw@Fo@\\qBVy@l@kAnA}AhAm@l@Kn@B`Bn@HJ\\u@j@o@NGl@IhBAbADpAJhCp@fAh@I`Ao@bLChCH|F`@hGTtBz@rF`@dBrAnE|ByA~FuEbB_BpCwCxAgBtCqC@fABj@ZnBNGRBFDLPFd@C^KZk@r@^`@pC|AdADbBMp@o@\\g@tAyBzBiE`PeWz@aAlFkI^mANs@p@gGFiAAmC]iFg@uC_@qASLo@m@MS","Color":"993333","hasRunTwo":1,"startPoint":{"Latitude":51.315552,"Longitude":0.043704},"endPoint":{"Latitude":51.335671,"Longitude":-0.004902}}]}


