{"Stops" : [{"StopId":11825,"StopCode":"BP1582","PointLetter":"A","StopName":"Thamesmead Town Centre","Latitude":51.507426,"Longitude":0.109039,"Action":0},{"StopId":11718,"StopCode":"36669","PointLetter":"D","StopName":"Linton Mead Primary School","Latitude":51.507467,"Longitude":0.112788,"Action":0},{"StopId":11716,"StopCode":"36673","PointLetter":"","StopName":"Hoveton Road","Latitude":51.509346,"Longitude":0.116824,"Action":0},{"StopId":11433,"StopCode":"36674","PointLetter":"NE","StopName":"Nickelby Close","Latitude":51.509476,"Longitude":0.120044,"Action":0},{"StopId":11715,"StopCode":"36675","PointLetter":"NG","StopName":"Eastgate Close","Latitude":51.509015,"Longitude":0.126162,"Action":0},{"StopId":11678,"StopCode":"36677","PointLetter":"NH","StopName":"Lister Walk","Latitude":51.506632,"Longitude":0.126627,"Action":0},{"StopId":11677,"StopCode":"36678","PointLetter":"SE","StopName":"Poplar Place","Latitude":51.506209,"Longitude":0.121679,"Action":0},{"StopId":11861,"StopCode":"35406","PointLetter":"SJ","StopName":"Carlyle Road / Crossway","Latitude":51.503736,"Longitude":0.119230,"Action":0},{"StopId":11658,"StopCode":"34812","PointLetter":"","StopName":"Newacres Library","Latitude":51.497538,"Longitude":0.121319,"Action":0},{"StopId":11793,"StopCode":"33040","PointLetter":"B","StopName":"Harrow Manorway / Yarnton Way","Latitude":51.495228,"Longitude":0.121226,"Action":0},{"StopId":11794,"StopCode":"33041","PointLetter":"BA","StopName":"Overton Road","Latitude":51.493420,"Longitude":0.121272,"Action":0},{"StopId":11626,"StopCode":"35309","PointLetter":"D","StopName":"Harrow Manorway / Abbey Wood Station","Latitude":51.490930,"Longitude":0.122223,"Action":0},{"StopId":11566,"StopCode":"26601","PointLetter":"E","StopName":"Abbey Wood Road","Latitude":51.489437,"Longitude":0.121231,"Action":0},{"StopId":11632,"StopCode":"3964","PointLetter":"","StopName":"Lesnes Abbey","Latitude":51.490145,"Longitude":0.128279,"Action":0},{"StopId":11628,"StopCode":"6600","PointLetter":"","StopName":"Elstree Gardens","Latitude":51.490566,"Longitude":0.132851,"Action":0},{"StopId":11499,"StopCode":"6229","PointLetter":"","StopName":"Tunstock Way","Latitude":51.490429,"Longitude":0.137873,"Action":0},{"StopId":11759,"StopCode":"6231","PointLetter":"","StopName":"Kingswood Avenue","Latitude":51.490825,"Longitude":0.140859,"Action":0},{"StopId":11772,"StopCode":"6233","PointLetter":"A","StopName":"St Augustine's Road","Latitude":51.491235,"Longitude":0.144494,"Action":0},{"StopId":11774,"StopCode":"6236","PointLetter":"B","StopName":"Gilbert Road","Latitude":51.491347,"Longitude":0.147697,"Action":0},{"StopId":11382,"StopCode":"6315","PointLetter":"C","StopName":"Lower Road / Belvedere Station","Latitude":51.490558,"Longitude":0.153436,"Action":0},{"StopId":11756,"StopCode":"6239","PointLetter":"D","StopName":"Halt Robin Lane","Latitude":51.490183,"Longitude":0.156746,"Action":0},{"StopId":11775,"StopCode":"6242","PointLetter":"","StopName":"Poplar Mount","Latitude":51.490456,"Longitude":0.159971,"Action":0},{"StopId":11406,"StopCode":"6243","PointLetter":"","StopName":"Mayfield Road","Latitude":51.490135,"Longitude":0.162765,"Action":0},{"StopId":11737,"StopCode":"6247","PointLetter":"","StopName":"Lower Road / Church Manorway","Latitude":51.487943,"Longitude":0.169460,"Action":0},{"StopId":11736,"StopCode":"6249","PointLetter":"","StopName":"St Francis Road","Latitude":51.486176,"Longitude":0.171638,"Action":0},{"StopId":11777,"StopCode":"6251","PointLetter":"","StopName":"Winifred Road / The Ship","Latitude":51.484354,"Longitude":0.174835,"Action":0},{"StopId":11381,"StopCode":"6254","PointLetter":"L","StopName":"Erith Station  / West Street","Latitude":51.482516,"Longitude":0.178866,"Action":0},{"StopId":11338,"StopCode":"BP2114","PointLetter":"G","StopName":"Erith Town Centre / Cross Street","Latitude":51.480658,"Longitude":0.178677,"Action":0},{"StopId":11722,"StopCode":"33974","PointLetter":"D","StopName":"Fraser Road","Latitude":51.480544,"Longitude":0.174653,"Action":0},{"StopId":11407,"StopCode":"6260","PointLetter":"S","StopName":"Lesney Park","Latitude":51.479654,"Longitude":0.166863,"Action":0},{"StopId":11408,"StopCode":"6265","PointLetter":"T","StopName":"Carlton Road","Latitude":51.477368,"Longitude":0.163543,"Action":0},{"StopId":11732,"StopCode":"6266","PointLetter":"V","StopName":"Northumberland Park","Latitude":51.474244,"Longitude":0.162791,"Action":0},{"StopId":11731,"StopCode":"6268","PointLetter":"L","StopName":"Brook Street","Latitude":51.470632,"Longitude":0.160676,"Action":0},{"StopId":11359,"StopCode":"5176","PointLetter":"M","StopName":"Rydal Drive","Latitude":51.467620,"Longitude":0.158186,"Action":0},{"StopId":11383,"StopCode":"6272","PointLetter":"A","StopName":"Barnehurst Station","Latitude":51.465562,"Longitude":0.157110,"Action":0},{"StopId":11729,"StopCode":"6274","PointLetter":"NU","StopName":"Lyndhurst Road","Latitude":51.463319,"Longitude":0.154413,"Action":0},{"StopId":11728,"StopCode":"6276","PointLetter":"NV","StopName":"Long Lane","Latitude":51.461593,"Longitude":0.153410,"Action":0},{"StopId":11646,"StopCode":"25605","PointLetter":"NW","StopName":"Bexleyheath Bus Garage","Latitude":51.459577,"Longitude":0.152998,"Action":0},{"StopId":11523,"StopCode":"16697","PointLetter":"C","StopName":"Halcot Avenue","Latitude":51.452760,"Longitude":0.152015,"Action":0},{"StopId":11355,"StopCode":"14381","PointLetter":"D","StopName":"Broomfield Road","Latitude":51.451448,"Longitude":0.152961,"Action":0},{"StopId":11770,"StopCode":"34277","PointLetter":"E","StopName":"Gravel Hill Close","Latitude":51.448677,"Longitude":0.156933,"Action":0},{"StopId":11815,"StopCode":"14379","PointLetter":"J","StopName":"Hartford Road","Latitude":51.444823,"Longitude":0.152318,"Action":0},{"StopId":11808,"StopCode":"16696","PointLetter":"G","StopName":"Bexley Library","Latitude":51.442330,"Longitude":0.150935,"Action":0},{"StopId":12208,"StopCode":"16694","PointLetter":"E","StopName":"Bexley Station","Latitude":51.441472,"Longitude":0.147700,"Action":0},{"StopId":12233,"StopCode":"35387","PointLetter":"C","StopName":"Bexley War Memorial","Latitude":51.441566,"Longitude":0.146006,"Action":0},{"StopId":12232,"StopCode":"35389","PointLetter":"","StopName":"Woodstock Close","Latitude":51.440554,"Longitude":0.140347,"Action":0},{"StopId":12231,"StopCode":"35391","PointLetter":"","StopName":"Valentine Avenue","Latitude":51.438477,"Longitude":0.132451,"Action":0},{"StopId":12229,"StopCode":"35395","PointLetter":"C","StopName":"Carisbrooke Avenue","Latitude":51.438580,"Longitude":0.128254,"Action":0},{"StopId":12230,"StopCode":"35393","PointLetter":"D","StopName":"Crofton Avenue","Latitude":51.439183,"Longitude":0.122771,"Action":0},{"StopId":16879,"StopCode":"26566","PointLetter":"E","StopName":"Foots Cray Lane / Hurst Road","Latitude":51.438343,"Longitude":0.119020,"Action":0},{"StopId":17279,"StopCode":"26564","PointLetter":"F","StopName":"Canterbury Avenue","Latitude":51.436589,"Longitude":0.119543,"Action":0},{"StopId":18014,"StopCode":"BP1297","PointLetter":"","StopName":"Bexley Lane / Cleeve Park School","Latitude":51.429762,"Longitude":0.119126,"Action":0}], "Routes" : [{"Id":2995,"Route":"669","From":"Thamesmead Town Centre","Towards":"Bexley Lane / Cleeve Park School","Run":"1","IsDay":1,"encodedLevels":"PE?@B@BADBAB?EA?C?@E?ACA@F?@@C??A@I@?AABEAC?CA?E@A?CA@H?BAD?B@?F@CBAC@BDC@@C@@C?EBACDBC?@I@C??A@F@@?@@B@A@DADCAF@A?AD@B?B?E@A?@CBH?@?B@C@AAF@?B@C?AD?B@D?D?CA@?CAK?A?B?CB?AD@?@@BDA?FBDAI@CBF???C?AD??BAAE?BD?AG@?DBB@@E@@CB@GB@D@@A?E?C@H?A@ACAEAC@E@A?IA@AD?B@EA@AD??B@DB?AD@AAF??BAD?@DAAACB?H@BC@EBA@GA@@DCP","encodedPoints":"sakyHqdTjD}Ha@}CiA_HaCsMYWGOKm@Fw@e@oA{@k@}@aAi@}@a@{@g@sCGy@EaAHaDDi@NwKOoAIg@s@sBmAaCc@_@MW?IDMFA|D_GHSRaApCoJTgBDILBBHl@P|@B|CbAZd@f@hBN~ABfBDzNN`CHf@T|@Rp@t@rA|D~GtAxBX\\VDr@Zh@y@z@eAxBiBlEsCHyBFo@HUNQRKRArDh@`Ai@`Ba@h@?j@FxExAlDd@zB?XKZY`@UXD\\RxCl@dB?xKOtAKZa@pIkDjB?tBFpCp@BJBRAd@Yp@KHIBKC_ACqAPm@A?UEE@WBEDwFCaB]_LUwLaAcW]gNZuERsIcA}Ui@cDoAkLFgEEiGEsCc@}NBgBJsBh@kFf@kBtA_GPcBViD@{AG]JoDDa@PmLu@mMHaB~@iKBG?a@Bc@nAqFBa@@aCE_@JuEJWn@qAR{@N[^_@xCyE`@qAn@kCtAiDb@b@LFV?JGn@_AnFmJvCeHpE_KZ}AjDsJPo@dEyL`@e@z@c@F?LHDDDR?j@d@`Nf@nDD?PLHX?VIZC^c@|KWbEK~ITzFNzBr@hJrEnQnA~CxA`B`ClBv@`@bBj@rV`DtAd@rA~@xEnD|GfFt@f@rA~Ap@bAzApAv@^|Bx@hAd@rAPhA?~@\\r@`A|G~JtD|Dt@l@bCdB~Ap@dC`@jDd@tCXlFHtEa@dGM~@Hr@ClA\\lGnCbA\\pCb@t@@d@EvAo@b@i@~@aBx@{CAWpAkEZ{@b@w@X_@fDqDlBaAvCiAZ\\RNf@H|Bx@`@Zr@r@fBrCt@pBrCxL^z@|@lAd@TtEzA`Af@hGhCC|AFx@XpA\\tFq@~BCNSjBCdBNPBXd@dBtBpKBr@?pAJ~ERfDd@zDjAhFNb@xAfD`ClHJ|@\\pHT`BT|HAjAIjCQxNNzCD~HKb@Yp@{BvHEvAH~BTxA@`Cu@fN?|DBHL\\LDh@IzJ}BzLeCrCoArDaEd@YL?bAl@zC~@hBr@VPpGnFlGjJ","Color":"993333","hasRunTwo":1,"startPoint":{"Latitude":51.507627,"Longitude":0.108417},"endPoint":{"Latitude":51.428632,"Longitude":0.117496}}]}


