{"Stops" : [{"StopId":11613,"StopCode":"35920","PointLetter":"SH","StopName":"Hawksmoor School","Latitude":51.504210,"Longitude":0.111384,"Action":0},{"StopId":11719,"StopCode":"36667","PointLetter":"F","StopName":"Gallions Reach Health Centre","Latitude":51.506233,"Longitude":0.109921,"Action":0},{"StopId":11601,"StopCode":"BP1812","PointLetter":"","StopName":"Watersmeet Place","Latitude":51.504974,"Longitude":0.104920,"Action":0},{"StopId":11667,"StopCode":"BP3113","PointLetter":"","StopName":"Grasshaven Way","Latitude":51.501386,"Longitude":0.102882,"Action":0},{"StopId":11798,"StopCode":"R0386","PointLetter":"","StopName":"Belmarsh Prison","Latitude":51.497316,"Longitude":0.089569,"Action":0},{"StopId":13362,"StopCode":"34577","PointLetter":"B","StopName":"Plumstead High Street / Plumstead Stn","Latitude":51.489742,"Longitude":0.085679,"Action":0},{"StopId":13324,"StopCode":"36510","PointLetter":"WM","StopName":"Plumstead Road / Plumstead Station","Latitude":51.490346,"Longitude":0.083574,"Action":0},{"StopId":11605,"StopCode":"34579","PointLetter":"WP","StopName":"Greenwich Community College","Latitude":51.490883,"Longitude":0.080141,"Action":0},{"StopId":11812,"StopCode":"8931","PointLetter":"","StopName":"Maxey Road","Latitude":51.490869,"Longitude":0.076899,"Action":0},{"StopId":11671,"StopCode":"3681","PointLetter":"U","StopName":"Beresford Square / Woolwich Arsenal Stn","Latitude":51.491578,"Longitude":0.068807,"Action":0}], "Routes" : [{"Id":6490,"Route":"672","From":"Hawksmoor School","Towards":"Beresford Square / Woolwich Arsenal Stn","Run":"1","IsDay":1,"encodedLevels":"P@CBEB@B@B??F@GA@A??B?C@B@EB?A?C?@CC@B?AB?G?A?ADCAA@H@@@CABC?F?BD?HDD@@@DEAC??AEAC@P","encodedPoints":"chjyHovT{BYs@UaCCw@Xo@p@@JEXC@OG]p@Uj@kBlE\\fCnCzO`@bAPFJRDR?VD`@Xp@r@tAd@n@dAdAx@l@dAj@`ARBKHINGF?HDNVBThQbEp@@\\GHOFINAHBLJDNDb@NvLZ`NZlEnD`[vAjIT`@^~B|@nD^VfMtFlGfCfAl@|EnAx@@lFlBj@~@DNdBoCRc@f@uBTLh@RUjEwAg@Ml@]t@OLaB|D_BhNi@dIIxHTdKFnAZfME~@sBdR_BfL{@~Ae@d@","Color":"993333","hasRunTwo":0,"startPoint":{"Latitude":51.503546,"Longitude":0.111284},"endPoint":{"Latitude":51.492338,"Longitude":0.067592}}]}


