{"Stops" : [{"StopId":16351,"StopCode":"35414","PointLetter":"DJ","StopName":"Dagnam Park Square","Latitude":51.605520,"Longitude":0.243456,"Action":0},{"StopId":16515,"StopCode":"34137","PointLetter":"DK","StopName":"Sheffield Drive","Latitude":51.606630,"Longitude":0.242759,"Action":0},{"StopId":16406,"StopCode":"34138","PointLetter":"DL","StopName":"Settle Road","Latitude":51.608467,"Longitude":0.239817,"Action":0},{"StopId":16487,"StopCode":"35412","PointLetter":"DT","StopName":"Sedgefield Crescent","Latitude":51.609509,"Longitude":0.234712,"Action":0},{"StopId":16383,"StopCode":"27919","PointLetter":"DV","StopName":"Harkness Close","Latitude":51.609171,"Longitude":0.229294,"Action":0},{"StopId":16543,"StopCode":"27918","PointLetter":"DU","StopName":"Brookside School","Latitude":51.608688,"Longitude":0.224432,"Action":0},{"StopId":13966,"StopCode":"26511","PointLetter":"HH","StopName":"Chippenham Road","Latitude":51.608034,"Longitude":0.220948,"Action":0},{"StopId":14695,"StopCode":"26509","PointLetter":"","StopName":"Hilldene Avenue Shopping Centre","Latitude":51.607290,"Longitude":0.217980,"Action":0},{"StopId":13897,"StopCode":"26507","PointLetter":"","StopName":"Chatteris Avenue","Latitude":51.605742,"Longitude":0.213298,"Action":0},{"StopId":14880,"StopCode":"34778","PointLetter":"","StopName":"Charlbury Crescent","Latitude":51.604916,"Longitude":0.209879,"Action":0},{"StopId":16380,"StopCode":"20066","PointLetter":"","StopName":"Grange Road","Latitude":51.603178,"Longitude":0.209996,"Action":0},{"StopId":16302,"StopCode":"20068","PointLetter":"","StopName":"Myrtle Road","Latitude":51.601548,"Longitude":0.210596,"Action":0},{"StopId":16174,"StopCode":"20070","PointLetter":"","StopName":"Heaton Avenue","Latitude":51.598542,"Longitude":0.211663,"Action":0},{"StopId":14333,"StopCode":"R0308","PointLetter":"GF","StopName":"Faringdon Avenue","Latitude":51.595753,"Longitude":0.212682,"Action":0},{"StopId":14874,"StopCode":"20074","PointLetter":"GE","StopName":"Gallows Corner","Latitude":51.593736,"Longitude":0.213306,"Action":0},{"StopId":16132,"StopCode":"18469","PointLetter":"GQ","StopName":"Upper Brentwood Road","Latitude":51.591488,"Longitude":0.210887,"Action":0},{"StopId":16175,"StopCode":"20077","PointLetter":"PH","StopName":"Western Avenue","Latitude":51.589121,"Longitude":0.211494,"Action":0},{"StopId":16041,"StopCode":"20079","PointLetter":"PJ","StopName":"Belgrave Avenue","Latitude":51.586978,"Longitude":0.211159,"Action":0},{"StopId":16545,"StopCode":"20081","PointLetter":"PK","StopName":"Royal Liberty School","Latitude":51.584832,"Longitude":0.210477,"Action":0},{"StopId":15384,"StopCode":"18495","PointLetter":"PA","StopName":"Gidea Park Station","Latitude":51.581398,"Longitude":0.206125,"Action":0},{"StopId":13774,"StopCode":"18493","PointLetter":"AH","StopName":"The Drill Roundabout","Latitude":51.577432,"Longitude":0.207564,"Action":0},{"StopId":14583,"StopCode":"18491","PointLetter":"AJ","StopName":"Salisbury Road","Latitude":51.575821,"Longitude":0.206216,"Action":0},{"StopId":14540,"StopCode":"18489","PointLetter":"AK","StopName":"Cranham Road","Latitude":51.574511,"Longitude":0.203641,"Action":0},{"StopId":14093,"StopCode":"18487","PointLetter":"","StopName":"Frances Bardsley School","Latitude":51.574244,"Longitude":0.199688,"Action":0},{"StopId":14709,"StopCode":"18485","PointLetter":"","StopName":"Princes Road","Latitude":51.573136,"Longitude":0.194988,"Action":0},{"StopId":14961,"StopCode":"18483","PointLetter":"","StopName":"Albert Road","Latitude":51.572092,"Longitude":0.190695,"Action":0},{"StopId":13767,"StopCode":"18481","PointLetter":"","StopName":"South Street","Latitude":51.570844,"Longitude":0.186739,"Action":0},{"StopId":14799,"StopCode":"18029","PointLetter":"","StopName":"Brentwood Road","Latitude":51.570800,"Longitude":0.185712,"Action":0},{"StopId":3626,"StopCode":"R0681","PointLetter":"X","StopName":"Romford Station","Latitude":51.573757,"Longitude":0.183863,"Action":0}], "Routes" : [{"Id":751,"Route":"674","From":"Dagnam Park Square","Towards":"Romford Station","Run":"1","IsDay":1,"encodedLevels":"P@ADAF@BCB@?GACCBA?A?C??B@E?A@?AC?I@CCA?B?A?H?@BBB@F?BFACAB?@?E@AAD?G?@BCAG?@BAAF@ABAIAC@EA?C?AE??ACB?BC?GC@E?B@?AC?FC?B?P","encodedPoints":"}`~yH_sn@{@XaGbCk@f@wDzEmBnDg@pAq@pCaAjGiBfNS|BQdEAx@BtE~Bri@p@`Lb@lCVp@DDTDJVBX?JK`@Kn@XxEd@jFv@lEp@dDfBpI|DbQt@xChBrJLdAd@xG~H{Bdn@_PjIiBfCI~@L^@DMPUHEH?LHLNN^Bz@fChHb@fApBhDd@_AvDuG`@@dBr@zB`@xBDnHr@dACt@Ih@?VBTHTPvDbEtDxCZHdKpAFXBj@?z@q@nFPpB~@|ERWf@i@nGyF`FoF?Mp@_@NDHVEZ~BpAjFzDbC`CfA~A`AlCd@jBd@pD\\nGJlC@~BC~DPnKh@pBj@hBlCtJjAlFzAlIDfA^hGp@lEnAvEpCtJsDhIg@j@s@d@q@TO@WCSG[S_AKYDsEr@pAtJKn@ILMFK?","Color":"993333","hasRunTwo":1,"startPoint":{"Latitude":51.604791,"Longitude":0.243844},"endPoint":{"Latitude":51.574041,"Longitude":0.181585}}]}


