{"Stops" : [{"StopId":16343,"StopCode":"8079","PointLetter":"A","StopName":"St George's Road","Latitude":51.542455,"Longitude":0.026334,"Action":0},{"StopId":16176,"StopCode":"8081","PointLetter":"B","StopName":"Wyatt Road","Latitude":51.541840,"Longitude":0.023942,"Action":0},{"StopId":16177,"StopCode":"8083","PointLetter":"C","StopName":"West Ham Park","Latitude":51.539358,"Longitude":0.022924,"Action":0},{"StopId":16340,"StopCode":"8087","PointLetter":"D","StopName":"Plashet Road / Portway","Latitude":51.537283,"Longitude":0.022240,"Action":0},{"StopId":16490,"StopCode":"8089","PointLetter":"E","StopName":"Crescent Road","Latitude":51.535636,"Longitude":0.022326,"Action":0},{"StopId":16339,"StopCode":"8091","PointLetter":"R","StopName":"Terrace Road","Latitude":51.533338,"Longitude":0.022628,"Action":0},{"StopId":15706,"StopCode":"8097","PointLetter":"E","StopName":"Kennedy Close","Latitude":51.530304,"Longitude":0.022277,"Action":0},{"StopId":16329,"StopCode":"8154","PointLetter":"","StopName":"Plaistow Broadway","Latitude":51.528976,"Longitude":0.024222,"Action":0},{"StopId":16328,"StopCode":"8156","PointLetter":"AA","StopName":"Sewell Street","Latitude":51.527036,"Longitude":0.024064,"Action":0},{"StopId":16327,"StopCode":"8158","PointLetter":"AB","StopName":"Liddon Road","Latitude":51.524723,"Longitude":0.023673,"Action":0},{"StopId":16286,"StopCode":"8162","PointLetter":"AC","StopName":"Barking Road","Latitude":51.522754,"Longitude":0.022606,"Action":0},{"StopId":16325,"StopCode":"8164","PointLetter":"AD","StopName":"Esk Road","Latitude":51.522145,"Longitude":0.022954,"Action":0},{"StopId":16324,"StopCode":"8168","PointLetter":"","StopName":"Denmark Street","Latitude":51.519613,"Longitude":0.024326,"Action":0},{"StopId":16287,"StopCode":"8170","PointLetter":"","StopName":"Newham Way","Latitude":51.517942,"Longitude":0.023675,"Action":0},{"StopId":15947,"StopCode":"BP4487","PointLetter":"","StopName":"Ringlet Close","Latitude":51.515422,"Longitude":0.025351,"Action":0},{"StopId":16322,"StopCode":"8173","PointLetter":"","StopName":"Russell Road","Latitude":51.514428,"Longitude":0.025624,"Action":0},{"StopId":16321,"StopCode":"8178","PointLetter":"","StopName":"Vandome Close","Latitude":51.511861,"Longitude":0.025308,"Action":0},{"StopId":16320,"StopCode":"8180","PointLetter":"E","StopName":"Leslie Road","Latitude":51.510627,"Longitude":0.025945,"Action":0},{"StopId":16558,"StopCode":"BP728","PointLetter":"B","StopName":"Custom House Station","Latitude":51.510011,"Longitude":0.028281,"Action":0},{"StopId":16319,"StopCode":"8186","PointLetter":"K","StopName":"Prince Regent Station","Latitude":51.509975,"Longitude":0.032992,"Action":0},{"StopId":16474,"StopCode":"BP859","PointLetter":"R","StopName":"Prince Regent Bus Station","Latitude":51.509451,"Longitude":0.035188,"Action":0},{"StopId":16528,"StopCode":"FC22","PointLetter":"","StopName":"Strait Road /Stansfeld Road","Latitude":51.509376,"Longitude":0.049293,"Action":0},{"StopId":16398,"StopCode":"BP174","PointLetter":"Z","StopName":"Beckton Park Station","Latitude":51.509222,"Longitude":0.053999,"Action":0},{"StopId":16416,"StopCode":"FC20","PointLetter":"Y","StopName":"Campion Close","Latitude":51.509098,"Longitude":0.057509,"Action":0},{"StopId":15843,"StopCode":"BP4854","PointLetter":"V","StopName":"Renfrew Close","Latitude":51.508999,"Longitude":0.060041,"Action":0},{"StopId":16417,"StopCode":"FC18","PointLetter":"S","StopName":"Strait Road / East Ham Manor Way","Latitude":51.508921,"Longitude":0.062430,"Action":0},{"StopId":14854,"StopCode":"LE124","PointLetter":"M","StopName":"Cyprus Station","Latitude":51.509111,"Longitude":0.065436,"Action":0},{"StopId":13943,"StopCode":"BP235","PointLetter":"X","StopName":"Ferndale Street","Latitude":51.510646,"Longitude":0.068129,"Action":0},{"StopId":15470,"StopCode":"BP234","PointLetter":"F","StopName":"Horse Leaze","Latitude":51.511861,"Longitude":0.066598,"Action":0},{"StopId":15752,"StopCode":"BP094","PointLetter":"J","StopName":"East Ham Manor Way","Latitude":51.512096,"Longitude":0.063409,"Action":0},{"StopId":19493,"StopCode":"BP5194","PointLetter":"A","StopName":"Beckton Bus Station","Latitude":51.514068,"Longitude":0.059722,"Action":0}], "Routes" : [{"Id":7687,"Route":"678","From":"St George's Road","Towards":"Beckton Bus Station","Run":"1","IsDay":1,"encodedLevels":"PB?D?@@CB@G??@D@D???ED?C?G?G@AC?EBDF@ABAE@C@BE@C@?B@EBBDAC@EB?J@D@B@?B?C?D@?@C@AB?D@C@D?CB@@B@B?F@BC??AF@D@?C??H@BC@?DA?B@D??DABE@BP","encodedPoints":"g|qyHsbDtBIJJHVDV?^EbIH`DFhAJPVLb@@nBEdF@bDDhCj@rGjB~BMzFe@zIo@l@CdAtBtBI~@?~@f@lD~AvBgIvA}Fh@NtALdId@h@ItGe@nA^jIlGnEd@JAr@aAjD}C~CoBz@U`AGl@Bl@P~FzBrBPPIZa@Fi@A_ABcALYj@i@vA@hIaBrCSvAbAbAXtBDz@IvDs@rCuAtDaBGgYDaJP_HNwBJDF@JEDEHYHkA`@oK@eDG_CEs@GyKFGRcMPgCDwIFmGIaBIUa@We@MF{@b@aDd@ga@EgBGWEaC\\wABe@Z_\\L{O[EMOIi@FeADmFPoFAcDkCGMGQMu@gBMQOM_CsASIIDUM]r@_@x@q@fCMl@_@jDIhCGdG]xEG`@KZkCnGILi@f@aCfA_AFEl@@`@j@bD","Color":"993333","hasRunTwo":1,"startPoint":{"Latitude":51.542601,"Longitude":0.026186},"endPoint":{"Latitude":51.514054,"Longitude":0.059466}}]}


