{"Stops" : [{"StopId":1697,"StopCode":"9945","PointLetter":"FL","StopName":"Colney Hatch Lane","Latitude":51.612534,"Longitude":-0.159167,"Action":0},{"StopId":4132,"StopCode":"9941","PointLetter":"FP","StopName":"Summers Lane","Latitude":51.611593,"Longitude":-0.162744,"Action":0},{"StopId":4153,"StopCode":"9939","PointLetter":"FQ","StopName":"Crescent Way","Latitude":51.611393,"Longitude":-0.165510,"Action":0},{"StopId":4106,"StopCode":"9937","PointLetter":"FR","StopName":"Woodhouse College","Latitude":51.611107,"Longitude":-0.167934,"Action":0},{"StopId":4143,"StopCode":"9935","PointLetter":"G","StopName":"Churchfield Avenue","Latitude":51.611828,"Longitude":-0.172628,"Action":0},{"StopId":4170,"StopCode":"9933","PointLetter":"H","StopName":"North Finchley High Road","Latitude":51.612322,"Longitude":-0.174948,"Action":0},{"StopId":2323,"StopCode":"BP3224","PointLetter":"T","StopName":"Kingsway / North Finchley","Latitude":51.612406,"Longitude":-0.176273,"Action":0},{"StopId":1398,"StopCode":"6114","PointLetter":"Q","StopName":"Christchurch Avenue","Latitude":51.609995,"Longitude":-0.180861,"Action":0},{"StopId":1346,"StopCode":"6112","PointLetter":"LL","StopName":"Granville Road","Latitude":51.609036,"Longitude":-0.182171,"Action":0},{"StopId":1457,"StopCode":"6108","PointLetter":"MM","StopName":"Victoria Park","Latitude":51.606779,"Longitude":-0.185683,"Action":0},{"StopId":1324,"StopCode":"2758","PointLetter":"B","StopName":"Long Lane","Latitude":51.604139,"Longitude":-0.189442,"Action":0},{"StopId":1292,"StopCode":"2760","PointLetter":"D","StopName":"Finchley Central Station","Latitude":51.602259,"Longitude":-0.192275,"Action":0},{"StopId":1480,"StopCode":"15677","PointLetter":"H","StopName":"Hendon Lane","Latitude":51.599463,"Longitude":-0.195822,"Action":0},{"StopId":1278,"StopCode":"2297","PointLetter":"S","StopName":"East End Road","Latitude":51.597912,"Longitude":-0.197313,"Action":0},{"StopId":1283,"StopCode":"BP2834","PointLetter":"L","StopName":"Gravel Hill","Latitude":51.597690,"Longitude":-0.198665,"Action":0},{"StopId":8853,"StopCode":"16497","PointLetter":"M","StopName":"St Mary's Avenue","Latitude":51.597330,"Longitude":-0.201581,"Action":0},{"StopId":8859,"StopCode":"16495","PointLetter":"N","StopName":"Arden Road","Latitude":51.594966,"Longitude":-0.205139,"Action":0},{"StopId":8855,"StopCode":"16493","PointLetter":"","StopName":"Crooked Usage","Latitude":51.593267,"Longitude":-0.208123,"Action":0},{"StopId":8843,"StopCode":"BP2833","PointLetter":"","StopName":"Broughton Avenue","Latitude":51.592003,"Longitude":-0.210194,"Action":0},{"StopId":8844,"StopCode":"16492","PointLetter":"","StopName":"Great North Way","Latitude":51.590540,"Longitude":-0.213297,"Action":0},{"StopId":8850,"StopCode":"16489","PointLetter":"","StopName":"Alexandra Road","Latitude":51.589795,"Longitude":-0.216373,"Action":0},{"StopId":2361,"StopCode":"16487","PointLetter":"T","StopName":"The Quadrant","Latitude":51.589541,"Longitude":-0.220901,"Action":0},{"StopId":8845,"StopCode":"15927","PointLetter":"R","StopName":"Church End","Latitude":51.589947,"Longitude":-0.225158,"Action":0},{"StopId":8857,"StopCode":"15929","PointLetter":"P","StopName":"Hendon Town Hall","Latitude":51.588191,"Longitude":-0.228604,"Action":0},{"StopId":8863,"StopCode":"15951","PointLetter":"N","StopName":"Watford Way","Latitude":51.586541,"Longitude":-0.230069,"Action":0},{"StopId":8861,"StopCode":"34454","PointLetter":"K","StopName":"Edgeworth Avenue","Latitude":51.585554,"Longitude":-0.231435,"Action":0},{"StopId":8866,"StopCode":"15933","PointLetter":"","StopName":"Audley Road","Latitude":51.583124,"Longitude":-0.233651,"Action":0},{"StopId":2337,"StopCode":"17580","PointLetter":"HE","StopName":"Hendon Station","Latitude":51.579996,"Longitude":-0.237987,"Action":0},{"StopId":5511,"StopCode":"BP1693","PointLetter":"HL","StopName":"West Hendon Broadway","Latitude":51.578226,"Longitude":-0.240437,"Action":0},{"StopId":5312,"StopCode":"6052","PointLetter":"HM","StopName":"West Hendon Broadway / Herbert Road","Latitude":51.579250,"Longitude":-0.241581,"Action":0},{"StopId":5305,"StopCode":"6056","PointLetter":"HP","StopName":"Hendon Magistrates Court","Latitude":51.581986,"Longitude":-0.245344,"Action":0},{"StopId":5390,"StopCode":"11136","PointLetter":"HS","StopName":"Edgware Road / The Hyde","Latitude":51.584104,"Longitude":-0.248698,"Action":0},{"StopId":5386,"StopCode":"34606","PointLetter":"E","StopName":"Springfield Gardens","Latitude":51.582611,"Longitude":-0.252927,"Action":0},{"StopId":5428,"StopCode":"15936","PointLetter":"F","StopName":"Townsend Lane","Latitude":51.582213,"Longitude":-0.257590,"Action":0},{"StopId":8849,"StopCode":"17170","PointLetter":"H","StopName":"Church Lane","Latitude":51.583031,"Longitude":-0.263015,"Action":0},{"StopId":2336,"StopCode":"17171","PointLetter":"J","StopName":"Slough Lane","Latitude":51.584412,"Longitude":-0.267033,"Action":0},{"StopId":8858,"StopCode":"17173","PointLetter":"M","StopName":"Valley Drive","Latitude":51.585936,"Longitude":-0.274683,"Action":0},{"StopId":2376,"StopCode":"14853","PointLetter":"B","StopName":"Kingsbury Station","Latitude":51.584844,"Longitude":-0.279301,"Action":0},{"StopId":2366,"StopCode":"36759","PointLetter":"E","StopName":"Kingsbury Circle / The Mall","Latitude":51.584084,"Longitude":-0.282721,"Action":0},{"StopId":2368,"StopCode":"BP3564","PointLetter":"G","StopName":"Lyndsey Park","Latitude":51.582539,"Longitude":-0.284685,"Action":0},{"StopId":13011,"StopCode":"OC608","PointLetter":"","StopName":"Jewish Free School","Latitude":51.581204,"Longitude":-0.282498,"Action":0}], "Routes" : [{"Id":4520,"Route":"683","From":"Colney Hatch Lane","Towards":"Jewish Free School","Run":"1","IsDay":1,"encodedLevels":"P@BD@@@CA?F@?B@?BD?@@?C?H@?C?BABEA?DB@HAABEA?F?BAC@AC?AB@@B?D?BG?@A@@C@@CAG?A?BB@D@D?ABADC?AD?C@CIC?BA?H@??CBEAAG?AA?ACBCCB?G@B?AD?@BA@B?FB@GBEAE@DP","encodedPoints":"sr_zH|`^\\v@hBhGx@zENzBAb@TvEt@hWn@|CNfA?^?r@MfBMz@}@hEqAjIc@vBaApIKnD@d@Ih@ElC?bBNt@Tt@dHdKdGjJvDdGbAbBxKlSvEvH~ApBxJfQfInLpFlHvAdB~E`FhDbCzAx@UDa@`@qDzDMl@CXVv@hAbEpBxEZh@`BtFjA`Cj@r@hB`BxCjEf@~ARv@x@lBd@z@d@h@jAfBzC~FhE|IfD|JfB|F`A`GDd@DlB?nFXtIN|@LpDOhD_AbKGzAE~Dh@tQNVXVdAf@lAd@zDnC\\`@pGfFd@t@xFnKVRJN|EtB|AdArCnCtDfEfAfCzDlIl@z@~CnDNJ`@HfDrAt@|AmItJqDpF}H|LiFtG_D|EgA|ANf@v@lEJ~@lBfK~CvHPnANjCX`UInDIdAYtBs@zDK|@Q`D{@nHiE|No@rEoFha@}@|IElAA~CN|Bh@tDLj@dBtFh@~CHzAJxC?x@JvAPZN|@IbAI\\tJhNxElFb@\\ReBY_N`DSDMCaAGK_DZ","Color":"993333","hasRunTwo":1,"startPoint":{"Latitude":51.612741,"Longitude":-0.159023},"endPoint":{"Latitude":51.581607,"Longitude":-0.282534}}]}


