{"Stops" : [{"StopId":7335,"StopCode":"13339","PointLetter":"Y","StopName":"St Julian's Farm Road","Latitude":51.430154,"Longitude":-0.104388,"Action":0},{"StopId":6895,"StopCode":"26299","PointLetter":"W","StopName":"West Norwood Station","Latitude":51.432359,"Longitude":-0.103951,"Action":0},{"StopId":6984,"StopCode":"26301","PointLetter":"N","StopName":"Norwood Road / Robson Road","Latitude":51.434075,"Longitude":-0.103823,"Action":0},{"StopId":6892,"StopCode":"26402","PointLetter":"K","StopName":"Lancaster Avenue","Latitude":51.436766,"Longitude":-0.105064,"Action":0},{"StopId":7328,"StopCode":"35303","PointLetter":"E","StopName":"Tulse Hill Station","Latitude":51.440269,"Longitude":-0.107552,"Action":0},{"StopId":8743,"StopCode":"13260","PointLetter":"B","StopName":"Thurlow Park Road","Latitude":51.442119,"Longitude":-0.105763,"Action":0},{"StopId":8742,"StopCode":"13258","PointLetter":"","StopName":"Deronda Road","Latitude":51.444481,"Longitude":-0.105003,"Action":0},{"StopId":10774,"StopCode":"26403","PointLetter":"Q","StopName":"Brockwell Park Gardens","Latitude":51.446574,"Longitude":-0.104845,"Action":0},{"StopId":8741,"StopCode":"13255","PointLetter":"A","StopName":"Rosendale Road","Latitude":51.449087,"Longitude":-0.101747,"Action":0},{"StopId":21134,"StopCode":"BP5534","PointLetter":"H","StopName":"Brockwell Park","Latitude":51.451542,"Longitude":-0.101214,"Action":0},{"StopId":8810,"StopCode":"437","PointLetter":"L","StopName":"Herne Hill Station","Latitude":51.452536,"Longitude":-0.103144,"Action":0},{"StopId":8842,"StopCode":"13250","PointLetter":"S","StopName":"Brockwell Lido","Latitude":51.453700,"Longitude":-0.106766,"Action":0},{"StopId":8744,"StopCode":"3038","PointLetter":"T","StopName":"Chaucer Road / Effra Parade","Latitude":51.455267,"Longitude":-0.110242,"Action":0},{"StopId":8672,"StopCode":"26342","PointLetter":"V","StopName":"Brixton Water Lane","Latitude":51.455216,"Longitude":-0.112619,"Action":0},{"StopId":7108,"StopCode":"13246","PointLetter":"N","StopName":"Morval Road","Latitude":51.456611,"Longitude":-0.114376,"Action":0},{"StopId":6808,"StopCode":"BP4246","PointLetter":"P","StopName":"St Matthews Estate","Latitude":51.458438,"Longitude":-0.115034,"Action":0},{"StopId":7186,"StopCode":"29249","PointLetter":"W","StopName":"Lambeth Town Hall","Latitude":51.460152,"Longitude":-0.116518,"Action":0},{"StopId":8547,"StopCode":"240","PointLetter":"V","StopName":"Lambeth Town Hall","Latitude":51.460936,"Longitude":-0.116616,"Action":0},{"StopId":8357,"StopCode":"12833","PointLetter":"B","StopName":"Belvedere Place","Latitude":51.459996,"Longitude":-0.120210,"Action":0},{"StopId":8540,"StopCode":"12831","PointLetter":"C","StopName":"Solon Road","Latitude":51.459517,"Longitude":-0.124563,"Action":0},{"StopId":7270,"StopCode":"12766","PointLetter":"D","StopName":"Bedford Road","Latitude":51.459653,"Longitude":-0.129711,"Action":0},{"StopId":6807,"StopCode":"1089","PointLetter":"F","StopName":"Park Hill","Latitude":51.459568,"Longitude":-0.133975,"Action":0},{"StopId":8262,"StopCode":"3715","PointLetter":"Z","StopName":"Clapham Common Station","Latitude":51.460488,"Longitude":-0.139782,"Action":0},{"StopId":7150,"StopCode":"3247","PointLetter":"J","StopName":"Elms Road / Windmill on the Common","Latitude":51.456586,"Longitude":-0.143827,"Action":0},{"StopId":6870,"StopCode":"2164","PointLetter":"SE","StopName":"Lynette Avenue","Latitude":51.454797,"Longitude":-0.145555,"Action":0},{"StopId":8301,"StopCode":"1088","PointLetter":"SA","StopName":"Clapham South Station","Latitude":51.452884,"Longitude":-0.148540,"Action":0},{"StopId":8250,"StopCode":"14390","PointLetter":"ST","StopName":"Bracken Avenue","Latitude":51.451409,"Longitude":-0.153695,"Action":0},{"StopId":8356,"StopCode":"12749","PointLetter":"","StopName":"Ramsden Road","Latitude":51.450494,"Longitude":-0.156682,"Action":0},{"StopId":8478,"StopCode":"12853","PointLetter":"","StopName":"Rusham Road","Latitude":51.449516,"Longitude":-0.160262,"Action":0},{"StopId":8358,"StopCode":"12851","PointLetter":"L","StopName":"Ravenslea Road","Latitude":51.448618,"Longitude":-0.162658,"Action":0},{"StopId":8235,"StopCode":"2314","PointLetter":"B","StopName":"Wandsworth Common Station","Latitude":51.446235,"Longitude":-0.165503,"Action":0},{"StopId":8355,"StopCode":"12748","PointLetter":"E","StopName":"Bellevue Road / Trinity Road","Latitude":51.444004,"Longitude":-0.167736,"Action":0},{"StopId":8554,"StopCode":"12746","PointLetter":"F","StopName":"Marham Gardens","Latitude":51.441620,"Longitude":-0.171760,"Action":0},{"StopId":8481,"StopCode":"12744","PointLetter":"","StopName":"Tilehurst Road","Latitude":51.440624,"Longitude":-0.174793,"Action":0},{"StopId":8483,"StopCode":"12742","PointLetter":"","StopName":"Openview","Latitude":51.439659,"Longitude":-0.177465,"Action":0},{"StopId":8485,"StopCode":"12740","PointLetter":"SX","StopName":"Burntwood School / Swaby Road","Latitude":51.438464,"Longitude":-0.179886,"Action":0}], "Routes" : [{"Id":3563,"Route":"690","From":"St Julian's Farm Road","Towards":"Burntwood School / Swaby Road","Run":"1","IsDay":1,"encodedLevels":"PBADB?FAAD?BA?F?BBAH@BE?A?@BA?F@DAB@CBF@AAB@EDBI?BD?ABD?B@@EAAG?@@AE?EACBJ@A?BAEBABD?CA?GAB?BAHAAA?DA?A?B@?G?A@E?A?B@EA@C?FD??@DBBF?B?AC@ABAP","encodedPoints":"o{{xHbkSiGMyA_@wIcAqDD{FbAe@JaBv@mHxEaAb@_Bb@aARmEj@a@EGES^KVYfH]rCKFa@EwB{@Ka@C_@Dc@Lc@f@mCH{@Ag@IWGK{HoEUIcCa@yCUeADuC`@iCGeAa@[Qi@o@kCqEiBcC}DsEq@i@cEcDiBMgBTYNcA|@iCjDCz@Kx@_AfFaE|QkBvGm@fBuB~E}@bBKd@Ct@~@xNCdA{@X_HnBUB_J`Co@\\ObAkAdFS?eEsBuAWIVAXTxAnBhKZpBvAhKV~D^tJ]hMEpHLbMLfDLjGf@xCTd@J\\I^eB|A]|@kDhHiCzDsBvD|CbFNt@XHd@z@rF`JbCdCf@\\xGjFnFdFlKpJLTjAlAlC~CAjAHjHZjMDZF\\b@jA\\x@p@nAf@h@jDzEj@dF~BpMhBdLd@lBjChJtB~F^^|@t@hFhF`LhLjDhE~@zCvEtGf@fAXz@|DjPlCrLbDjLb@fAlA~BZRxAtDZzA","Color":"993333","hasRunTwo":1,"startPoint":{"Latitude":51.429841,"Longitude":-0.104338},"endPoint":{"Latitude":51.438128,"Longitude":-0.180800}}]}


