{"Stops" : [{"StopId":2787,"StopCode":"9796","PointLetter":"C","StopName":"Tudor Drive","Latitude":51.429621,"Longitude":-0.306919,"Action":0},{"StopId":2817,"StopCode":"14850","PointLetter":"D","StopName":"Tiffin Girls School","Latitude":51.425080,"Longitude":-0.304412,"Action":0},{"StopId":2824,"StopCode":"3795","PointLetter":"E","StopName":"Durlston Road","Latitude":51.422703,"Longitude":-0.302918,"Action":0},{"StopId":2971,"StopCode":"15717","PointLetter":"","StopName":"Latchmere Road","Latitude":51.420669,"Longitude":-0.302188,"Action":0},{"StopId":19687,"StopCode":"BP5198","PointLetter":"","StopName":"Windsor Road","Latitude":51.418249,"Longitude":-0.301515,"Action":0},{"StopId":2732,"StopCode":"1800","PointLetter":"","StopName":"Kings Road","Latitude":51.416212,"Longitude":-0.301202,"Action":0},{"StopId":2895,"StopCode":"BP491","PointLetter":"V","StopName":"Kingston Station","Latitude":51.413558,"Longitude":-0.300495,"Action":0},{"StopId":2191,"StopCode":"BP1085","PointLetter":"A3","StopName":"Cromwell Road Bus Station","Latitude":51.412367,"Longitude":-0.298354,"Action":0},{"StopId":2186,"StopCode":"R0702","PointLetter":"D2","StopName":"Eden Street","Latitude":51.410025,"Longitude":-0.302409,"Action":0},{"StopId":2170,"StopCode":"BP492","PointLetter":"F","StopName":"Brook Street","Latitude":51.408325,"Longitude":-0.303652,"Action":0},{"StopId":2265,"StopCode":"12900","PointLetter":"UA","StopName":"Kingston University / County Hall","Latitude":51.404258,"Longitude":-0.304118,"Action":0},{"StopId":2255,"StopCode":"4486","PointLetter":"B","StopName":"Surbiton Crescent","Latitude":51.400687,"Longitude":-0.304034,"Action":0},{"StopId":2177,"StopCode":"27354","PointLetter":"C","StopName":"Maple Road","Latitude":51.398996,"Longitude":-0.304658,"Action":0},{"StopId":2139,"StopCode":"19590","PointLetter":"NH","StopName":"The Crescent","Latitude":51.395669,"Longitude":-0.304019,"Action":0},{"StopId":2215,"StopCode":"27532","PointLetter":"NK","StopName":"Surbiton Station","Latitude":51.393550,"Longitude":-0.304255,"Action":0},{"StopId":2138,"StopCode":"25135","PointLetter":"NL","StopName":"St Mark's Church","Latitude":51.394959,"Longitude":-0.300365,"Action":0},{"StopId":4065,"StopCode":"BP3559","PointLetter":"","StopName":"Lamberts Road / Hollyfield School","Latitude":51.395482,"Longitude":-0.297974,"Action":0}], "Routes" : [{"Id":4929,"Route":"691","From":"Tudor Drive","Towards":"Lamberts Road / Hollyfield School","Run":"1","IsDay":1,"encodedLevels":"PABE?@B?D@?@F?BAC??CG?A?CA?H@B@E?BCCE@BB@H??CA?ABAAB??E?@@E?B@D?B@E@@C@EAH?ADA?AP","encodedPoints":"_}{xHj~z@tAAjIs@xAm@b@WhC}BtGkFjBeAvGcE^SrBi@\\E|H_CzD_AdCi@pGs@bIg@pDo@x@UbHsAxFNFQ@WB_OBeFXq@LOFAT@zDz@b@ZR^Tr@DXR~SgAJJpDPj@PRhFtE`@b@bAbB~AEv@EtCEp@Vh@G^Av@FjEp@`BBrH`Ad@BhFFr@DDERGt@}@lB_BJj@ZdAd@x@VVZTXLt@Lx@@b@C|A]VQt@m@vAiBtVtAnEFKu@I[qHeTk@oC]wCw@aIg@{B","Color":"993333","hasRunTwo":1,"startPoint":{"Latitude":51.430084,"Longitude":-0.307095},"endPoint":{"Latitude":51.395728,"Longitude":-0.296821}}]}


