{"Stops" : [{"StopId":3595,"StopCode":"OC11","PointLetter":"","StopName":"Dame Alice Owens School","Latitude":51.691537,"Longitude":-0.207126,"Action":0},{"StopId":3609,"StopCode":"OC13","PointLetter":"","StopName":"Baker Street","Latitude":51.690368,"Longitude":-0.199431,"Action":0},{"StopId":3664,"StopCode":"OC14","PointLetter":"","StopName":"Mutton Lane","Latitude":51.694764,"Longitude":-0.194091,"Action":0},{"StopId":1367,"StopCode":"OC05","PointLetter":"D","StopName":"Potters Bar Station","Latitude":51.697488,"Longitude":-0.191697,"Action":0},{"StopId":3607,"StopCode":"OC16","PointLetter":"","StopName":"Potters Bar Tesco","Latitude":51.692896,"Longitude":-0.182055,"Action":0},{"StopId":3712,"StopCode":"OC17","PointLetter":"","StopName":"Potters Bar Lion","Latitude":51.691609,"Longitude":-0.177303,"Action":0},{"StopId":1489,"StopCode":"OC38","PointLetter":"","StopName":"Park Avenue","Latitude":51.688221,"Longitude":-0.172838,"Action":0},{"StopId":1435,"StopCode":"OC39","PointLetter":"","StopName":"Stagg Hill","Latitude":51.684533,"Longitude":-0.169254,"Action":0},{"StopId":1375,"StopCode":"16924","PointLetter":"","StopName":"Slopers Pond Farm","Latitude":51.675301,"Longitude":-0.162597,"Action":0},{"StopId":1491,"StopCode":"16922","PointLetter":"","StopName":"Waggon Road","Latitude":51.671048,"Longitude":-0.160324,"Action":0},{"StopId":1288,"StopCode":"16919","PointLetter":"B","StopName":"Beech Hill","Latitude":51.667970,"Longitude":-0.157875,"Action":0},{"StopId":1436,"StopCode":"16917","PointLetter":"","StopName":"Green Oak Place","Latitude":51.661754,"Longitude":-0.154310,"Action":0},{"StopId":1426,"StopCode":"19278","PointLetter":"","StopName":"Coombehurst Close","Latitude":51.658964,"Longitude":-0.153570,"Action":0},{"StopId":1490,"StopCode":"16915","PointLetter":"","StopName":"Trent Country Park","Latitude":51.654523,"Longitude":-0.151929,"Action":0},{"StopId":1507,"StopCode":"17763","PointLetter":"B","StopName":"Cockfosters Station","Latitude":51.651521,"Longitude":-0.149738,"Action":0},{"StopId":1408,"StopCode":"17765","PointLetter":"D","StopName":"Freston Gardens","Latitude":51.647280,"Longitude":-0.147077,"Action":0},{"StopId":1342,"StopCode":"17766","PointLetter":"J","StopName":"Bramley Road","Latitude":51.644383,"Longitude":-0.145851,"Action":0},{"StopId":1365,"StopCode":"17769","PointLetter":"P","StopName":"Cat Hill Campus","Latitude":51.640629,"Longitude":-0.143330,"Action":0},{"StopId":1394,"StopCode":"19263","PointLetter":"Q","StopName":"Monkfrith Way","Latitude":51.638945,"Longitude":-0.141448,"Action":0},{"StopId":1485,"StopCode":"17771","PointLetter":"R","StopName":"Avenue Road","Latitude":51.636182,"Longitude":-0.137341,"Action":0},{"StopId":1285,"StopCode":"19261","PointLetter":"K","StopName":"Southgate Asda","Latitude":51.634712,"Longitude":-0.134295,"Action":0},{"StopId":1260,"StopCode":"27769","PointLetter":"L","StopName":"Southgate Police Station","Latitude":51.633240,"Longitude":-0.130468,"Action":0},{"StopId":1433,"StopCode":"70361","PointLetter":"B","StopName":"Southgate Station","Latitude":51.632184,"Longitude":-0.127997,"Action":0},{"StopId":1471,"StopCode":"16776","PointLetter":"J","StopName":"St Thomas Road","Latitude":51.634543,"Longitude":-0.122510,"Action":0},{"StopId":1352,"StopCode":"16774","PointLetter":"","StopName":"Queen Elizabeth's Drive","Latitude":51.635895,"Longitude":-0.119376,"Action":0},{"StopId":1312,"StopCode":"16772","PointLetter":"","StopName":"Park Gate","Latitude":51.636935,"Longitude":-0.115793,"Action":0},{"StopId":1282,"StopCode":"16770","PointLetter":"","StopName":"Church Hill","Latitude":51.638255,"Longitude":-0.111229,"Action":0},{"StopId":1410,"StopCode":"20268","PointLetter":"","StopName":"Eversley Mount","Latitude":51.641663,"Longitude":-0.111738,"Action":0},{"StopId":1499,"StopCode":"20272","PointLetter":"","StopName":"Eversley Park Road","Latitude":51.643803,"Longitude":-0.108931,"Action":0},{"StopId":1311,"StopCode":"20274","PointLetter":"","StopName":"Bazile Road","Latitude":51.641591,"Longitude":-0.102809,"Action":0},{"StopId":1306,"StopCode":"20276","PointLetter":"","StopName":"Hadley Way","Latitude":51.640919,"Longitude":-0.100741,"Action":0},{"StopId":1360,"StopCode":"20278","PointLetter":"Z","StopName":"Old Park Ridings","Latitude":51.639684,"Longitude":-0.096717,"Action":0},{"StopId":15939,"StopCode":"35520","PointLetter":"","StopName":"Green Dragon Lane","Latitude":51.635592,"Longitude":-0.091672,"Action":0}], "Routes" : [{"Id":8690,"Route":"692","From":"Dame Alice Owens School","Towards":"Green Dragon Lane","Run":"1","IsDay":1,"encodedLevels":"P?ABAE@BG@BAH@?CAAA@@EAD?B?C?AH@A@DAGADA?A@DA?A@E@??C?BG?@ACC?CID?A?@C?EAB@BC@E@AE@C@CAF@AACBD?BEA@DA?CAC?@BD?FBD@C?I@A@@DAD@BDAHC?A?BD@A?AC?A@E?CA@@G?@B@F@@H@@@D??BC@@FBCFC@A@P","encodedPoints":"aaozHxig@NVXp@b@tBr@vARJb@RdEv@lF`@\\a@n@iAfCiIjEkL}@kAsJcOo@iAwEkG}@s@iFwGeIwKk@}@gFyGkG_GuFsEEJGn@a@h@OHEAIOEa@DYJMRS^KdG~EvDhCr@eC|CaORsBA{@Gw@AiCFc@Pk@d@{@jAkBZy@Hk@Fu@JcGB_ERoJ~@}NNkBl@gDDMTa@dEoGnOoTzDaHLqAXiBzEwGlA_AN@THPLLTjAr@F?n@W~B_B|@eA`AwAxAiChD}DpGgFv@g@`CeArk@yTxDgBrIoEhBgApHeHpAcAlEaDlHcEf@SzA[zAK`Cs@pGmD|EoA|@I~Fy@tXiG~@_@~ZeSjJ}FvCkAtGkBdCy@\\o@rAmALJLVNHl@Bd@Q~HcEvIgFxBmB`JmKlHeJr@sAzAiDbBkEjAsDzD}Jl@mAlE}KtCkR^qETd@HDj@Cd@aAB[Wk@SAUDIFQT[I?Sm@wBGc@IyAo@wDqGyQ_@aA{CcJo@aCuC{Kc@oBWqCsBuLgAiFqBmLw@VaARiI~AiBZqFh@oBeCeFwH?GLIH_@vDyILg@t@cD~DeSlCaMtD}LZiBn@mFdB{KfCaFfD_EtE_LZUD\\HLj@f@pCvD","Color":"993333","hasRunTwo":0,"startPoint":{"Latitude":51.691858,"Longitude":-0.206528},"endPoint":{"Latitude":51.635426,"Longitude":-0.092108}}]}


