{"Stops" : [{"StopId":637,"StopCode":"33346","PointLetter":"N","StopName":"Shoreditch High Street Station","Latitude":51.524991,"Longitude":-0.077271,"Action":0},{"StopId":629,"StopCode":"20803","PointLetter":"D","StopName":"Commercial Street / Worship Street","Latitude":51.521930,"Longitude":-0.078120,"Action":0},{"StopId":635,"StopCode":"2113","PointLetter":"J","StopName":"Primrose Street","Latitude":51.519785,"Longitude":-0.078946,"Action":0},{"StopId":704,"StopCode":"2116","PointLetter":"L","StopName":"Liverpool Street Station","Latitude":51.517886,"Longitude":-0.079934,"Action":0},{"StopId":3147,"StopCode":"8572","PointLetter":"M","StopName":"Houndsditch","Latitude":51.516039,"Longitude":-0.079738,"Action":0},{"StopId":781,"StopCode":"34190","PointLetter":"B","StopName":"St Botolph Street","Latitude":51.514947,"Longitude":-0.075128,"Action":0},{"StopId":790,"StopCode":"8583","PointLetter":"H","StopName":"Aldgate Bus Station","Latitude":51.513284,"Longitude":-0.075703,"Action":0},{"StopId":3146,"StopCode":"8585","PointLetter":"K","StopName":"Crosswall","Latitude":51.512083,"Longitude":-0.075379,"Action":0},{"StopId":3230,"StopCode":"4829","PointLetter":"TE","StopName":"Tower Hill / Tower Gateway Station","Latitude":51.509823,"Longitude":-0.073038,"Action":0},{"StopId":3135,"StopCode":"BP3692","PointLetter":"TL","StopName":"Tower Of London","Latitude":51.507879,"Longitude":-0.074057,"Action":0},{"StopId":3203,"StopCode":"651","PointLetter":"P","StopName":"Tower Bridge / City Hall","Latitude":51.503275,"Longitude":-0.076773,"Action":0},{"StopId":3216,"StopCode":"34232","PointLetter":"C","StopName":"Druid Street","Latitude":51.500772,"Longitude":-0.078219,"Action":0},{"StopId":3162,"StopCode":"2581","PointLetter":"H","StopName":"Abbey Street","Latitude":51.498202,"Longitude":-0.079436,"Action":0},{"StopId":3012,"StopCode":"1206","PointLetter":"N","StopName":"Griggs Place","Latitude":51.496441,"Longitude":-0.080648,"Action":0},{"StopId":3254,"StopCode":"13644","PointLetter":"P","StopName":"Fendall Street","Latitude":51.495682,"Longitude":-0.078217,"Action":0},{"StopId":3024,"StopCode":"1130","PointLetter":"Q","StopName":"Spa Road","Latitude":51.494821,"Longitude":-0.076164,"Action":0},{"StopId":3125,"StopCode":"13647","PointLetter":"R","StopName":"Alscot Road","Latitude":51.493692,"Longitude":-0.074238,"Action":0},{"StopId":3138,"StopCode":"13666","PointLetter":"S","StopName":"Longfield Estate","Latitude":51.492497,"Longitude":-0.074317,"Action":0},{"StopId":3200,"StopCode":"BP963","PointLetter":"","StopName":"Lynton Road","Latitude":51.490882,"Longitude":-0.075653,"Action":0},{"StopId":3066,"StopCode":"BP1072","PointLetter":"SD","StopName":"Humphrey Street","Latitude":51.488284,"Longitude":-0.075690,"Action":0},{"StopId":3015,"StopCode":"1171","PointLetter":"EE","StopName":"Trafalgar Avenue","Latitude":51.486509,"Longitude":-0.072769,"Action":0},{"StopId":3149,"StopCode":"448","PointLetter":"EF","StopName":"Malt Street","Latitude":51.485387,"Longitude":-0.069604,"Action":0},{"StopId":3097,"StopCode":"395","PointLetter":"SF","StopName":"Peckham Park Road / Old Kent Road","Latitude":51.482631,"Longitude":-0.065486,"Action":0},{"StopId":3139,"StopCode":"13778","PointLetter":"S","StopName":"Bird In Bush Road","Latitude":51.480205,"Longitude":-0.067303,"Action":0},{"StopId":3206,"StopCode":"9475","PointLetter":"T","StopName":"Commercial Way","Latitude":51.477905,"Longitude":-0.068494,"Action":0},{"StopId":3041,"StopCode":"13773","PointLetter":"N","StopName":"Bonar Road","Latitude":51.476438,"Longitude":-0.069521,"Action":0},{"StopId":3227,"StopCode":"446","PointLetter":"D","StopName":"Peckham Library","Latitude":51.474564,"Longitude":-0.068736,"Action":0},{"StopId":3154,"StopCode":"33442","PointLetter":"P","StopName":"The Aylesham Centre","Latitude":51.471984,"Longitude":-0.069349,"Action":0},{"StopId":3246,"StopCode":"13781","PointLetter":"V","StopName":"Peckham Rye Station","Latitude":51.469317,"Longitude":-0.067964,"Action":0},{"StopId":3261,"StopCode":"1726","PointLetter":"EA","StopName":"Nigel Road","Latitude":51.466136,"Longitude":-0.065925,"Action":0},{"StopId":3231,"StopCode":"34022","PointLetter":"EC","StopName":"Peckham Rye / Nunhead Lane","Latitude":51.463151,"Longitude":-0.064899,"Action":0},{"StopId":3128,"StopCode":"13784","PointLetter":"ES","StopName":"Carden Road","Latitude":51.463328,"Longitude":-0.063078,"Action":0},{"StopId":3242,"StopCode":"13786","PointLetter":"","StopName":"Linden Grove","Latitude":51.464453,"Longitude":-0.059877,"Action":0},{"StopId":3142,"StopCode":"13788","PointLetter":"","StopName":"Barset Road","Latitude":51.465985,"Longitude":-0.057351,"Action":0},{"StopId":3182,"StopCode":"BP3682","PointLetter":"NL","StopName":"Hollydale Road","Latitude":51.467598,"Longitude":-0.054302,"Action":0},{"StopId":3144,"StopCode":"BP2790","PointLetter":"NM","StopName":"St Mary's Road","Latitude":51.470346,"Longitude":-0.054041,"Action":0}], "Routes" : [{"Id":10498,"Route":"78","From":"Shoreditch High Street Station","Towards":"St Mary's Road","Run":"1","IsDay":1,"encodedLevels":"P@?B@E@?AC@@B@DBAHABAD?BE?DBG@B@CFB@EBAE@H?@DBC?@A@@?@?CAABDC?A?I@ADBA????BG@A??EABFB@AG@BAAACB@HACA@ADGA@@FA?G@ED?GBA?@CA?B?@EADI@AC@?C@@E@ABC@BAFE?@@P","encodedPoints":"qpnyHlcN\\KvBW`AGzAA`@DbBp@fGzC^TbE|Al@FLGd@FtEhAp@XjDhB|A~AvG|EXmAFiA_@gCDSpEyIr@mAbB}Em@sCkA{E?y@l@gAVMR@RFNZlBjIzBeAtAQpG{ARq@A_DRgGn@IbBAVJpGnE|@d@`Ef@|DjArCdBtHlE|HjE`Al@RVTFh@\\@FFDJCHJxRhHpFtCdB`FTEFBJDd@\\r@wDhCsL~BgJhBoBlAyBn@gB@MDKFEDOzBeCJVLJl@^dHlFdEtCbAeC|@oAtAaADXl@`@fEvDJCZi@`CuFp@qBC_@L]NAhJk_@~DoNtAcEVA`MfJrEhCrI~Db@LxDvBb@pDrDcBdF_BlAYzBy@NwAAi@LoM~DHfBCrAjXPBx@C`AYjF}DpEsC`Ag@jFoDx@kADWFONGFKr@e@x@PvGBtMyFK{@w@oDiByGg@gAs@}@IQUqAMeB{@sGYSQC}AyBuByDQo@gDwIkBgEkAgBiCoDSN]NYDuJjD","Color":"993333","hasRunTwo":1,"startPoint":{"Latitude":51.525372,"Longitude":-0.077510},"endPoint":{"Latitude":51.470703,"Longitude":-0.054182}}]}


