{"Stops" : [{"StopId":4642,"StopCode":"CW61","PointLetter":"K","StopName":"Alperton Sainsbury's","Latitude":51.538023,"Longitude":-0.302322,"Action":0},{"StopId":4734,"StopCode":"14833","PointLetter":"B","StopName":"Alperton Station","Latitude":51.540848,"Longitude":-0.298727,"Action":0},{"StopId":4776,"StopCode":"R0657","PointLetter":"S","StopName":"Clayton Avenue","Latitude":51.544636,"Longitude":-0.297014,"Action":0},{"StopId":4583,"StopCode":"15946","PointLetter":"","StopName":"Eagle Road","Latitude":51.547011,"Longitude":-0.297675,"Action":0},{"StopId":4701,"StopCode":"36880","PointLetter":"","StopName":"Lyon Park Avenue","Latitude":51.548649,"Longitude":-0.297773,"Action":0},{"StopId":4646,"StopCode":"4590","PointLetter":"CV","StopName":"High Road Wembley","Latitude":51.551598,"Longitude":-0.298975,"Action":0},{"StopId":4297,"StopCode":"14946","PointLetter":"CN","StopName":"Wembley Central Station","Latitude":51.552763,"Longitude":-0.296234,"Action":0},{"StopId":4688,"StopCode":"15945","PointLetter":"CL","StopName":"Park Lane","Latitude":51.553525,"Longitude":-0.294215,"Action":0},{"StopId":4869,"StopCode":"R0359","PointLetter":"L","StopName":"Wembley Hill Road","Latitude":51.558801,"Longitude":-0.290888,"Action":0},{"StopId":4657,"StopCode":"17062","PointLetter":"P","StopName":"East Lane","Latitude":51.561541,"Longitude":-0.292011,"Action":0},{"StopId":4690,"StopCode":"M20","PointLetter":"R","StopName":"Highfield Avenue","Latitude":51.563432,"Longitude":-0.292186,"Action":0},{"StopId":4853,"StopCode":"17060","PointLetter":"S","StopName":"St Augustine's Avenue","Latitude":51.565278,"Longitude":-0.293588,"Action":0},{"StopId":4786,"StopCode":"BP3110","PointLetter":"","StopName":"Pellatt Road","Latitude":51.566806,"Longitude":-0.294786,"Action":0},{"StopId":4595,"StopCode":"17057","PointLetter":"PK","StopName":"Carlton Avenue East","Latitude":51.570756,"Longitude":-0.294898,"Action":0},{"StopId":4656,"StopCode":"17056","PointLetter":"PA","StopName":"Preston Road Station","Latitude":51.572354,"Longitude":-0.294781,"Action":0},{"StopId":4772,"StopCode":"17053","PointLetter":"PH","StopName":"Woodcock Hill","Latitude":51.575661,"Longitude":-0.294585,"Action":0},{"StopId":4702,"StopCode":"17052","PointLetter":"","StopName":"Kinch Grove","Latitude":51.577518,"Longitude":-0.291802,"Action":0},{"StopId":4724,"StopCode":"36754","PointLetter":"","StopName":"Magnolia Court","Latitude":51.578193,"Longitude":-0.289366,"Action":0},{"StopId":4647,"StopCode":"36756","PointLetter":"T","StopName":"The Garth","Latitude":51.580694,"Longitude":-0.286414,"Action":0},{"StopId":2367,"StopCode":"BP3565","PointLetter":"H","StopName":"Lyndsey Park","Latitude":51.582180,"Longitude":-0.285334,"Action":0},{"StopId":2374,"StopCode":"36758","PointLetter":"F","StopName":"Kingsbury Circle / The Mall","Latitude":51.584388,"Longitude":-0.282580,"Action":0},{"StopId":2340,"StopCode":"26524","PointLetter":"C","StopName":"Kingsbury Circle","Latitude":51.586114,"Longitude":-0.282558,"Action":0},{"StopId":2347,"StopCode":"26527","PointLetter":"W","StopName":"Cowbridge Road","Latitude":51.589015,"Longitude":-0.283531,"Action":0},{"StopId":2333,"StopCode":"26528","PointLetter":"DD","StopName":"Queensbury Morrisons","Latitude":51.592123,"Longitude":-0.286388,"Action":0},{"StopId":4679,"StopCode":"16116","PointLetter":"AA","StopName":"Queensbury Station","Latitude":51.594456,"Longitude":-0.285420,"Action":0},{"StopId":2357,"StopCode":"16117","PointLetter":"D","StopName":"The Honeypot","Latitude":51.593976,"Longitude":-0.291357,"Action":0},{"StopId":4770,"StopCode":"26530","PointLetter":"P","StopName":"Queensbury Circle","Latitude":51.596282,"Longitude":-0.294722,"Action":0},{"StopId":4737,"StopCode":"26531","PointLetter":"Q","StopName":"Broadcroft Avenue","Latitude":51.600253,"Longitude":-0.296334,"Action":0},{"StopId":4588,"StopCode":"26533","PointLetter":"R","StopName":"Wigton Gardens","Latitude":51.602201,"Longitude":-0.297330,"Action":0},{"StopId":4748,"StopCode":"BP2751","PointLetter":"E","StopName":"Honeypot Lane Centre","Latitude":51.605794,"Longitude":-0.300142,"Action":0},{"StopId":4645,"StopCode":"9441","PointLetter":"H","StopName":"Marsh Lane","Latitude":51.607321,"Longitude":-0.300027,"Action":0},{"StopId":4847,"StopCode":"15035","PointLetter":"A","StopName":"Canons Park Station","Latitude":51.607553,"Longitude":-0.294328,"Action":0},{"StopId":4708,"StopCode":"15036","PointLetter":"","StopName":"St Lawrence Church","Latitude":51.608099,"Longitude":-0.288589,"Action":0},{"StopId":4798,"StopCode":"20436","PointLetter":"","StopName":"Buckingham Road","Latitude":51.609627,"Longitude":-0.282408,"Action":0},{"StopId":2324,"StopCode":"15039","PointLetter":"K","StopName":"St Margarets Church","Latitude":51.611261,"Longitude":-0.278562,"Action":0},{"StopId":4101,"StopCode":"BP090","PointLetter":"G","StopName":"Edgware Station","Latitude":51.613401,"Longitude":-0.275492,"Action":0}], "Routes" : [{"Id":1638,"Route":"79","From":"Alperton Sainsbury's","Towards":"Edgware Station","Run":"1","IsDay":1,"encodedLevels":"PAAF?@C@BAFBABACAE@@A@C@GC?CDBAG@C@?F@BAE?B@@E@B@AHE@AE?@BAF??@BCBA@E?A?D?AB@D?@HAC?BBAF@CB?E@?BCCA?B?IAAC@BFBD?AGAC?B?D@B?@G@?B@A?CB@B@ABFDAC?A?AH@BB@?B@E@CC@A@B@JA?@B?@EABABC@?@FD@AAEP","encodedPoints":"i_qyHvcz@BeFUqIOk@SGa@?_@BQTsCvBm@XMCmA_CiBkCSAIULm@s@{AuAaBa@Oe@EMDqC]g@MgDsAw@c@mB[iI~AyF~@gGDkEx@_IvCwCh@EeA[aEkCsJyC{LMWMG]?_Bn@gE|@UKYW{@uAgAcCgBwC{ByAq@[kBi@_DsAwAW{DvFoMr@_ITi@PSVMT}DpI_AhA]NUB{CJiAFaFJeCIaBVMd@OLS@MEMOISA_@Q?wAH{GW{Fo@wIm@i@Lo@XaCdA}@eBsAuDu@aDiCqKmA_JkAoGg@aAcAgAQI{HwAuAo@s@e@c@]wC}Cu@}@gIoLcA{@e@VODGCGGOe@_ARiDfB}DlAcAHoHrA{DvAgE`DqBbCU`@cA`CkAlEw@oAsHqIUPIBQCKIKYA[@OFOLQNGH@JDJJHj@?HG\\hAnAbBbABEZ\\Rv@zAzBv@ZiCtOa@nAqFzK]hAcCjH@HGf@OVULIAQSIHqShGqGnBuBt@aEdBgB~@mEhCeDxD}@r@oDpBiFxD_@b@i@Po@HGa@Bk@J}FAaBm@_]O}KYiKa@wDcDaR?qAmA{IyAiFEw@@gABOIoDuIaQ_AiAu@u@yFoEaBkB~AqE","Color":"993333","hasRunTwo":1,"startPoint":{"Latitude":51.537971,"Longitude":-0.302834},"endPoint":{"Latitude":51.613152,"Longitude":-0.275133}}]}


