{"Stops" : [{"StopId":2219,"StopCode":"BP1646","PointLetter":"UK","StopName":"Kingston Hall Road","Latitude":51.407379,"Longitude":-0.305412,"Action":0},{"StopId":5889,"StopCode":"BP496","PointLetter":"K","StopName":"Guildhall / Rose Theatre","Latitude":51.408791,"Longitude":-0.306625,"Action":0},{"StopId":2790,"StopCode":"R0699","PointLetter":"E2","StopName":"Eden Street","Latitude":51.410418,"Longitude":-0.302266,"Action":0},{"StopId":2192,"StopCode":"BP1084","PointLetter":"A2","StopName":"Cromwell Road Bus Station","Latitude":51.412375,"Longitude":-0.298900,"Action":0},{"StopId":2849,"StopCode":"BP272","PointLetter":"B","StopName":"Tiffin School / London Road","Latitude":51.410749,"Longitude":-0.295969,"Action":0},{"StopId":2203,"StopCode":"19542","PointLetter":"","StopName":"Norbiton Church","Latitude":51.410797,"Longitude":-0.293048,"Action":0},{"StopId":19995,"StopCode":"BP5304","PointLetter":"NZ","StopName":"Gordon Road","Latitude":51.412586,"Longitude":-0.289329,"Action":0},{"StopId":2841,"StopCode":"1917","PointLetter":"NP","StopName":"Park Road","Latitude":51.414279,"Longitude":-0.287008,"Action":0},{"StopId":2769,"StopCode":"19545","PointLetter":"NM","StopName":"Queens Road / Kingston Hospital","Latitude":51.416377,"Longitude":-0.283507,"Action":0},{"StopId":6682,"StopCode":"1915","PointLetter":"","StopName":"Kingston Lodge","Latitude":51.418422,"Longitude":-0.280093,"Action":0},{"StopId":6724,"StopCode":"19547","PointLetter":"","StopName":"Ravenswood Court","Latitude":51.422177,"Longitude":-0.276817,"Action":0},{"StopId":6711,"StopCode":"1601","PointLetter":"A","StopName":"Warren Road","Latitude":51.425414,"Longitude":-0.274350,"Action":0},{"StopId":6698,"StopCode":"BP1338","PointLetter":"B","StopName":"Galsworthy House","Latitude":51.427560,"Longitude":-0.272269,"Action":0},{"StopId":6661,"StopCode":"19548","PointLetter":"C","StopName":"Kingston University","Latitude":51.429255,"Longitude":-0.268926,"Action":0},{"StopId":6754,"StopCode":"19550","PointLetter":"D","StopName":"Woodview Close","Latitude":51.432329,"Longitude":-0.263990,"Action":0},{"StopId":6675,"StopCode":"2417","PointLetter":"E","StopName":"Robin Hood Lane","Latitude":51.434546,"Longitude":-0.259446,"Action":0},{"StopId":5776,"StopCode":"LG09","PointLetter":"PB","StopName":"Roehampton Vale Asda","Latitude":51.438781,"Longitude":-0.247903,"Action":0},{"StopId":5851,"StopCode":"33740","PointLetter":"RL","StopName":"Ringwood Gardens","Latitude":51.443629,"Longitude":-0.240753,"Action":0},{"StopId":3769,"StopCode":"29314","PointLetter":"RM","StopName":"Heathmere Primary School","Latitude":51.445171,"Longitude":-0.242234,"Action":0},{"StopId":3905,"StopCode":"29312","PointLetter":"RN","StopName":"Hyacinth Road","Latitude":51.446601,"Longitude":-0.241099,"Action":0},{"StopId":3906,"StopCode":"29310","PointLetter":"D","StopName":"Shawford Court","Latitude":51.448188,"Longitude":-0.238937,"Action":0},{"StopId":12641,"StopCode":"29635","PointLetter":"F","StopName":"Medfield Street","Latitude":51.449764,"Longitude":-0.239711,"Action":0},{"StopId":12483,"StopCode":"19560","PointLetter":"H","StopName":"Dover Park Drive","Latitude":51.451842,"Longitude":-0.233774,"Action":0},{"StopId":12761,"StopCode":"2369","PointLetter":"J","StopName":"Exeter House","Latitude":51.452541,"Longitude":-0.229458,"Action":0},{"StopId":12628,"StopCode":"36785","PointLetter":"K","StopName":"Hayward Gardens","Latitude":51.453234,"Longitude":-0.224724,"Action":0},{"StopId":11789,"StopCode":"BP4691","PointLetter":"L","StopName":"Putney Heath / Green Man","Latitude":51.453513,"Longitude":-0.221144,"Action":0},{"StopId":11505,"StopCode":"35335","PointLetter":"M","StopName":"Putney Hill / Green Man","Latitude":51.454183,"Longitude":-0.220240,"Action":0},{"StopId":11434,"StopCode":"17602","PointLetter":"N","StopName":"Lytton Grove","Latitude":51.457289,"Longitude":-0.218723,"Action":0},{"StopId":11372,"StopCode":"BP4412","PointLetter":"C","StopName":"St John's Avenue","Latitude":51.459959,"Longitude":-0.217511,"Action":0},{"StopId":12739,"StopCode":"4864","PointLetter":"B","StopName":"Putney Station","Latitude":51.461408,"Longitude":-0.216979,"Action":0},{"StopId":4616,"StopCode":"11143","PointLetter":"M","StopName":"Putney Bridge Road","Latitude":51.464439,"Longitude":-0.215206,"Action":0},{"StopId":5802,"StopCode":"35157","PointLetter":"T","StopName":"St Mary's Church/Putney Pier","Latitude":51.466482,"Longitude":-0.213599,"Action":0},{"StopId":5066,"StopCode":"20797","PointLetter":"AP","StopName":"Putney Bridge Station","Latitude":51.468407,"Longitude":-0.210630,"Action":0}], "Routes" : [{"Id":6707,"Route":"85","From":"Kingston Hall Road","Towards":"Putney Bridge Station","Run":"1","IsDay":1,"encodedLevels":"PBG@BA@E??AEA?D@?B?EAGFA?CECB??GAA@AAB@BC@AA?@BF@?B?A@D?@GB?@D?AB?E@B?C@C@A@FABEB@A?ACF@B?C?@?H@AAD@AB?E?@G@AADF@H?B?D@BEE@?D?AAD@H@@@C@B?DB?B??FA@D?P","encodedPoints":"aowxHdrz@oAvNWBWOyA{Am@yAm@}@OK@e@A{BBiASiIcAkAiFuEQSQk@ASq@_Da@q@KKSK_E@FeVXq@LOFAjGHJuN]kHEOE_@u@{Do@kAQG[a@K_@cF_Is@}A_DuDCBeC_EcByCaC{Em@iBuC{FuEaJiCsFsC_EkA{@_Ag@eHiEmB}AeGsEkKeHcHiFk@o@aBuBaA{AuBkEyBgGmB{F}CgI{@{AkByCmHkKg@cAcBeEcDcJoEkNgFsMeAgCaC}HeHwWo@{@c@_@]k@Ss@l@q@bD{BHPGb@MDKEGQ?G[@yC~Bi@}AGa@Ck@?kBqAyDiByFuCqIkKi[OFOAs@QOHB\\Rz@hBzE?XEJSVeE~DgGlFKGMScFuKgCmEiGsFmAhEgAdDEiAi@uGw@{Ea@wCKKM@}BvAsBsOcBeQoBaVaAiKOmECmBJ}FMaE]oAsBoE_Ag@uRoHqAq@mHwCe@G}FqAk@Q{FwBaHeDcAm@sFsDmAe@QA[My@wAoHuIcCaDBm@BkC","Color":"993333","hasRunTwo":1,"startPoint":{"Latitude":51.407377,"Longitude":-0.305144},"endPoint":{"Latitude":51.468366,"Longitude":-0.210323}},{"Id":2781,"Route":"85","From":"Kingston Hall Road","Towards":"Putney Bridge Station","Run":"1","IsDay":0,"encodedLevels":"PBG@BA@E??AEA?D@?B?EAGFA?CECB??GAA@AAB@BC@AA?@BF@?B?A@D?@GB?@D?AB?E@B?C@C@A@FABEB@A?ACF@B?C?@?H@AAD@AB?E?@G@AADF@H?B?D@BEE@?D?AAD@H@@@C@B?DB?B??FA@D?P","encodedPoints":"aowxHdrz@oAvNWBWOyA{Am@yAm@}@OK@e@A{BBiASiIcAkAiFuEQSQk@ASq@_Da@q@KKSK_E@FeVXq@LOFAjGHJuN]kHEOE_@u@{Do@kAQG[a@K_@cF_Is@}A_DuDCBeC_EcByCaC{Em@iBuC{FuEaJiCsFsC_EkA{@_Ag@eHiEmB}AeGsEkKeHcHiFk@o@aBuBaA{AuBkEyBgGmB{F}CgI{@{AkByCmHkKg@cAcBeEcDcJoEkNgFsMeAgCaC}HeHwWo@{@c@_@]k@Ss@l@q@bD{BHPGb@MDKEGQ?G[@yC~Bi@}AGa@Ck@?kBqAyDiByFuCqIkKi[OFOAs@QOHB\\Rz@hBzE?XEJSVeE~DgGlFKGMScFuKgCmEiGsFmAhEgAdDEiAi@uGw@{Ea@wCKKM@}BvAsBsOcBeQoBaVaAiKOmECmBJ}FMaE]oAsBoE_Ag@uRoHqAq@mHwCe@G}FqAk@Q{FwBaHeDcAm@sFsDmAe@QA[My@wAoHuIcCaDBm@BkC","Color":"663366","hasRunTwo":1,"startPoint":{"Latitude":51.407377,"Longitude":-0.305144},"endPoint":{"Latitude":51.468366,"Longitude":-0.210323}}]}


