{"Stops" : [{"StopId":13420,"StopCode":"BP654","PointLetter":"C","StopName":"Camden Gardens","Latitude":51.541742,"Longitude":-0.141244,"Action":0},{"StopId":359,"StopCode":"33288","PointLetter":"T","StopName":"Camden Town Station","Latitude":51.538670,"Longitude":-0.140893,"Action":0},{"StopId":1210,"StopCode":"33260","PointLetter":"V","StopName":"Pratt Street","Latitude":51.537164,"Longitude":-0.139498,"Action":0},{"StopId":2730,"StopCode":"33290","PointLetter":"D","StopName":"Mornington Crescent Station","Latitude":51.534118,"Longitude":-0.139060,"Action":0},{"StopId":1157,"StopCode":"1277","PointLetter":"W","StopName":"Silverdale","Latitude":51.530747,"Longitude":-0.138578,"Action":0},{"StopId":1229,"StopCode":"1275","PointLetter":"","StopName":"Robert Street","Latitude":51.528795,"Longitude":-0.138542,"Action":0},{"StopId":2719,"StopCode":"BP2016","PointLetter":"U","StopName":"Warren Street Station / Euston Road","Latitude":51.525807,"Longitude":-0.138448,"Action":0},{"StopId":2718,"StopCode":"544","PointLetter":"V","StopName":"Warren Street Station","Latitude":51.524588,"Longitude":-0.139233,"Action":0},{"StopId":4324,"StopCode":"8276","PointLetter":"E","StopName":"Great Portland Street Station","Latitude":51.522971,"Longitude":-0.143911,"Action":0},{"StopId":4344,"StopCode":"33066","PointLetter":"","StopName":"New Cavendish Street","Latitude":51.519886,"Longitude":-0.143835,"Action":0},{"StopId":4217,"StopCode":"33062","PointLetter":"RF","StopName":"Oxford Circus Station  / Margaret Street","Latitude":51.516010,"Longitude":-0.142119,"Action":0},{"StopId":1630,"StopCode":"16574","PointLetter":"T","StopName":"Conduit Street / Hamleys Toy Store","Latitude":51.512341,"Longitude":-0.139833,"Action":0},{"StopId":5649,"StopCode":"150","PointLetter":"F","StopName":"Piccadilly Circus","Latitude":51.509949,"Longitude":-0.136457,"Action":0},{"StopId":3860,"StopCode":"157","PointLetter":"P","StopName":"Haymarket","Latitude":51.509061,"Longitude":-0.132084,"Action":0},{"StopId":3764,"StopCode":"BP3508","PointLetter":"A","StopName":"Trafalgar Square / Charing Cross Stn","Latitude":51.507693,"Longitude":-0.129791,"Action":0},{"StopId":3829,"StopCode":"152","PointLetter":"N","StopName":"Whitehall / Trafalgar Square","Latitude":51.506318,"Longitude":-0.127023,"Action":0},{"StopId":5572,"StopCode":"R0470","PointLetter":"","StopName":"Horse Guards Parade","Latitude":51.504325,"Longitude":-0.126067,"Action":0},{"StopId":21198,"StopCode":"BP5568","PointLetter":"F","StopName":"Westminster Station  / Parliament Square","Latitude":51.502479,"Longitude":-0.125970,"Action":0},{"StopId":13481,"StopCode":"2419","PointLetter":"X","StopName":"Westminster Abbey","Latitude":51.498970,"Longitude":-0.129745,"Action":0},{"StopId":13400,"StopCode":"9393","PointLetter":"NL","StopName":"Horseferry Road","Latitude":51.495696,"Longitude":-0.129144,"Action":0},{"StopId":10326,"StopCode":"7839","PointLetter":"NM","StopName":"Page Street","Latitude":51.494182,"Longitude":-0.128947,"Action":0},{"StopId":10341,"StopCode":"36595","PointLetter":"M","StopName":"Tate Britain","Latitude":51.492048,"Longitude":-0.128227,"Action":0},{"StopId":10342,"StopCode":"36594","PointLetter":"U","StopName":"Vauxhall Bridge Road","Latitude":51.490149,"Longitude":-0.129789,"Action":0},{"StopId":7246,"StopCode":"BP4319","PointLetter":"D","StopName":"Vauxhall Bus Station","Latitude":51.485500,"Longitude":-0.124189,"Action":0},{"StopId":7263,"StopCode":"12448","PointLetter":"V","StopName":"Vauxhall Park","Latitude":51.483539,"Longitude":-0.123031,"Action":0},{"StopId":7257,"StopCode":"12817","PointLetter":"","StopName":"Wheatsheaf Lane","Latitude":51.481897,"Longitude":-0.124380,"Action":0},{"StopId":7048,"StopCode":"609","PointLetter":"U","StopName":"Tate Library","Latitude":51.479767,"Longitude":-0.123920,"Action":0},{"StopId":6985,"StopCode":"26340","PointLetter":"V","StopName":"Thorne Road","Latitude":51.476814,"Longitude":-0.123119,"Action":0},{"StopId":6779,"StopCode":"24647","PointLetter":"B","StopName":"South Lambeth Road / Stockwell Station","Latitude":51.473879,"Longitude":-0.122361,"Action":0},{"StopId":7182,"StopCode":"29791","PointLetter":"M","StopName":"Clapham Road / Stockwell Station","Latitude":51.471501,"Longitude":-0.123222,"Action":0},{"StopId":7149,"StopCode":"389","PointLetter":"L","StopName":"Union Road","Latitude":51.469499,"Longitude":-0.125709,"Action":0},{"StopId":6857,"StopCode":"25638","PointLetter":"G","StopName":"Clapham North & High Street Stations","Latitude":51.464867,"Longitude":-0.130160,"Action":0},{"StopId":7340,"StopCode":"2157","PointLetter":"H","StopName":"St Luke's Avenue","Latitude":51.463235,"Longitude":-0.133826,"Action":0},{"StopId":6981,"StopCode":"25990","PointLetter":"K","StopName":"Clapham Common Station","Latitude":51.461514,"Longitude":-0.138171,"Action":0},{"StopId":8689,"StopCode":"BP1328","PointLetter":"T","StopName":"Clapham Common Old Town","Latitude":51.464064,"Longitude":-0.141278,"Action":0}], "Routes" : [{"Id":8674,"Route":"88","From":"Camden Gardens","Towards":"Clapham Common Old Town","Run":"1","IsDay":1,"encodedLevels":"PDFAB@E???AG?B@@C?F?B@EAB?E?CA@DBAHABAF?@@FHAD?A@D??@@E?BG?A?B?C?@@BA@EAAE?@?@BA?B@?H@?A@@C?@B@D@AAA@FDC@GA@CAABD?BE?FBH?@AC@A@F@?C?BFCC?G@E??C??BC@FB@AD@@?C@@DA@I??A@@?B@?D@BCBGAC@?CAF?CG?@@C@A?D??A@F@B@P","encodedPoints":"wwqyHnvZv@cFzEwDbAdDhBhEHDNAhA_A`HwGr@k@tFgFrGqFF?HH^`CDv@XzBNDr@F^@HA^c@`EaDLNXjDPJNBTAnJmBz@LfEGhO?|Da@Z[dB[~AbK|AnMtAlHZp@XGhEyAzGgChCy@bAlKpFiBv@g@PUPMJe@`AwB`A_@zAg@fFqB~Aa@zHqCfByApO{MrAmBHYHK?STeBAe@F{BGc@MeBKWMeCJoB?gAKwAnAaBhFyEhD}DLiDTeEC_@@o@JqBSWEYAMB_@HSDIR?PFFFNIZARFRG|E_CDGzDqAbB_@N?LHtHUnBFnEKh@DnBl@EnCjC`Mb@zARCzCj@T?|@Uh@q@`@StBW~Gc@tIe@tECPi@v@iD`OfLtBrC~AiETu@z@mBtHuTHi@h@_BJiAXyANKREH?^NxDtBhB\\yC_ByBuBBGPSZKfH}AB@RBbFrAr@bAP\\r@|@p@^l@NjDh@tBi@`B{@`C}ApAa@|AKxMuAR?dAGdFcAb@OtDk@\\}BJQLGD@LJbA`ANXp@p@dDjE~AlBjF`H|A~BjGvI~BjBpA|@dG`DlBbBrAjC`CnGnD~LdC|JZjBbApE|CbFNt@?nBOdVe@NGAc@Ma@_@WGWAs@PO?KEKIQ_@SU[MeBsB@i@DUpCcGVc@","Color":"993333","hasRunTwo":1,"startPoint":{"Latitude":51.541887,"Longitude":-0.141997},"endPoint":{"Latitude":51.462451,"Longitude":-0.140518}},{"Id":2986,"Route":"88","From":"Camden Gardens","Towards":"Clapham Common Old Town","Run":"1","IsDay":0,"encodedLevels":"PDFAB@E???AG?B@@C?F?B@EAB?E?CA@DBAHABAF?@@FHAD?A@D??@@E?BG?A?B?C?@@BA@EAAE?@?@BA?B@?H@?A@@C?@B@D@AAA@FDC@GA@CAABD?BE?FBH?@AC@A@F@?C?BFCC?G@E??C??BC@FB@AD@@?C@@DA@I??A@@?B@?D@BCBGAC@?CAF?CG?@@C@A?D??A@F@B@P","encodedPoints":"wwqyHnvZv@cFzEwDbAdDhBhEHDNAhA_A`HwGr@k@tFgFrGqFF?HH^`CDv@XzBNDr@F^@HA^c@`EaDLNXjDPJNBTAnJmBz@LfEGhO?|Da@Z[dB[~AbK|AnMtAlHZp@XGhEyAzGgChCy@bAlKpFiBv@g@PUPMJe@`AwB`A_@zAg@fFqB~Aa@zHqCfByApO{MrAmBHYHK?STeBAe@F{BGc@MeBKWMeCJoB?gAKwAnAaBhFyEhD}DLiDTeEC_@@o@JqBSWEYAMB_@HSDIR?PFFFNIZARFRG|E_CDGzDqAbB_@N?LHtHUnBFnEKh@DnBl@EnCjC`Mb@zARCzCj@T?|@Uh@q@`@StBW~Gc@tIe@tECPi@v@iD`OfLtBrC~AiETu@z@mBtHuTHi@h@_BJiAXyANKREH?^NxDtBhB\\yC_ByBuBBGPSZKfH}AB@RBbFrAr@bAP\\r@|@p@^l@NjDh@tBi@`B{@`C}ApAa@|AKxMuAR?dAGdFcAb@OtDk@\\}BJQLGD@LJbA`ANXp@p@dDjE~AlBjF`H|A~BjGvI~BjBpA|@dG`DlBbBrAjC`CnGnD~LdC|JZjBbApE|CbFNt@?nBOdVe@NGAc@Ma@_@WGWAs@PO?KEKIQ_@SU[MeBsB@i@DUpCcGVc@","Color":"663366","hasRunTwo":1,"startPoint":{"Latitude":51.541887,"Longitude":-0.141997},"endPoint":{"Latitude":51.462451,"Longitude":-0.140518}}]}


