{"Stops" : [{"StopId":5329,"StopCode":"18221","PointLetter":"B","StopName":"Northolt Station","Latitude":51.548477,"Longitude":-0.367385,"Action":0},{"StopId":5523,"StopCode":"16142","PointLetter":"D","StopName":"Moat Farm Road","Latitude":51.546467,"Longitude":-0.370212,"Action":0},{"StopId":5427,"StopCode":"16144","PointLetter":"TA","StopName":"Kingston Close","Latitude":51.544043,"Longitude":-0.374438,"Action":0},{"StopId":5301,"StopCode":"16146","PointLetter":"TB","StopName":"Sycamore Close","Latitude":51.540661,"Longitude":-0.382129,"Action":0},{"StopId":5443,"StopCode":"16148","PointLetter":"TC","StopName":"Bengarth Road / Northolt Library","Latitude":51.539612,"Longitude":-0.384315,"Action":0},{"StopId":5497,"StopCode":"37263","PointLetter":"X","StopName":"Yeading / White Hart","Latitude":51.536823,"Longitude":-0.389446,"Action":0},{"StopId":7589,"StopCode":"14724","PointLetter":"L","StopName":"Dilston Close","Latitude":51.534788,"Longitude":-0.394492,"Action":0},{"StopId":6160,"StopCode":"17219","PointLetter":"H","StopName":"Hughenden Gardens","Latitude":51.533227,"Longitude":-0.398080,"Action":0},{"StopId":6079,"StopCode":"17220","PointLetter":"","StopName":"Gurney Road","Latitude":51.533381,"Longitude":-0.404043,"Action":0},{"StopId":6078,"StopCode":"17222","PointLetter":"R","StopName":"Townson Avenue","Latitude":51.534169,"Longitude":-0.408486,"Action":0},{"StopId":6253,"StopCode":"BP4474","PointLetter":"S","StopName":"Kingshill Close","Latitude":51.533601,"Longitude":-0.413033,"Action":0},{"StopId":6302,"StopCode":"17224","PointLetter":"T","StopName":"Grosvenor Avenue","Latitude":51.532632,"Longitude":-0.416512,"Action":0},{"StopId":6076,"StopCode":"17226","PointLetter":"K","StopName":"The Brook House","Latitude":51.531358,"Longitude":-0.418705,"Action":0},{"StopId":6075,"StopCode":"17228","PointLetter":"L","StopName":"Fairholme Crescent","Latitude":51.529983,"Longitude":-0.417397,"Action":0},{"StopId":6051,"StopCode":"17229","PointLetter":"M","StopName":"Fredora Avenue","Latitude":51.528243,"Longitude":-0.417111,"Action":0},{"StopId":6073,"StopCode":"17231","PointLetter":"D","StopName":"Balmoral Drive","Latitude":51.525734,"Longitude":-0.419721,"Action":0},{"StopId":5127,"StopCode":"3114","PointLetter":"E","StopName":"Uxbridge County Court","Latitude":51.522376,"Longitude":-0.420097,"Action":0},{"StopId":6267,"StopCode":"6819","PointLetter":"J","StopName":"Church Road","Latitude":51.520819,"Longitude":-0.416058,"Action":0},{"StopId":6153,"StopCode":"6816","PointLetter":"L","StopName":"Belmore Parade","Latitude":51.519731,"Longitude":-0.413371,"Action":0},{"StopId":6240,"StopCode":"BP994","PointLetter":"U","StopName":"Hesa Road","Latitude":51.516109,"Longitude":-0.408885,"Action":0},{"StopId":6285,"StopCode":"16156","PointLetter":"SU","StopName":"Precinct Road","Latitude":51.514134,"Longitude":-0.410467,"Action":0},{"StopId":6168,"StopCode":"BP1075","PointLetter":"SV","StopName":"Avondale Drive","Latitude":51.511940,"Longitude":-0.412431,"Action":0},{"StopId":6149,"StopCode":"16157","PointLetter":"SW","StopName":"East Way","Latitude":51.510529,"Longitude":-0.413821,"Action":0},{"StopId":6101,"StopCode":"BP108","PointLetter":"SX","StopName":"Fairdale Gardens","Latitude":51.508622,"Longitude":-0.415774,"Action":0},{"StopId":6100,"StopCode":"BP109","PointLetter":"SY","StopName":"Mount Road","Latitude":51.507684,"Longitude":-0.416859,"Action":0},{"StopId":4903,"StopCode":"BP110","PointLetter":"D","StopName":"Clayton Road","Latitude":51.504840,"Longitude":-0.419364,"Action":0},{"StopId":5011,"StopCode":"15979","PointLetter":"E","StopName":"Hayes and Harlington Station","Latitude":51.503060,"Longitude":-0.420751,"Action":0},{"StopId":5010,"StopCode":"16165","PointLetter":"F","StopName":"Fairey Corner","Latitude":51.500938,"Longitude":-0.424124,"Action":0},{"StopId":4970,"StopCode":"16167","PointLetter":"R","StopName":"Redmead Road","Latitude":51.497893,"Longitude":-0.426390,"Action":0},{"StopId":6306,"StopCode":"33383","PointLetter":"S","StopName":"Croyde Avenue","Latitude":51.496609,"Longitude":-0.427212,"Action":0},{"StopId":6211,"StopCode":"16320","PointLetter":"A","StopName":"Brickfield Lane","Latitude":51.489502,"Longitude":-0.435019,"Action":0},{"StopId":6116,"StopCode":"16323","PointLetter":"B","StopName":"Manse Close","Latitude":51.486729,"Longitude":-0.435416,"Action":0},{"StopId":6117,"StopCode":"16325","PointLetter":"C","StopName":"West End Lane","Latitude":51.483797,"Longitude":-0.434090,"Action":0},{"StopId":6237,"StopCode":"29038","PointLetter":"K","StopName":"Hatton Road North","Latitude":51.479512,"Longitude":-0.431760,"Action":0},{"StopId":18025,"StopCode":"BP5149","PointLetter":"","StopName":"Eastchurch Road","Latitude":51.477066,"Longitude":-0.426357,"Action":0},{"StopId":6136,"StopCode":"BP4823","PointLetter":"M","StopName":"Envoy Avenue","Latitude":51.469135,"Longitude":-0.419704,"Action":0},{"StopId":6220,"StopCode":"35287","PointLetter":"C","StopName":"Hatton Cross Station","Latitude":51.466828,"Longitude":-0.423312,"Action":0},{"StopId":6087,"StopCode":"17131","PointLetter":"H","StopName":"Great South West Road","Latitude":51.466136,"Longitude":-0.421349,"Action":0},{"StopId":6300,"StopCode":"17129","PointLetter":"","StopName":"Hatton Green","Latitude":51.463889,"Longitude":-0.416114,"Action":0},{"StopId":6183,"StopCode":"17127","PointLetter":"H","StopName":"Central Way","Latitude":51.458991,"Longitude":-0.411663,"Action":0},{"StopId":6174,"StopCode":"16827","PointLetter":"J","StopName":"Lansbury Avenue","Latitude":51.456558,"Longitude":-0.409329,"Action":0},{"StopId":6254,"StopCode":"BP3535","PointLetter":"S","StopName":"Feltham Assembly Hall","Latitude":51.451274,"Longitude":-0.406246,"Action":0},{"StopId":6128,"StopCode":"20817","PointLetter":"","StopName":"Fern Grove","Latitude":51.450116,"Longitude":-0.407049,"Action":0},{"StopId":8944,"StopCode":"16831","PointLetter":"H","StopName":"Feltham Station  / Victoria Road","Latitude":51.446321,"Longitude":-0.409656,"Action":0},{"StopId":8963,"StopCode":"BP2405","PointLetter":"FW","StopName":"Browells Lane","Latitude":51.443772,"Longitude":-0.410018,"Action":0},{"StopId":9023,"StopCode":"BP1986","PointLetter":"Z","StopName":"Feltham Leisure West","Latitude":51.443261,"Longitude":-0.406136,"Action":0}], "Routes" : [{"Id":2546,"Route":"90","From":"Northolt Station","Towards":"Feltham Leisure West","Run":"1","IsDay":1,"encodedLevels":"P@ABEB@D@B?A?C@D?@A@DA?CA@AE?@D?@BAB@D@B@AD@?E@?B@?H@B?E@AAF@@BJ?D?@DAB@GB@CH?@B?@C?AAI?ABD@?AA?D@?@CB@E??C@CE@DC??AEC@B?A?@FAA?ADBB@FA?CAC@AF@BA@K?C?AEA?C?@C@G@E?A@BBF?ACADF@AACA@F?BD@BHA?BA?DAABD@B@C???D?AE?@B@@AD@C@ADABAI?@D?A@@EAAAB@E?AA?AG?CD?ACAAC@@H?BHAEBBAE@P","encodedPoints":"ibsyHpvfALDbEfH`M`RrBnEfClH~AhJp@vCXXXNFILGNCZAVJRXHZBXBpAf@vFJ`@lDhHxArDvBzF~AjEtBlHJl@rBtF`@v@`DrFbF`IJF\\LHJRQ`@AVNV^Hb@@r@If@e@bASvAFv@p@dDV`Al@|AvDhHlAhClA`Bh@f@JRFt@CfC^zDp@tIu@nLeAlN{B~Sq@jJDj@pArHjGb]zAfNrA_@pCm@\\[vEuF`@[n@[jAOn@?h@LnAl@nM|M|DvDjKxGf@gCnAoFjAkE~G{UhAoDlC_KtDsPh@iCfAgIr@qCPJZ`@rAjCj@nC^^~AjAxLfJ`DzCdHxF|@z@~EzERZbEpEpBpBlEvFNV`@zAN@BDPBN[TaB\\N`DhCbD|CYfANLzA|@bEnC~AvAlCbDd@fAlBbHXj@V\\XRNNHVTBtJvG~EnDdBrA`JjFrE~ApIxAj@P^ZnAhBXn@Jd@VbCr@bOJn@n@hBVb@\\^^TvFnB|Bh@|G`CdCWVGjBcAbBcAvFgCvC_@d@ErB?jCDtFR|A@TGp@g@b@}@fD}E@kDDgBEiIIqCNiIT{@Vc@LMx@e@n@MjLH\\gAJk@DkAAkWNmF\\oDb@sC\\kAZg@RSjHyCrCaExEeG`Ao@ZFHHNXt@|B`EjJlEtKpBlHFbAj@~Cn@jBLNRDb@Bj@IDF@VAFV`CLJ^RrATBMAMEKIEK@oAa@IWCm@HYFGL?`@RZZZ|@PjAKNG?WKoC{AFU@SIm@IKCYf@i@dDmBr@q@TCJM^}@H]Fm@FgDT}DZ}Db@iCvDgDfGyFTwAv@@ZC^StRwPhGyFpByBhLaJfEqDjM{JnP~J`WxOhGxCx@wCdBaKA[gBcBO[?_@\\aAnEwJ","Color":"993333","hasRunTwo":1,"startPoint":{"Latitude":51.548692,"Longitude":-0.367282},"endPoint":{"Latitude":51.442746,"Longitude":-0.405310}}]}


