{"Stops" : [{"StopId":12688,"StopCode":"29979","PointLetter":"Q","StopName":"Priory Road","Latitude":51.367824,"Longitude":-0.218331,"Action":0},{"StopId":3998,"StopCode":"16719","PointLetter":"S","StopName":"Malden Road / Priory Road","Latitude":51.366437,"Longitude":-0.224131,"Action":0},{"StopId":12767,"StopCode":"10839","PointLetter":"H","StopName":"Church Hill Road","Latitude":51.370371,"Longitude":-0.227413,"Action":0},{"StopId":12738,"StopCode":"3613","PointLetter":"C","StopName":"North Cheam / Queen Victoria","Latitude":51.371648,"Longitude":-0.227378,"Action":0},{"StopId":12530,"StopCode":"14918","PointLetter":"HJ","StopName":"North Cheam Sports Club","Latitude":51.374672,"Longitude":-0.224014,"Action":0},{"StopId":12610,"StopCode":"7591","PointLetter":"HK","StopName":"Langley Avenue","Latitude":51.376594,"Longitude":-0.222086,"Action":0},{"StopId":12734,"StopCode":"11356","PointLetter":"HL","StopName":"St Anthony's Hospital","Latitude":51.377941,"Longitude":-0.220712,"Action":0},{"StopId":12529,"StopCode":"14917","PointLetter":"HM","StopName":"Stonecot Hill / Garth Road","Latitude":51.380954,"Longitude":-0.217233,"Action":0},{"StopId":12606,"StopCode":"14916","PointLetter":"SK","StopName":"Burleigh Road","Latitude":51.383341,"Longitude":-0.214524,"Action":0},{"StopId":12774,"StopCode":"1572","PointLetter":"SL","StopName":"Sutton Common Road","Latitude":51.385196,"Longitude":-0.212296,"Action":0},{"StopId":12725,"StopCode":"R0219","PointLetter":"ME","StopName":"Lower Morden Lane","Latitude":51.386978,"Longitude":-0.210057,"Action":0},{"StopId":12507,"StopCode":"14911","PointLetter":"MF","StopName":"Rutland Drive","Latitude":51.389505,"Longitude":-0.207112,"Action":0},{"StopId":12482,"StopCode":"2519","PointLetter":"MH","StopName":"Morden / The George","Latitude":51.392519,"Longitude":-0.203674,"Action":0},{"StopId":12776,"StopCode":"10283","PointLetter":"MJ","StopName":"Chalgrove Avenue","Latitude":51.395261,"Longitude":-0.201899,"Action":0},{"StopId":12640,"StopCode":"10281","PointLetter":"MK","StopName":"Morden South Station","Latitude":51.396750,"Longitude":-0.200475,"Action":0},{"StopId":12624,"StopCode":"25820","PointLetter":"L","StopName":"Morden Court","Latitude":51.399702,"Longitude":-0.197124,"Action":0},{"StopId":12581,"StopCode":"W46","PointLetter":"A","StopName":"Morden Station","Latitude":51.402093,"Longitude":-0.194730,"Action":0},{"StopId":12779,"StopCode":"3851","PointLetter":"","StopName":"Dorset Road","Latitude":51.407181,"Longitude":-0.192258,"Action":0},{"StopId":12633,"StopCode":"14846","PointLetter":"SL","StopName":"Morden Road Tram Stop","Latitude":51.409405,"Longitude":-0.192458,"Action":0},{"StopId":12508,"StopCode":"1481","PointLetter":"SM","StopName":"Morden Road / South Wimbledon Station","Latitude":51.414860,"Longitude":-0.192789,"Action":0},{"StopId":2780,"StopCode":"18727","PointLetter":"ST","StopName":"Merton Road","Latitude":51.417024,"Longitude":-0.192589,"Action":0},{"StopId":2739,"StopCode":"17618","PointLetter":"SW","StopName":"The Polka Theatre","Latitude":51.419376,"Longitude":-0.195272,"Action":0},{"StopId":2740,"StopCode":"17616","PointLetter":"Y","StopName":"Wimbledon Theatre","Latitude":51.419293,"Longitude":-0.200971,"Action":0},{"StopId":12649,"StopCode":"LG68","PointLetter":"G","StopName":"Wimbledon Bus Station","Latitude":51.418798,"Longitude":-0.203306,"Action":0},{"StopId":2847,"StopCode":"LG65","PointLetter":"L","StopName":"Wimbledon Station","Latitude":51.420315,"Longitude":-0.206626,"Action":0},{"StopId":12673,"StopCode":"7603","PointLetter":"R","StopName":"Wimbledon Hill Road","Latitude":51.422540,"Longitude":-0.209200,"Action":0},{"StopId":12672,"StopCode":"7606","PointLetter":"P","StopName":"High Street / Wimbledon Village","Latitude":51.424794,"Longitude":-0.216649,"Action":0},{"StopId":12671,"StopCode":"7609","PointLetter":"Q","StopName":"Marryat Road","Latitude":51.425654,"Longitude":-0.220629,"Action":0},{"StopId":12669,"StopCode":"7612","PointLetter":"R","StopName":"Wimbledon War Memorial","Latitude":51.426797,"Longitude":-0.223016,"Action":0},{"StopId":12489,"StopCode":"17613","PointLetter":"S","StopName":"Parkside Avenue","Latitude":51.428904,"Longitude":-0.223826,"Action":0},{"StopId":12490,"StopCode":"17610","PointLetter":"T","StopName":"Calonne Road","Latitude":51.433508,"Longitude":-0.224367,"Action":0},{"StopId":12648,"StopCode":"17608","PointLetter":"","StopName":"Parkside Hospital","Latitude":51.436245,"Longitude":-0.224577,"Action":0},{"StopId":12599,"StopCode":"17606","PointLetter":"","StopName":"Queensmere Road","Latitude":51.439452,"Longitude":-0.224366,"Action":0},{"StopId":12548,"StopCode":"18735","PointLetter":"PX","StopName":"Albemarle","Latitude":51.442738,"Longitude":-0.223404,"Action":0},{"StopId":12540,"StopCode":"17604","PointLetter":"PK","StopName":"Tibbet's Corner","Latitude":51.445961,"Longitude":-0.222488,"Action":0},{"StopId":12743,"StopCode":"14343","PointLetter":"PW","StopName":"Tibbet's Ride","Latitude":51.449235,"Longitude":-0.223109,"Action":0},{"StopId":11505,"StopCode":"35335","PointLetter":"M","StopName":"Putney Hill / Green Man","Latitude":51.454183,"Longitude":-0.220240,"Action":0},{"StopId":11434,"StopCode":"17602","PointLetter":"N","StopName":"Lytton Grove","Latitude":51.457289,"Longitude":-0.218723,"Action":0},{"StopId":11372,"StopCode":"BP4412","PointLetter":"C","StopName":"St John's Avenue","Latitude":51.459959,"Longitude":-0.217511,"Action":0},{"StopId":12739,"StopCode":"4864","PointLetter":"B","StopName":"Putney Station","Latitude":51.461408,"Longitude":-0.216979,"Action":0},{"StopId":4616,"StopCode":"11143","PointLetter":"M","StopName":"Putney Bridge Road","Latitude":51.464439,"Longitude":-0.215206,"Action":0},{"StopId":5802,"StopCode":"35157","PointLetter":"T","StopName":"St Mary's Church/Putney Pier","Latitude":51.466482,"Longitude":-0.213599,"Action":0},{"StopId":5066,"StopCode":"20797","PointLetter":"AP","StopName":"Putney Bridge Station","Latitude":51.468407,"Longitude":-0.210630,"Action":0}], "Routes" : [{"Id":2631,"Route":"93","From":"Priory Road","Towards":"Putney Bridge Station","Run":"1","IsDay":1,"encodedLevels":"P@@G?B@AC@IAABCAAA?@CA@?A?AEAA@@A?AB@ADBAG?AB@BB@F@B?B@E@A@E@?B?FD??AFA??@E?@BAABJABCA?DA@C@B?ECI?AD@BAE?D@?ABAG@DCAD@C@C?F@B@D?@@D?D@ACAEA?D?JB@?CABAF@?B@F@AC?BAH@?@C@@CB?CAA?CAF?C@D?P","encodedPoints":"cyoxHdri@P`@pFbVzB~Im@p@qAnAwDfCi@ReHtEyD`EiDbDo@{@Ii@y@gAkGaHKKKD_KiLyF}FwHsHqCyCiGiIgGqHcFwFaAkA}FiHsHwJIDi@s@?SGIQAe@o@EWMYiGkIo@y@kBeBoDwEoDuFwBkFwCcGWQQIe@Eg@HeEPoEKc@IWMe@c@m@iAUu@eBmG_@}@_@i@UQsAk@M?yHoCm@aAuCeGq@qAy@gA_@]sCqBYNQDwCvAgAPK]Ak@Dq@AeHCQSMSWm@iA_CsFg@mBsBgEe@IyBDoIp@_HdA{C@_GPcJb@eHNuACyIFg@QyA[sFLoAFiCj@iIjGLnAv@hNRxHAnDKrDi@~EYlHr@Sl@WTd@d@jBN`@NHJ~@Gb@_IjLs@v@_@o@[?WVa@xBSl@sBjC{D~Fs@xAgBfEe@tAaAzD]tBU|BCf@?v@Bz@MvIYb@yDrHC|@N`AAbAqA~KaAtEw@pCa@|@MLm@ZcG~B}Dj@uIh@oLl@_I\\sEHeH^q@QoFDwF_A{LeCoVuEs@McGc@QTq@d@g@v@WbBM`@WNOCkB{@kE{AoBw@}HeDoFwC{@o@eE{BiNcFmEuBoB}@}E_BuBYwDiA_Cy@{EuBeJeFi@c@{GsEoHuIcCaDBm@BkC","Color":"993333","hasRunTwo":1,"startPoint":{"Latitude":51.368029,"Longitude":-0.218102},"endPoint":{"Latitude":51.468366,"Longitude":-0.210323}},{"Id":2656,"Route":"93","From":"Priory Road","Towards":"Putney Bridge Station","Run":"1","IsDay":0,"encodedLevels":"P@@G?B@AC@IAABCAAA?@CA@?A?AEAA@@A?AB@ADBAG?AB@BB@F@B?B@E@A@E@?B?FD??AFA??@E?@BAABJABCA?DA@C@B?ECI?AD@BAE?D@?ABAG@DCAD@C@C?F@B@D?@@D?D@ACAEA?D?JB@?CABAF@?B@F@AC?BAH@?@C@@CB?CAA?CAF?C@D?P","encodedPoints":"cyoxHdri@P`@pFbVzB~Im@p@qAnAwDfCi@ReHtEyD`EiDbDo@{@Ii@y@gAkGaHKKKD_KiLyF}FwHsHqCyCiGiIgGqHcFwFaAkA}FiHsHwJIDi@s@?SGIQAe@o@EWMYiGkIo@y@kBeBoDwEoDuFwBkFwCcGWQQIe@Eg@HeEPoEKc@IWMe@c@m@iAUu@eBmG_@}@_@i@UQsAk@M?yHoCm@aAuCeGq@qAy@gA_@]sCqBYNQDwCvAgAPK]Ak@Dq@AeHCQSMSWm@iA_CsFg@mBsBgEe@IyBDoIp@_HdA{C@_GPcJb@eHNuACyIFg@QyA[sFLoAFiCj@iIjGLnAv@hNRxHAnDKrDi@~EYlHr@Sl@WTd@d@jBN`@NHJ~@Gb@_IjLs@v@_@o@[?WVa@xBSl@sBjC{D~Fs@xAgBfEe@tAaAzD]tBU|BCf@?v@Bz@MvIYb@yDrHC|@N`AAbAqA~KaAtEw@pCa@|@MLm@ZcG~B}Dj@uIh@oLl@_I\\sEHeH^q@QoFDwF_A{LeCoVuEs@McGc@QTq@d@g@v@WbBM`@WNOCkB{@kE{AoBw@}HeDoFwC{@o@eE{BiNcFmEuBoB}@}E_BuBYwDiA_Cy@{EuBeJeFi@c@{GsEoHuIcCaDBm@BkC","Color":"663366","hasRunTwo":1,"startPoint":{"Latitude":51.368029,"Longitude":-0.218102},"endPoint":{"Latitude":51.468366,"Longitude":-0.210323}}]}


