{"Stops" : [{"StopId":8371,"StopCode":"BP2417","PointLetter":"B","StopName":"Crystal Palace Parade","Latitude":51.421787,"Longitude":-0.077650,"Action":0},{"StopId":8583,"StopCode":"13378","PointLetter":"W","StopName":"Crystal Palace Parade / College Road","Latitude":51.423549,"Longitude":-0.076526,"Action":0},{"StopId":8296,"StopCode":"2618","PointLetter":"A","StopName":"Dulwich Wood Park / College Road","Latitude":51.426170,"Longitude":-0.078933,"Action":0},{"StopId":8313,"StopCode":"R0515","PointLetter":"B","StopName":"Dulwich Wood Park / Kingswood Drive","Latitude":51.427306,"Longitude":-0.082410,"Action":0},{"StopId":20991,"StopCode":"BP5502","PointLetter":"","StopName":"Kingswood Estate / Seeley Drive Shops","Latitude":51.430158,"Longitude":-0.080823,"Action":0},{"StopId":8210,"StopCode":"BP4851","PointLetter":"C","StopName":"Bowen Drive","Latitude":51.427864,"Longitude":-0.081912,"Action":0},{"StopId":8255,"StopCode":"BP3872","PointLetter":"D","StopName":"Kingswood Drive / College Road","Latitude":51.429671,"Longitude":-0.079679,"Action":0},{"StopId":8352,"StopCode":"BP3875","PointLetter":"E","StopName":"Fountain Drive","Latitude":51.426334,"Longitude":-0.074741,"Action":0},{"StopId":8227,"StopCode":"17835","PointLetter":"U","StopName":"Crystal Palace Park Road","Latitude":51.426349,"Longitude":-0.072323,"Action":0},{"StopId":10573,"StopCode":"BP1112","PointLetter":"T","StopName":"Lewisham Centre","Latitude":51.460150,"Longitude":-0.011317,"Action":0}], "Routes" : [{"Id":1106,"Route":"931","From":"Crystal Palace Parade","Towards":"Lewisham Centre","Run":"1","IsDay":1,"encodedLevels":"P?AAAEAC?@B@G@CAEBBEAC@@@G@CACA@CAC?CFD@I@BDADG@A?ECAB?EB?F?CA?D@B??D@F?AC@BAAID@AF?A?C?B@?E?A?ABAE?@@@C@G?@AAGBBBADAH?@@E?B?AD@BAF?ADA?D@D@AF?GA??E?CACB?I@B?AFAA@C?A?G?ADB?GAC?AABFBAE?C@@B@FA?@@C@B??B?CB?G@CAD@B?DBBD@?P","encodedPoints":"_gzxHdeN_DcBqI}EKDUKASUj@ULOCOIkC[_AEeDBs@d@m@n@[rA?r@L`BzChJC`Ac@`Cg@~AUf@a@b@c@`AoC|EKWC{@yBSaA[CgAIYKKu@K_Bm@_@]}@gAkABsCb@ShCUpHlE?x@EtFo@Po@F{AzDZGmAc@mDK]MSu@s@qAPwAIe@a@MQSw@@ISmJzABZAj@UDEvBgBZ_@x@{APg@P}@hAoDd@e@nEiDO_@Q}@OG?YPs@QcFFmHOcHuC`AiAzA{FjJAXDh@BPFXP\\XVJBV?LALGJSDU@q@B]P{@B{CKk@TQLUXy@^k@hA{ARM`Cs@F|A@p@A`MPbFIvAKWiAVaErAy@p@_EhAaBQ{Bs@e@]iKcJE@U[WoAOaA?qAUgIWqBc@{AcAuCoDkIo@aASQyBuAmJ}E}AaCOm@IOQCwCh@iAeAuFaGsBqC@cACmLkGoFeIyHy@{@kBcBgBi@uE}AwDo@gDSeDcAUSIQMy@CeAK[iDgOsAwHD}Cf@kGCe@DsALu@Na@v@yGfCgRgBu@_KuEqGkDmG{EQq@KWOo@EqALiARwAbAaDj@uCGk@_@yAkB}BaFkIoCeKOu@]_DQoEYeCa@}@I_@CqDF}BL_BV_L@}BGiDOoD?qAJaFAiAQqEQsFb@wADsA?gAgBaCeAkAe@GcIuFQ@OLWv@IL[k@`@oAOa@uAuAs@e@q@m@","Color":"993333","hasRunTwo":1,"startPoint":{"Latitude":51.421446,"Longitude":-0.077784},"endPoint":{"Latitude":51.460558,"Longitude":-0.010963}}]}


