{"Stops" : [{"StopId":1643,"StopCode":"25678","PointLetter":"CC","StopName":"Acton Green","Latitude":51.496451,"Longitude":-0.264840,"Action":0},{"StopId":1616,"StopCode":"11345","PointLetter":"L","StopName":"The Orchard","Latitude":51.495740,"Longitude":-0.258125,"Action":0},{"StopId":1617,"StopCode":"11337","PointLetter":"LL","StopName":"Turnham Green Station","Latitude":51.495969,"Longitude":-0.254198,"Action":0},{"StopId":1598,"StopCode":"11333","PointLetter":"","StopName":"Abinger Road","Latitude":51.496971,"Longitude":-0.249650,"Action":0},{"StopId":1605,"StopCode":"11339","PointLetter":"SA","StopName":"Flanchford Road","Latitude":51.498656,"Longitude":-0.244413,"Action":0},{"StopId":1629,"StopCode":"1784","PointLetter":"SB","StopName":"Askew Road","Latitude":51.499626,"Longitude":-0.240111,"Action":0},{"StopId":1606,"StopCode":"685","PointLetter":"SC","StopName":"Paddenswick Road","Latitude":51.500259,"Longitude":-0.236816,"Action":0},{"StopId":1607,"StopCode":"6214","PointLetter":"SD","StopName":"Cathnor Road","Latitude":51.500811,"Longitude":-0.234043,"Action":0},{"StopId":1644,"StopCode":"6212","PointLetter":"SE","StopName":"St Stephens Avenue","Latitude":51.501555,"Longitude":-0.231464,"Action":0},{"StopId":1578,"StopCode":"847","PointLetter":"L","StopName":"Goldhawk Road Station","Latitude":51.502355,"Longitude":-0.227312,"Action":0},{"StopId":1658,"StopCode":"840","PointLetter":"M","StopName":"Shepherds Bush Road","Latitude":51.503037,"Longitude":-0.224259,"Action":0},{"StopId":1566,"StopCode":"HF020","PointLetter":"N","StopName":"Shepherds Bush Green","Latitude":51.503882,"Longitude":-0.224212,"Action":0},{"StopId":1620,"StopCode":"14441","PointLetter":"X","StopName":"Shepherds Bush Station","Latitude":51.504522,"Longitude":-0.220124,"Action":0},{"StopId":1583,"StopCode":"836","PointLetter":"HJ","StopName":"Royal Crescent","Latitude":51.505209,"Longitude":-0.214477,"Action":0},{"StopId":1634,"StopCode":"1061","PointLetter":"HK","StopName":"Norland Square","Latitude":51.506111,"Longitude":-0.209946,"Action":0},{"StopId":1567,"StopCode":"28421","PointLetter":"HL","StopName":"Holland Park Station","Latitude":51.507454,"Longitude":-0.204864,"Action":0},{"StopId":1650,"StopCode":"1268","PointLetter":"D","StopName":"Notting Hill Gate Station  / Hillgate St","Latitude":51.508839,"Longitude":-0.198354,"Action":0},{"StopId":1635,"StopCode":"1264","PointLetter":"M","StopName":"Palace Gardens Terrace","Latitude":51.509716,"Longitude":-0.193405,"Action":0},{"StopId":1612,"StopCode":"3238","PointLetter":"T","StopName":"Orme Square","Latitude":51.510181,"Longitude":-0.189193,"Action":0},{"StopId":1613,"StopCode":"691","PointLetter":"C","StopName":"Queensway Station","Latitude":51.510397,"Longitude":-0.186288,"Action":0},{"StopId":21270,"StopCode":"BP5626","PointLetter":"LF","StopName":"Leinster Terrace","Latitude":51.510727,"Longitude":-0.182052,"Action":0},{"StopId":1651,"StopCode":"864","PointLetter":"LE","StopName":"Lancaster Gate","Latitude":51.511179,"Longitude":-0.179325,"Action":0},{"StopId":1568,"StopCode":"35904","PointLetter":"LA","StopName":"Lancaster Gate Station","Latitude":51.512064,"Longitude":-0.176061,"Action":0},{"StopId":1652,"StopCode":"3234","PointLetter":"LB","StopName":"Victoria Gate","Latitude":51.512186,"Longitude":-0.171214,"Action":0},{"StopId":1621,"StopCode":"1643","PointLetter":"D","StopName":"Hyde Park Street","Latitude":51.512573,"Longitude":-0.167178,"Action":0},{"StopId":1614,"StopCode":"29632","PointLetter":"C","StopName":"Marble Arch / Bayswater Road","Latitude":51.513125,"Longitude":-0.162212,"Action":0},{"StopId":1561,"StopCode":"4803","PointLetter":"L","StopName":"Marble Arch Station","Latitude":51.513712,"Longitude":-0.156668,"Action":0},{"StopId":1645,"StopCode":"153","PointLetter":"BB","StopName":"Selfridges","Latitude":51.514067,"Longitude":-0.152921,"Action":0},{"StopId":1562,"StopCode":"829","PointLetter":"OE","StopName":"Old Cavendish Street","Latitude":51.514814,"Longitude":-0.146117,"Action":0},{"StopId":4234,"StopCode":"16575","PointLetter":"RG","StopName":"Oxford Circus Station","Latitude":51.514590,"Longitude":-0.141644,"Action":0},{"StopId":1630,"StopCode":"16574","PointLetter":"T","StopName":"Conduit Street / Hamleys Toy Store","Latitude":51.512341,"Longitude":-0.139833,"Action":0},{"StopId":5649,"StopCode":"150","PointLetter":"F","StopName":"Piccadilly Circus","Latitude":51.509949,"Longitude":-0.136457,"Action":0},{"StopId":1631,"StopCode":"37630","PointLetter":"U","StopName":"Charles I I Street","Latitude":51.508038,"Longitude":-0.132803,"Action":0}], "Routes" : [{"Id":7173,"Route":"94","From":"Acton Green","Towards":"Charles I I Street","Run":"1","IsDay":1,"encodedLevels":"P@@B?@AAE@B?DG@CA?ADB@ABA??A@C??C??A@F?AD???DB@G?C?B?F?BABD??DD@?BE@?A?B?@C@@?C@?ED?AHBAE@@@A@@A?@?B???H@CDAAF@B?C?@@BA@EAFP","encodedPoints":"e|hyHjxr@Fg@T[R{@NwA?Sn@eFd@_BhA{IDoBEm@o@mGsBeQfBu@oD}WqBaNyBqHyAaGe@wB[wBsBeSUcBcAkEaAwGEoBEUCCSkA@S}AiPi@_CIWcCiLcAcJyAyNa@iDiAkJ_@gB[cA_@w@M?e@PUN{EbCYJ_@CMOK[h@aFjAoM^uIBkAA}AIgBI_@Wo@Q?aAq@M_@C_@Ba@@sKaEc]eDsRmCuNyCiPcAsI?m@DYCa@Ga@[sFuAuNeBiPm@sH[gPi@uNYcLMkDo@yIuAgOYuDmAyHuAQ[I}Aq@?{@bA{AxBuEa@eH_AaU{Cem@@[u@uNIS}@uOCiAk@cNYoFw@wPs@}LaAeOm@qIOkCp@OdEuA`EwCDS~ImH`FcFPk@^eCAe@F{BGc@MeBKWMeCJoB?gAKwAnAaBvFgFbB|G","Color":"993333","hasRunTwo":1,"startPoint":{"Latitude":51.496518,"Longitude":-0.265176},"endPoint":{"Latitude":51.507980,"Longitude":-0.133175}},{"Id":6563,"Route":"94","From":"Acton Green","Towards":"Charles I I Street","Run":"1","IsDay":0,"encodedLevels":"P@@B?@AAE@B?DG@CA?ADB@ABA??A@C??C??A@F?AD???DB@G?C?B?F?BABD??DD@?BE@?A?B?@C@@?C@?ED?AHBAE@@@A@@A?@?B???H@CDAAF@B?C?@@BA@EAFP","encodedPoints":"e|hyHjxr@Fg@T[R{@NwA?Sn@eFd@_BhA{IDoBEm@o@mGsBeQfBu@oD}WqBaNyBqHyAaGe@wB[wBsBeSUcBcAkEaAwGEoBEUCCSkA@S}AiPi@_CIWcCiLcAcJyAyNa@iDiAkJ_@gB[cA_@w@M?e@PUN{EbCYJ_@CMOK[h@aFjAoM^uIBkAA}AIgBI_@Wo@Q?aAq@M_@C_@Ba@@sKaEc]eDsRmCuNyCiPcAsI?m@DYCa@Ga@[sFuAuNeBiPm@sH[gPi@uNYcLMkDo@yIuAgOYuDmAyHuAQ[I}Aq@?{@bA{AxBuEa@eH_AaU{Cem@@[u@uNIS}@uOCiAk@cNYoFw@wPs@}LaAeOm@qIOkCp@OdEuA`EwCDS~ImH`FcFPk@^eCAe@F{BGc@MeBKWMeCJoB?gAKwAnAaBvFgFbB|G","Color":"663366","hasRunTwo":1,"startPoint":{"Latitude":51.496518,"Longitude":-0.265176},"endPoint":{"Latitude":51.507980,"Longitude":-0.133175}}]}


