{"Stops" : [{"StopId":14780,"StopCode":"34016","PointLetter":"C","StopName":"Chingford Station","Latitude":51.633516,"Longitude":0.010000,"Action":0},{"StopId":2411,"StopCode":"1135","PointLetter":"E","StopName":"Station Road / Chingford Station","Latitude":51.633035,"Longitude":0.008678,"Action":0},{"StopId":2418,"StopCode":"15985","PointLetter":"G","StopName":"Stanley Road","Latitude":51.631781,"Longitude":0.005242,"Action":0},{"StopId":2407,"StopCode":"26995","PointLetter":"J","StopName":"Station Road / The Green","Latitude":51.630890,"Longitude":0.002139,"Action":0},{"StopId":14356,"StopCode":"2311","PointLetter":"Q","StopName":"Kings Head Hill","Latitude":51.630893,"Longitude":-0.001719,"Action":0},{"StopId":14727,"StopCode":"9479","PointLetter":"T","StopName":"Chingford Fire Station","Latitude":51.629553,"Longitude":-0.003844,"Action":0},{"StopId":14597,"StopCode":"7515","PointLetter":"M","StopName":"Endlebury Road","Latitude":51.626857,"Longitude":-0.008196,"Action":0},{"StopId":13993,"StopCode":"7541","PointLetter":"N","StopName":"Mansfield Hill","Latitude":51.627041,"Longitude":-0.011092,"Action":0},{"StopId":14087,"StopCode":"18078","PointLetter":"Q","StopName":"Ridgeway Park","Latitude":51.625546,"Longitude":-0.014697,"Action":0},{"StopId":13818,"StopCode":"2425","PointLetter":"Z","StopName":"Chingford Old Church","Latitude":51.623644,"Longitude":-0.016528,"Action":0},{"StopId":4097,"StopCode":"18075","PointLetter":"B","StopName":"Alpha Road","Latitude":51.620244,"Longitude":-0.016979,"Action":0},{"StopId":2131,"StopCode":"7911","PointLetter":"J","StopName":"Hall Lane","Latitude":51.616634,"Longitude":-0.017324,"Action":0},{"StopId":2127,"StopCode":"7915","PointLetter":"U","StopName":"Larkswood Road","Latitude":51.613894,"Longitude":-0.017444,"Action":0},{"StopId":2130,"StopCode":"BP2958","PointLetter":"V","StopName":"Ainslie Wood Road","Latitude":51.612157,"Longitude":-0.017881,"Action":0},{"StopId":2125,"StopCode":"7919","PointLetter":"","StopName":"Leonard Road","Latitude":51.609588,"Longitude":-0.017502,"Action":0},{"StopId":2122,"StopCode":"7923","PointLetter":"","StopName":"Higham Station Avenue","Latitude":51.607327,"Longitude":-0.016791,"Action":0},{"StopId":2119,"StopCode":"7927","PointLetter":"CC","StopName":"Rowden Park Gardens","Latitude":51.605199,"Longitude":-0.016451,"Action":0},{"StopId":2113,"StopCode":"24339","PointLetter":"CD","StopName":"Walthamstow Stadium","Latitude":51.603481,"Longitude":-0.016381,"Action":0},{"StopId":1000,"StopCode":"33673","PointLetter":"CE","StopName":"Crooked Billet Roundabout","Latitude":51.599596,"Longitude":-0.015872,"Action":0},{"StopId":986,"StopCode":"7935","PointLetter":"CF","StopName":"Brettenham Road","Latitude":51.597924,"Longitude":-0.015353,"Action":0},{"StopId":1042,"StopCode":"7937","PointLetter":"BK","StopName":"Sir George Monoux College","Latitude":51.594848,"Longitude":-0.015862,"Action":0},{"StopId":1003,"StopCode":"7941","PointLetter":"BL","StopName":"Aveling Park Road","Latitude":51.593810,"Longitude":-0.017236,"Action":0},{"StopId":982,"StopCode":"7945","PointLetter":"BM","StopName":"Forest Road Bell Corner","Latitude":51.590619,"Longitude":-0.017288,"Action":0},{"StopId":247,"StopCode":"7949","PointLetter":"BN","StopName":"Jewel Road","Latitude":51.588502,"Longitude":-0.020281,"Action":0},{"StopId":77,"StopCode":"33832","PointLetter":"J","StopName":"Walthamstow Market","Latitude":51.585359,"Longitude":-0.019451,"Action":0},{"StopId":842,"StopCode":"R0036","PointLetter":"AP","StopName":"Walthamstow Central Station","Latitude":51.583099,"Longitude":-0.019809,"Action":0},{"StopId":14070,"StopCode":"BP4272","PointLetter":"C","StopName":"Walthamstow Bus Station","Latitude":51.583892,"Longitude":-0.020424,"Action":0},{"StopId":841,"StopCode":"11481","PointLetter":"K","StopName":"Grosvenor Park Road","Latitude":51.579571,"Longitude":-0.018028,"Action":0},{"StopId":847,"StopCode":"7962","PointLetter":"SJ","StopName":"Grove Road","Latitude":51.577773,"Longitude":-0.016489,"Action":0},{"StopId":855,"StopCode":"7964","PointLetter":"SK","StopName":"Bakers Avenue","Latitude":51.576207,"Longitude":-0.014768,"Action":0},{"StopId":2583,"StopCode":"7967","PointLetter":"SL","StopName":"Leyton Green","Latitude":51.574330,"Longitude":-0.010664,"Action":0},{"StopId":2582,"StopCode":"7971","PointLetter":"SM","StopName":"Colchester Road","Latitude":51.572563,"Longitude":-0.008288,"Action":0},{"StopId":2580,"StopCode":"7973","PointLetter":"SN","StopName":"Leyton Midland Road Station","Latitude":51.569432,"Longitude":-0.008194,"Action":0},{"StopId":2579,"StopCode":"7975","PointLetter":"SP","StopName":"Leyton Sports Ground","Latitude":51.568017,"Longitude":-0.008545,"Action":0},{"StopId":14482,"StopCode":"7979","PointLetter":"S","StopName":"Vicarage Road","Latitude":51.565231,"Longitude":-0.010744,"Action":0},{"StopId":14706,"StopCode":"R0472","PointLetter":"P","StopName":"Grange Park Road","Latitude":51.563225,"Longitude":-0.010745,"Action":0},{"StopId":13805,"StopCode":"7986","PointLetter":"L","StopName":"Buckingham Road","Latitude":51.560572,"Longitude":-0.009663,"Action":0},{"StopId":14724,"StopCode":"7988","PointLetter":"J","StopName":"Leyton Library","Latitude":51.559068,"Longitude":-0.007421,"Action":0},{"StopId":14905,"StopCode":"7991","PointLetter":"A","StopName":"Leyton Station","Latitude":51.555922,"Longitude":-0.005394,"Action":0},{"StopId":14151,"StopCode":"7995","PointLetter":"F","StopName":"Millais Road","Latitude":51.553921,"Longitude":-0.005121,"Action":0},{"StopId":14295,"StopCode":"7997","PointLetter":"G","StopName":"Temple Mills Lane","Latitude":51.551840,"Longitude":-0.004361,"Action":0},{"StopId":14387,"StopCode":"R0362","PointLetter":"H","StopName":"Thornham Grove","Latitude":51.548439,"Longitude":-0.002664,"Action":0},{"StopId":21366,"StopCode":"BP5604","PointLetter":"T","StopName":"Stratford City Bus Station","Latitude":51.543301,"Longitude":-0.004101,"Action":0}], "Routes" : [{"Id":11267,"Route":"N97","From":"Hammersmith Bus Station","Towards":"Whitehall / Trafalgar Square","Run":"1","IsDay":0,"encodedLevels":"PA?DAC@@?D?BD?BB?G?ACB?A?IAAACABD@B@@CCA?HBAH?A?H?A@C@DA@@?@EE?HAF@@AC?A@F@ABCA@BF?AB@B@AAFA@@AD?@?CA@HA?EABAE@?B@B@E@A?A@@CP","encodedPoints":"qahyH~xj@`BsBHQ@OnAHnE]t@]lFuAVK~Bu@fC}CrCaDzAeAbAi@p@W~EgAvBaA~@i@Is@@a@b@uI|@_Ip@yCh@mCDc@?i@o@qG_@qBWcGa@wDmAmF{@eF}AeMe@aCeAqDYw@kAuBI[oCqSaBsH{DuNiDaMaBdCyRdd@yBjESa@Uo@kGgVw@aDIw@Em@Bw@U{MF}IV}NiAo_@QyBm@qRBe@IOKmFbH_AIwBq@sKiC^oCJCe@Dg@I}Co@uJI]_AmHa@uBq@iC_BkDQEyBmEwF_OmCcFo@cAkE{FgCwEQ{@I{@cAqQoAoJs@uHGeB}@_N?mBS_BoEaMuEiLmAoCaEsKmEiM[eAmAgFe@{BkDkOiAqCOE_@u@F}A?w@KwAnAaBbIgHt@k@^CBoDVoIJqBSWEY@m@HSDINATHFFNIZARF|D_B","Color":"993333","hasRunTwo":1,"startPoint":{"Latitude":51.492256,"Longitude":-0.224311},"endPoint":{"Latitude":51.506011,"Longitude":-0.127001}},{"Id":1490,"Route":"97","From":"Chingford Station","Towards":"Stratford City Bus Station","Run":"1","IsDay":1,"encodedLevels":"P?ACB?BBAFAB@F@BA?CBE@ACAF@B??D?AJ@A@C@B?D?AB?CB@@CBF@CDCAADA@B@D@BA@DA@@A??BGBE?AF?@BBAF?@@D@AGABC?C?AC?A?AFBC?CC?E@A?CB@E?ACHBABF@B?@CB@EAB?AF?B?@CA@BB@C?HAA@C?FBAD?@G?C?BE?B?EAFB?B@CAEF?A?BGBAFCBAP","encodedPoints":"ctczH__A?NG^S`@|EhP|CdM~@hETpC`B`HbAdCgAvA_CdEUv@Il@l@v@|DxGvEzITl@fD`HfAr@zDvGZnAHr@DrBu@~NQb@NTrHjQLh@Ln@nArEf@X^JnAPjBHtDDt@Ip@?lJpAhJfA|@J`G\\RMPGzAGxGAzABvDb@h@R\\T|Aj@tEOpAXz@ExEo@hI_DnXkBrDDRGxIV^SFa@b@w@n@q@HAV?PHVd@bAXP@j@KDKNCDDVKdFeA\\MzE]hLfBlDxALPFLtB~Il@Gd@IxFiA~FeBv@IRHXh@~BvFTv@tB~E~@~@`@V|@Xl@FlASnB}@RQhAaBv@QpI{AdBi@ZSXU^i@h@m@d@OVXCx@{@PKFKjBFl@JnCM@IEEKUYmC@IDITBVDHJBnD@ZQWyCIuEZa@d@OZCVHb@R~@PjAYbIIl@GdA_@xDaCpCqCl@k@hF{DLWdBaFNs@TaB^yA^o@l@e@Rc@~CmJ~@_C~CaH\\U^O|AOhEDnDMvFC`AL|Dr@lAp@d@|@|FpFr@Lp@PxFlBpHiAhAUzD}A`Bi@`E}Bl@sAvDoHRUfAeAlBgA|KaFrA[r@?fFQdBQdFy@d@_@bF_Bn@zCtF}EpBkBxC_DnGqGfAg@r@dG\\zG?rApBe@xEB|Cb@fA@","Color":"663366","hasRunTwo":1,"startPoint":{"Latitude":51.633467,"Longitude":0.010248},"endPoint":{"Latitude":51.543283,"Longitude":-0.004156}}]}


