{"Stops" : [{"StopId":11322,"StopCode":"27306","PointLetter":"M","StopName":"Market Place / Bexleyheath Clock Tower","Latitude":51.456486,"Longitude":0.146462,"Action":0},{"StopId":11556,"StopCode":"6287","PointLetter":"A","StopName":"Bexleyheath Asda","Latitude":51.457234,"Longitude":0.140005,"Action":0},{"StopId":11725,"StopCode":"6290","PointLetter":"BM","StopName":"Lion Road","Latitude":51.457913,"Longitude":0.135272,"Action":0},{"StopId":11724,"StopCode":"6294","PointLetter":"BN","StopName":"Upton Road","Latitude":51.458387,"Longitude":0.131969,"Action":0},{"StopId":11443,"StopCode":"BP2437","PointLetter":"BQ","StopName":"Crook Log / Dallin Road","Latitude":51.458984,"Longitude":0.128326,"Action":0},{"StopId":17974,"StopCode":"12075","PointLetter":"BP","StopName":"Danson Road / Crook Log","Latitude":51.458746,"Longitude":0.123608,"Action":0},{"StopId":17799,"StopCode":"12076","PointLetter":"BR","StopName":"The Grove","Latitude":51.456748,"Longitude":0.123169,"Action":0},{"StopId":17904,"StopCode":"29469","PointLetter":"S","StopName":"Danson Road / Sandhurst Road","Latitude":51.452262,"Longitude":0.123090,"Action":0},{"StopId":17975,"StopCode":"12078","PointLetter":"T","StopName":"Danson Underpass","Latitude":51.449447,"Longitude":0.119621,"Action":0},{"StopId":19974,"StopCode":"HC1","PointLetter":"","StopName":"Hail & Ride Section","Latitude":51.439879,"Longitude":0.118127,"Action":0},{"StopId":16879,"StopCode":"26566","PointLetter":"E","StopName":"Foots Cray Lane / Hurst Road","Latitude":51.438343,"Longitude":0.119020,"Action":0},{"StopId":17279,"StopCode":"26564","PointLetter":"F","StopName":"Canterbury Avenue","Latitude":51.436589,"Longitude":0.119543,"Action":0},{"StopId":19969,"StopCode":"HC5","PointLetter":"","StopName":"Hail & Ride Section","Latitude":51.431979,"Longitude":0.121300,"Action":0},{"StopId":19968,"StopCode":"HC2","PointLetter":"","StopName":"Hail & Ride Section","Latitude":51.431837,"Longitude":0.121740,"Action":0},{"StopId":18014,"StopCode":"BP1297","PointLetter":"","StopName":"Bexley Lane / Cleeve Park School","Latitude":51.429762,"Longitude":0.119126,"Action":0},{"StopId":19967,"StopCode":"HC3","PointLetter":"","StopName":"Hail & Ride Section","Latitude":51.426094,"Longitude":0.105060,"Action":0},{"StopId":7759,"StopCode":"R0548","PointLetter":"U","StopName":"Sidcup High Street / Station Road","Latitude":51.426343,"Longitude":0.101706,"Action":0},{"StopId":7460,"StopCode":"20437","PointLetter":"S","StopName":"Elm Road / Sidcup Police Station","Latitude":51.425439,"Longitude":0.100988,"Action":0},{"StopId":7689,"StopCode":"16651","PointLetter":"W","StopName":"The Green","Latitude":51.424204,"Longitude":0.101118,"Action":0},{"StopId":17925,"StopCode":"BP1845","PointLetter":"HB","StopName":"Queen Mary's Hospital / 'B' Block","Latitude":51.418633,"Longitude":0.104861,"Action":0},{"StopId":17924,"StopCode":"BP1846","PointLetter":"HA","StopName":"Queen Mary's Hospital / A&E","Latitude":51.419848,"Longitude":0.101336,"Action":0},{"StopId":15068,"StopCode":"16649","PointLetter":"HH","StopName":"Queen Mary's Hospital","Latitude":51.419511,"Longitude":0.099047,"Action":0},{"StopId":7394,"StopCode":"BP4209","PointLetter":"M","StopName":"Kemnal Technology College","Latitude":51.411262,"Longitude":0.112676,"Action":0},{"StopId":7630,"StopCode":"26124","PointLetter":"E","StopName":"Midfield Way / Sevenoaks Way","Latitude":51.409053,"Longitude":0.112014,"Action":0},{"StopId":7457,"StopCode":"26126","PointLetter":"J","StopName":"Croxley Green","Latitude":51.408819,"Longitude":0.106539,"Action":0},{"StopId":7631,"StopCode":"26128","PointLetter":"K","StopName":"Midfield Way / Chipperfield Road","Latitude":51.408700,"Longitude":0.103657,"Action":0},{"StopId":7529,"StopCode":"26130","PointLetter":"L","StopName":"Breakspears Drive","Latitude":51.408451,"Longitude":0.099001,"Action":0},{"StopId":7455,"StopCode":"26132","PointLetter":"M","StopName":"Beddington Road","Latitude":51.406887,"Longitude":0.096427,"Action":0},{"StopId":7632,"StopCode":"26134","PointLetter":"N","StopName":"Chorleywood Crescent","Latitude":51.404854,"Longitude":0.099455,"Action":0},{"StopId":7841,"StopCode":"26136","PointLetter":"P","StopName":"Kings Church","Latitude":51.403585,"Longitude":0.103538,"Action":0},{"StopId":7453,"StopCode":"26138","PointLetter":"R","StopName":"Ravenscourt Road","Latitude":51.400462,"Longitude":0.103682,"Action":0},{"StopId":7452,"StopCode":"26140","PointLetter":"S","StopName":"Longbury Drive","Latitude":51.398508,"Longitude":0.106353,"Action":0},{"StopId":7842,"StopCode":"26142","PointLetter":"SB","StopName":"St Mary Cray Station","Latitude":51.395701,"Longitude":0.107374,"Action":0},{"StopId":7536,"StopCode":"18997","PointLetter":"SG","StopName":"Nugent Retail Park","Latitude":51.393491,"Longitude":0.111772,"Action":0},{"StopId":7444,"StopCode":"18999","PointLetter":"SH","StopName":"Stanley Way","Latitude":51.390527,"Longitude":0.110572,"Action":0},{"StopId":7442,"StopCode":"19001","PointLetter":"ST","StopName":"Kent Road","Latitude":51.388752,"Longitude":0.109757,"Action":0},{"StopId":7646,"StopCode":"35743","PointLetter":"P","StopName":"High Street / Carlton Parade","Latitude":51.381594,"Longitude":0.105748,"Action":0},{"StopId":7595,"StopCode":"12444","PointLetter":"W","StopName":"High Street / Church Hill","Latitude":51.379242,"Longitude":0.102536,"Action":0},{"StopId":7412,"StopCode":"12442","PointLetter":"U","StopName":"Walnuts Centre","Latitude":51.377088,"Longitude":0.100296,"Action":0},{"StopId":7377,"StopCode":"12240","PointLetter":"S","StopName":"High Street / Orpington War Memorial","Latitude":51.374148,"Longitude":0.098251,"Action":0},{"StopId":7819,"StopCode":"13953","PointLetter":"J","StopName":"Tubbenden Lane","Latitude":51.371760,"Longitude":0.091475,"Action":0},{"StopId":7757,"StopCode":"R0398","PointLetter":"G","StopName":"Orpington Station","Latitude":51.373188,"Longitude":0.089557,"Action":0}], "Routes" : [{"Id":4041,"Route":"B14","From":"Market Place / Bexleyheath Clock Tower","Towards":"Orpington Station","Run":"1","IsDay":1,"encodedLevels":"P?@D@DBBDDBADA?DAAB?A?@J?C@DCBCF@BD@??B?@D@B@?FB@@B?@EA?CAAF?@AC?AHAC?@?D@?@A@DBAE?@@G?DFAD??B@@I?BF?A??AG?A?D?E?EBDCBAA@G?DA?BD@BG?D@AEEACAF?AC?@IA@E?@@@D?BC?C?H?A@CF@@@D@AHB@BAB?FBBAD?BH?B?EA??@D@AA@D@B@IA?C?BD@E?G@A?E?B?CA?I@C??C?AE?@GACA?FAC?@@CC@CE@BA@G@CB@AHC?DB?AE@C@AI@AB@C@F?@A@D?B@AG@?@B@DABBFA?DP","encodedPoints":"_cayHsx[BPFhAFhCKDcBBMpE]NSvBQbGz@`Al@nABd@o@lIa@bKB?Gd@KCMb@qAtP_BpTu@vH_BpQqBvUbBh@rDdAtBZxJz@|Hh@bGaA|AA|Bf@xBrAjA|@vB~BALIPIHSd@AX@h@N|@Pl@\\l@VVVP\\NnHrC\\BBGn@CBDRLf@JtAIj@MxBs@~BEhIo@hDGNPXn@~CdF|AfBVPHBt@?rCw@xC}ALQN_@@SDQNCF?DDh@IzJ}BzLeCrCoArDaEd@YL?JDv@f@zC~@R{DBKlGaKqBiCcBwC[eAc@cBGYIq@BuAGuAyKfBmAPkAj@NdAHx@?z@Cd@?^h@nNzBSVGv@?HBVPbHvDCFSzDhBr@hH`GlGjJ~DvD|DpEf@bAxFbG`@l@[nAq@hDmDfBoDxAiBp@sBtA_@hAc@t@gBlB~BnHJTPLb@NnCh@a@jHhB^n@`@~CvCbBvBy@vAQ^m@|BIh@Cd@e@rJzE@vH_@P@D@NLhCnC\\f@n@b@n@RlB\\pGb@^e@JE`Ad@|Bz@R]Pe@`AgFZiAjFqLKQYoAg@qAQW]]iDwBqAg@e@bEB`AE|BWdAeBdPDp@?x@j@XKt@b@NtBbBZBRArAcAjKaWbA}B|CqJv@kCz@uD~@sFr@uDpB}Kh@qDD{@AaAUy@Gq@BU^eAh@{@XEPBh@TJJJRNtA?d@^p@PLxBf@bCQjJc@Jh@B~@tAr`AVlNJpANjAz@nDPf@l@tAx@rAvAnBzAgDRUNMPGpD{Bd@s@Rg@l@aCL}@HaAhBmZbBn@`HpDrAVd@?VC~Ae@d@a@^c@f@y@tCmFbDeF~EyEJBZ\\v@uBb@Tj@LvCStCAJFh@}@FWNoUCe@Sw@@w@pJpAfF~ApKxCzKpDvMrGlClAzAb@~AN~A?r@KpBk@zASPLd@hAb@bBRpAhAnF~BbFj@`A`@^\\TdEnERZbI|IlCnBr@d@rSxKFC\\\\A^KTI^Cn@@jEHx@hBbHnAzCtAzFAlAGhBUrAYrAmF~C","Color":"993333","hasRunTwo":1,"startPoint":{"Latitude":51.456648,"Longitude":0.147467},"endPoint":{"Latitude":51.373278,"Longitude":0.089537}}]}


