{"Stops" : [{"StopId":11646,"StopCode":"25605","PointLetter":"NW","StopName":"Bexleyheath Bus Garage","Latitude":51.459577,"Longitude":0.152998,"Action":0},{"StopId":11780,"StopCode":"29545","PointLetter":"NQ","StopName":"Tower Road","Latitude":51.457841,"Longitude":0.150541,"Action":0},{"StopId":11322,"StopCode":"27306","PointLetter":"M","StopName":"Market Place / Bexleyheath Clock Tower","Latitude":51.456486,"Longitude":0.146462,"Action":0},{"StopId":11556,"StopCode":"6287","PointLetter":"A","StopName":"Bexleyheath Asda","Latitude":51.457234,"Longitude":0.140005,"Action":0},{"StopId":11725,"StopCode":"6290","PointLetter":"BM","StopName":"Lion Road","Latitude":51.457913,"Longitude":0.135272,"Action":0},{"StopId":11724,"StopCode":"6294","PointLetter":"BN","StopName":"Upton Road","Latitude":51.458387,"Longitude":0.131969,"Action":0},{"StopId":11443,"StopCode":"BP2437","PointLetter":"BQ","StopName":"Crook Log / Dallin Road","Latitude":51.458984,"Longitude":0.128326,"Action":0},{"StopId":11536,"StopCode":"37322","PointLetter":"BT","StopName":"Park View Road / Crook Log","Latitude":51.459797,"Longitude":0.123181,"Action":0},{"StopId":11386,"StopCode":"6301","PointLetter":"BU","StopName":"Bethel Road","Latitude":51.460356,"Longitude":0.120098,"Action":0},{"StopId":11723,"StopCode":"6303","PointLetter":"BV","StopName":"Guy, Earl Of Warwick","Latitude":51.460883,"Longitude":0.116811,"Action":0},{"StopId":11663,"StopCode":"9182","PointLetter":"R","StopName":"Welling High Street / Upper Wickham Lane","Latitude":51.462211,"Longitude":0.109026,"Action":0},{"StopId":11418,"StopCode":"18938","PointLetter":"P","StopName":"Bellegrove Road / Churchfield Road","Latitude":51.462567,"Longitude":0.106696,"Action":0},{"StopId":11779,"StopCode":"29308","PointLetter":"G","StopName":"Ruskin Drive","Latitude":51.463134,"Longitude":0.103152,"Action":0},{"StopId":11641,"StopCode":"3905","PointLetter":"D","StopName":"Ruskin Avenue / Welling Station","Latitude":51.463520,"Longitude":0.100693,"Action":0},{"StopId":11800,"StopCode":"44002","PointLetter":"","StopName":"Darwin Road","Latitude":51.462317,"Longitude":0.097096,"Action":0},{"StopId":11620,"StopCode":"44004","PointLetter":"","StopName":"Cambridge Avenue","Latitude":51.459702,"Longitude":0.096948,"Action":0},{"StopId":11525,"StopCode":"25776","PointLetter":"","StopName":"Yorkland Avenue","Latitude":51.457986,"Longitude":0.098366,"Action":0},{"StopId":11616,"StopCode":"33750","PointLetter":"","StopName":"The Green","Latitude":51.455980,"Longitude":0.094906,"Action":0},{"StopId":11765,"StopCode":"33749","PointLetter":"K","StopName":"Falconwood Community Centre","Latitude":51.456785,"Longitude":0.091603,"Action":0},{"StopId":11587,"StopCode":"33752","PointLetter":"L","StopName":"Buckingham Avenue","Latitude":51.456578,"Longitude":0.090096,"Action":0},{"StopId":11540,"StopCode":"33754","PointLetter":"M","StopName":"Northumberland Avenue","Latitude":51.458739,"Longitude":0.084912,"Action":0},{"StopId":11589,"StopCode":"33756","PointLetter":"N","StopName":"Millbrook Avenue","Latitude":51.459068,"Longitude":0.084135,"Action":0},{"StopId":11542,"StopCode":"33758","PointLetter":"P","StopName":"Falconwood Station","Latitude":51.458759,"Longitude":0.080220,"Action":0},{"StopId":10929,"StopCode":"BP4363","PointLetter":"R","StopName":"Rochester Way / Falconwood Station","Latitude":51.459222,"Longitude":0.078499,"Action":0},{"StopId":10943,"StopCode":"36666","PointLetter":"S","StopName":"Rochester Way / Welling Way","Latitude":51.461421,"Longitude":0.075691,"Action":0},{"StopId":10823,"StopCode":"17671","PointLetter":"U","StopName":"Oxleas Meadow","Latitude":51.462387,"Longitude":0.067788,"Action":0},{"StopId":10852,"StopCode":"17512","PointLetter":"V","StopName":"Rochester Way / Glenesk Road","Latitude":51.461835,"Longitude":0.063948,"Action":0},{"StopId":10914,"StopCode":"R0573","PointLetter":"","StopName":"Westmount Road / Rochester Way","Latitude":51.460525,"Longitude":0.058131,"Action":0},{"StopId":10737,"StopCode":"17508","PointLetter":"","StopName":"Eltham Park Methodist Church","Latitude":51.459213,"Longitude":0.058619,"Action":0},{"StopId":10851,"StopCode":"17506","PointLetter":"","StopName":"Eltham Park Gardens","Latitude":51.456161,"Longitude":0.059791,"Action":0},{"StopId":10821,"StopCode":"18643","PointLetter":"","StopName":"Gourock Road","Latitude":51.453813,"Longitude":0.061413,"Action":0},{"StopId":10738,"StopCode":"17504","PointLetter":"","StopName":"Westmount Road / Eltham High Street","Latitude":51.451283,"Longitude":0.062609,"Action":0},{"StopId":11649,"StopCode":"16667","PointLetter":"","StopName":"Eltham High Street / Foots Cray Road","Latitude":51.450704,"Longitude":0.061258,"Action":0},{"StopId":11850,"StopCode":"20548","PointLetter":"P","StopName":"Eltham High Street / Roper Street","Latitude":51.450667,"Longitude":0.057227,"Action":0},{"StopId":11614,"StopCode":"3381","PointLetter":"M","StopName":"Eltham High Street / Chequers Parade","Latitude":51.450682,"Longitude":0.053284,"Action":0},{"StopId":11398,"StopCode":"26668","PointLetter":"H","StopName":"Eltham Church / High Street","Latitude":51.450843,"Longitude":0.051319,"Action":0},{"StopId":11317,"StopCode":"19660","PointLetter":"","StopName":"Kingsground","Latitude":51.451363,"Longitude":0.046737,"Action":0},{"StopId":11318,"StopCode":"19658","PointLetter":"WD","StopName":"Greenway","Latitude":51.452596,"Longitude":0.039998,"Action":0},{"StopId":11659,"StopCode":"2791","PointLetter":"WE","StopName":"Eltham Hill / Park Avenue","Latitude":51.452756,"Longitude":0.038019,"Action":0},{"StopId":10888,"StopCode":"20134","PointLetter":"WP","StopName":"Eltham Road / Westhorne Avenue","Latitude":51.452857,"Longitude":0.034296,"Action":0},{"StopId":10725,"StopCode":"19655","PointLetter":"WR","StopName":"Cedarhurst Drive","Latitude":51.452876,"Longitude":0.029575,"Action":0},{"StopId":11512,"StopCode":"35593","PointLetter":"","StopName":"Tudway Road / Kidbrooke Park Road","Latitude":51.456830,"Longitude":0.028153,"Action":0},{"StopId":11624,"StopCode":"35594","PointLetter":"","StopName":"Romero Square","Latitude":51.458982,"Longitude":0.031127,"Action":0},{"StopId":11764,"StopCode":"35595","PointLetter":"X","StopName":"Tudway Road / Kidbrooke Station","Latitude":51.461867,"Longitude":0.027051,"Action":0},{"StopId":11623,"StopCode":"35596","PointLetter":"","StopName":"Gallus Square","Latitude":51.463246,"Longitude":0.023254,"Action":0},{"StopId":11622,"StopCode":"35597","PointLetter":"","StopName":"Wingfield School","Latitude":51.461314,"Longitude":0.021614,"Action":0},{"StopId":21358,"StopCode":"BP5639","PointLetter":"","StopName":"Moorehead Way / Weigall Road","Latitude":51.459389,"Longitude":0.022638,"Action":0},{"StopId":11370,"StopCode":"BP4208","PointLetter":"L","StopName":"Kidbrooke Health Centre","Latitude":51.461108,"Longitude":0.026241,"Action":0},{"StopId":11309,"StopCode":"BP4188","PointLetter":"C","StopName":"Kidbrooke Station","Latitude":51.462611,"Longitude":0.027718,"Action":0}], "Routes" : [{"Id":3404,"Route":"B16","From":"Bexleyheath Bus Garage","Towards":"Kidbrooke Station","Run":"1","IsDay":1,"encodedLevels":"P@EA?C?G@DBD@DBADA?EAAB?B?@AACA?AC?B???H?BC@F?AF@B@HBDDFCFCB@D@BA@E?AA@F@?CA@I????BH??DBD@H?@@B@?@AI@BBC@ADABD@C?@B@AACADAH@@A@A@D@G?F@B@H@BAD?A?A@D?AG?F?CBEADCA@P","encodedPoints":"mvayHuz\\b@FxCHVvAvFpQbDvKLhC@hAKDcBBMpE]NSvBQbGz@`Al@nABd@o@lIa@bKB?Gd@KCMb@qAtP_BpTu@vH_BpQaCxXaB`OiAxNmAjLOr@_CtOk@bGGnBc@|JYzCaAdM_Ebe@}@tKdEjD`@Z`EzBbBl@rD|@|AwAl@q@nHiJr@bBtB`EtAxBjEtFsD|Ug@xGrBdAuDxU[fAaJhGjAlGu@^KZATh@pGd@zHS~AHt@?XSTKDqJtMaGrIO`@ShAe@nEMjBUrG@`IDtA\\lFBHj@|Hp@`I~@xMtAh\\lDcAnHiBfL}CvEsBjOoJxIcC`Cg@E~AEBCpAQ|JJxEB`D?nIJbEIdKElDUxEc@|Aw@fLGhFBfAWfIs@|FoBfLeAxN[jJI|FFLHd@^vCCROPWLKf@InKNhO[vG{ArQ]CGFWAIK[G_Hm@{Gc@iADwLbA`@|J`@fIaClAgGhCyAh@_G`BWOGQ?e@NOH?HDDNDh@JTND`@KrOmG`CmAa@gIa@}Jc@KkB]iD`@}FDyAoAcA_BGm@V?p@_@\\[","Color":"993333","hasRunTwo":1,"startPoint":{"Latitude":51.459759,"Longitude":0.152910},"endPoint":{"Latitude":51.462549,"Longitude":0.027691}}]}


