{"Stops" : [{"StopId":335,"StopCode":"526","PointLetter":"U","StopName":"Archway Station  / Junction Road","Latitude":51.564933,"Longitude":-0.134931,"Action":0},{"StopId":10044,"StopCode":"34518","PointLetter":"J","StopName":"Whittington Hospital","Latitude":51.566155,"Longitude":-0.137709,"Action":0},{"StopId":10088,"StopCode":"34517","PointLetter":"HJ","StopName":"Dartmouth Park Hill","Latitude":51.565410,"Longitude":-0.140639,"Action":0},{"StopId":10085,"StopCode":"34965","PointLetter":"HK","StopName":"Chester Road","Latitude":51.562944,"Longitude":-0.140524,"Action":0},{"StopId":13134,"StopCode":"35968","PointLetter":"HM","StopName":"Raydon Street","Latitude":51.563724,"Longitude":-0.143190,"Action":0},{"StopId":13105,"StopCode":"34510","PointLetter":"","StopName":"Brookfield Park","Latitude":51.562527,"Longitude":-0.147134,"Action":0},{"StopId":13114,"StopCode":"35739","PointLetter":"GL","StopName":"Parliament Hill Fields","Latitude":51.560669,"Longitude":-0.150167,"Action":0},{"StopId":9676,"StopCode":"11405","PointLetter":"GM","StopName":"William Ellis School","Latitude":51.559459,"Longitude":-0.149322,"Action":0},{"StopId":9746,"StopCode":"11401","PointLetter":"GN","StopName":"Dartmouth Park Road","Latitude":51.557338,"Longitude":-0.147114,"Action":0},{"StopId":13125,"StopCode":"34508","PointLetter":"GO","StopName":"Gordon House Road","Latitude":51.555948,"Longitude":-0.147935,"Action":0},{"StopId":13116,"StopCode":"34506","PointLetter":"GP","StopName":"Gospel Oak Station","Latitude":51.554750,"Longitude":-0.151763,"Action":0},{"StopId":13127,"StopCode":"34504","PointLetter":"GQ","StopName":"Estelle Road","Latitude":51.553872,"Longitude":-0.154857,"Action":0},{"StopId":13112,"StopCode":"34502","PointLetter":"GR","StopName":"Southampton Road / Agincourt Road","Latitude":51.553418,"Longitude":-0.156837,"Action":0},{"StopId":9317,"StopCode":"11442","PointLetter":"GU","StopName":"Fleet Road","Latitude":51.553171,"Longitude":-0.160598,"Action":0},{"StopId":437,"StopCode":"29927","PointLetter":"D","StopName":"Royal Free Hospital","Latitude":51.554046,"Longitude":-0.165351,"Action":0},{"StopId":271,"StopCode":"12053","PointLetter":"E","StopName":"Rosslyn Hill","Latitude":51.553444,"Longitude":-0.168261,"Action":0},{"StopId":320,"StopCode":"12058","PointLetter":"F","StopName":"Rosslyn Hill / Pond Street","Latitude":51.552268,"Longitude":-0.167269,"Action":0},{"StopId":368,"StopCode":"12060","PointLetter":"L","StopName":"Belsize Park Station","Latitude":51.550751,"Longitude":-0.165167,"Action":0},{"StopId":306,"StopCode":"BP2006","PointLetter":"","StopName":"Downside Crescent","Latitude":51.549867,"Longitude":-0.163789,"Action":0},{"StopId":280,"StopCode":"34953","PointLetter":"","StopName":"Upper Park Road","Latitude":51.548599,"Longitude":-0.161503,"Action":0},{"StopId":13099,"StopCode":"BP3204","PointLetter":"","StopName":"England's Lane","Latitude":51.547035,"Longitude":-0.160413,"Action":0},{"StopId":13110,"StopCode":"12064","PointLetter":"","StopName":"Primrose Gardens","Latitude":51.546041,"Longitude":-0.161852,"Action":0},{"StopId":13096,"StopCode":"12068","PointLetter":"S","StopName":"Primrose Hill Road","Latitude":51.544353,"Longitude":-0.162569,"Action":0},{"StopId":5202,"StopCode":"12020","PointLetter":"U","StopName":"Primrose Hill Road","Latitude":51.543471,"Longitude":-0.163109,"Action":0},{"StopId":5132,"StopCode":"12019","PointLetter":"V","StopName":"Elsworthy Rise","Latitude":51.543208,"Longitude":-0.165283,"Action":0},{"StopId":5187,"StopCode":"12017","PointLetter":"W","StopName":"Lower Merton Rise","Latitude":51.542768,"Longitude":-0.168762,"Action":0},{"StopId":5143,"StopCode":"1733","PointLetter":"H","StopName":"Avenue Road","Latitude":51.541887,"Longitude":-0.172201,"Action":0},{"StopId":3543,"StopCode":"12034","PointLetter":"L","StopName":"Swiss Cottage Station  /  Finchley Road","Latitude":51.543174,"Longitude":-0.175221,"Action":0},{"StopId":3523,"StopCode":"33966","PointLetter":"A","StopName":"College Crescent","Latitude":51.544857,"Longitude":-0.176423,"Action":0},{"StopId":13133,"StopCode":"34479","PointLetter":"FP","StopName":"Finchley Road Station","Latitude":51.546222,"Longitude":-0.180349,"Action":0},{"StopId":13140,"StopCode":"34499","PointLetter":"","StopName":"Fairhazel Gardens","Latitude":51.544489,"Longitude":-0.184023,"Action":0},{"StopId":13129,"StopCode":"34500","PointLetter":"F","StopName":"Priory Road","Latitude":51.544092,"Longitude":-0.188553,"Action":0},{"StopId":13128,"StopCode":"34501","PointLetter":"E","StopName":"Cleve Road","Latitude":51.544165,"Longitude":-0.191564,"Action":0},{"StopId":5044,"StopCode":"113","PointLetter":"A","StopName":"West Hampstead Station / Broadhurst Gard","Latitude":51.545871,"Longitude":-0.191396,"Action":0},{"StopId":11200,"StopCode":"BP4986","PointLetter":"N","StopName":"West Hampstead Station","Latitude":51.548556,"Longitude":-0.191116,"Action":0},{"StopId":5119,"StopCode":"12045","PointLetter":"P","StopName":"Dennington Park Road","Latitude":51.549678,"Longitude":-0.191591,"Action":0},{"StopId":5087,"StopCode":"12043","PointLetter":"R","StopName":"West End Green","Latitude":51.551400,"Longitude":-0.191898,"Action":0},{"StopId":13132,"StopCode":"34494","PointLetter":"","StopName":"Mill Lane","Latitude":51.551998,"Longitude":-0.194528,"Action":0},{"StopId":13111,"StopCode":"36920","PointLetter":"","StopName":"Solent Road","Latitude":51.551917,"Longitude":-0.196868,"Action":0},{"StopId":13103,"StopCode":"36921","PointLetter":"","StopName":"Hillfield Road","Latitude":51.551471,"Longitude":-0.199453,"Action":0},{"StopId":13136,"StopCode":"37238","PointLetter":"","StopName":"Westbere Road","Latitude":51.551032,"Longitude":-0.201894,"Action":0},{"StopId":13138,"StopCode":"37236","PointLetter":"CS","StopName":"Minster Road","Latitude":51.552999,"Longitude":-0.205826,"Action":0},{"StopId":13142,"StopCode":"37234","PointLetter":"CT","StopName":"Menelik Road","Latitude":51.554267,"Longitude":-0.207623,"Action":0},{"StopId":13100,"StopCode":"37232","PointLetter":"CU","StopName":"Westcroft Way","Latitude":51.556686,"Longitude":-0.209345,"Action":0},{"StopId":13135,"StopCode":"37240","PointLetter":"CV","StopName":"Cricklewood Lane","Latitude":51.558134,"Longitude":-0.211135,"Action":0},{"StopId":3275,"StopCode":"17718","PointLetter":"CH","StopName":"Cricklewood Station","Latitude":51.559037,"Longitude":-0.211980,"Action":0},{"StopId":3295,"StopCode":"14869","PointLetter":"CJ","StopName":"Somerton Road","Latitude":51.560693,"Longitude":-0.213271,"Action":0},{"StopId":1501,"StopCode":"35838","PointLetter":"F","StopName":"Caney Mews","Latitude":51.564816,"Longitude":-0.216514,"Action":0},{"StopId":1459,"StopCode":"35841","PointLetter":"G","StopName":"Clitterhouse Road South","Latitude":51.567243,"Longitude":-0.218194,"Action":0},{"StopId":1466,"StopCode":"35843","PointLetter":"H","StopName":"Clitterhouse Road North","Latitude":51.568717,"Longitude":-0.218771,"Action":0},{"StopId":1350,"StopCode":"35846","PointLetter":"J","StopName":"Claremont Way","Latitude":51.571422,"Longitude":-0.219214,"Action":0},{"StopId":1349,"StopCode":"35847","PointLetter":"V","StopName":"Mapledown School","Latitude":51.573845,"Longitude":-0.220663,"Action":0},{"StopId":1280,"StopCode":"35211","PointLetter":"A","StopName":"Brent Cross Shopping Centre","Latitude":51.575669,"Longitude":-0.223521,"Action":0}], "Routes" : [{"Id":2932,"Route":"C11","From":"Archway Station  / Junction Road","Towards":"Brent Cross Shopping Centre","Run":"1","IsDay":1,"encodedLevels":"PBE@?@F?BAD?@FC@?C@G?AAB?E@?C??DHB?C@E?AG@BC?@F@AG?@C@?FB?B?E@B@HB@?B?B@?I?AEGC@@C@J@D@B@F?B@@BD@?D@GACF?AG@B@@DBFAD@A@@C?H@EACB?A@FC?B@HACB@CAD@?@GBCBD@F@BA@?G@A@FADA?@C@D@AE@BBE@B?@B?G?AC?@@ADCP","encodedPoints":"mevyHfkYgCkAgAKy@bCCZi@vAeB|Gj@l@h@p@j@hAXhAFd@d@xFp@fFpE{ApARVB|@Bx@UdBU?\\ERw@`B}B`HSv@y@rEAn@Df@DTJXj@|@`B`Dg@~CjFbB\\g@DMJBb@h@Vd@DRvCfQb@MxBiAbDcCdBiBzHsIlBeBl@vBfAnC|@nDzBhL~CdOl@jD`BlLjB|NTdC_BrHeAfM]jDG\\o@dBb@xCl@bHn@jDdAjEpB{EhF{Ij@{@xE{Hh@iAtCeH~A}CjCqE`BwC^h@b@b@~IjNfJo@~Dbn@RfA^hAtAvHr@vN?rAs@QmFa@yATm@PyA|@]^q@z@S^c@bAm@rBqCzHq@v@`@bARdA?HeAvBi@vAbF|JtDtI~@rEFr@?r@c@xh@SGg@]W_@Ww@k@w@mDwA}Cc@cIU{@H{@Li@RyEd@]CyCZu@j@o@p@cAtBy@vARpBt@hYd@vBTdCnAjLJfADlBgADuAhEwDfLcB~Dy@|AsBjCqB`BwFnC}@p@{BrBmGtIgB~AqCxB}_@nXMNsFxDmCz@kGnDuCf@yEJwCtB]JW?e@O}AmAqDoBM?QI_@`@]t@kChHqAtC~AnDVTPFDEh@S`@G^TPXNdAR`CGf@MXWX_FbCkAjAI\\Cx@@^TlBBrAGLOJI@MCQWEa@?MWoAg@wDqA_HmAl@Oq@","Color":"993333","hasRunTwo":1,"startPoint":{"Latitude":51.564555,"Longitude":-0.135071},"endPoint":{"Latitude":51.575797,"Longitude":-0.223237}}]}


