{"Stops" : [{"StopId":14455,"StopCode":"34215","PointLetter":"G","StopName":"Poplar / All Saints Church","Latitude":51.510895,"Longitude":-0.012291,"Action":0},{"StopId":14926,"StopCode":"34214","PointLetter":"T","StopName":"Poplar High Street / Blackwall","Latitude":51.508828,"Longitude":-0.010753,"Action":0},{"StopId":14250,"StopCode":"R0313","PointLetter":"Q","StopName":"Aspen Way","Latitude":51.505946,"Longitude":-0.007319,"Action":0},{"StopId":14723,"StopCode":"BP167","PointLetter":"H","StopName":"Coldharbour","Latitude":51.503385,"Longitude":-0.007993,"Action":0},{"StopId":14489,"StopCode":"15157","PointLetter":"J","StopName":"Marsh Wall","Latitude":51.499009,"Longitude":-0.009236,"Action":0},{"StopId":14644,"StopCode":"15159","PointLetter":"K","StopName":"St John's Park","Latitude":51.496798,"Longitude":-0.009332,"Action":0},{"StopId":14487,"StopCode":"15160","PointLetter":"CQ","StopName":"Cubitt Town School","Latitude":51.494306,"Longitude":-0.008216,"Action":0},{"StopId":13879,"StopCode":"16349","PointLetter":"CR","StopName":"Pier Street","Latitude":51.492311,"Longitude":-0.006171,"Action":0},{"StopId":14593,"StopCode":"16348","PointLetter":"C","StopName":"Isle Of Dogs Police Station","Latitude":51.489456,"Longitude":-0.006469,"Action":0},{"StopId":13878,"StopCode":"16347","PointLetter":"D","StopName":"Island Gardens Station","Latitude":51.487784,"Longitude":-0.009682,"Action":0},{"StopId":13813,"StopCode":"15143","PointLetter":"E","StopName":"East Ferry Road","Latitude":51.487231,"Longitude":-0.012615,"Action":0},{"StopId":14721,"StopCode":"15141","PointLetter":"F","StopName":"Langbourne Place","Latitude":51.487623,"Longitude":-0.017150,"Action":0},{"StopId":14871,"StopCode":"15139","PointLetter":"M","StopName":"Harbinger School","Latitude":51.489291,"Longitude":-0.021097,"Action":0},{"StopId":14414,"StopCode":"15137","PointLetter":"N","StopName":"St Edmund's School","Latitude":51.491345,"Longitude":-0.024004,"Action":0},{"StopId":14204,"StopCode":"15135","PointLetter":"P","StopName":"Crews Street","Latitude":51.493034,"Longitude":-0.025011,"Action":0},{"StopId":14764,"StopCode":"559","PointLetter":"R","StopName":"Arnhem Wharf Primary School","Latitude":51.494886,"Longitude":-0.025479,"Action":0},{"StopId":14642,"StopCode":"15133","PointLetter":"S","StopName":"Sir John Mcdougal Gardens","Latitude":51.497123,"Longitude":-0.025886,"Action":0},{"StopId":14784,"StopCode":"15131","PointLetter":"T","StopName":"Barkantine Clinic / Hutchings Street","Latitude":51.498348,"Longitude":-0.025963,"Action":0},{"StopId":14447,"StopCode":"3201","PointLetter":"U","StopName":"Byng Street","Latitude":51.500364,"Longitude":-0.026106,"Action":0},{"StopId":14785,"StopCode":"15129","PointLetter":"V","StopName":"Marsh Wall / Heron Quay","Latitude":51.502349,"Longitude":-0.025963,"Action":0},{"StopId":14226,"StopCode":"BP4194","PointLetter":"K","StopName":"Canary Wharf Station","Latitude":51.502846,"Longitude":-0.018117,"Action":0},{"StopId":13973,"StopCode":"R0314","PointLetter":"J","StopName":"Canada Square South","Latitude":51.504485,"Longitude":-0.018766,"Action":0},{"StopId":13942,"StopCode":"BP2355","PointLetter":"G","StopName":"Canary Wharf Station","Latitude":51.504657,"Longitude":-0.020431,"Action":0},{"StopId":14142,"StopCode":"LE190","PointLetter":"E","StopName":"Columbus Courtyard","Latitude":51.505435,"Longitude":-0.024965,"Action":0},{"StopId":14655,"StopCode":"LE193","PointLetter":"B","StopName":"Westferry Circus","Latitude":51.505379,"Longitude":-0.026956,"Action":0},{"StopId":14853,"StopCode":"BP1231","PointLetter":"WK","StopName":"Westferry Station","Latitude":51.509181,"Longitude":-0.026863,"Action":0},{"StopId":14261,"StopCode":"BP638","PointLetter":"WL","StopName":"Salter Street","Latitude":51.510096,"Longitude":-0.026709,"Action":0},{"StopId":13902,"StopCode":"25270","PointLetter":"WO","StopName":"East India Dock Road","Latitude":51.512886,"Longitude":-0.027943,"Action":0},{"StopId":14222,"StopCode":"14495","PointLetter":"WQ","StopName":"Pixley Street","Latitude":51.515194,"Longitude":-0.028809,"Action":0},{"StopId":14424,"StopCode":"27785","PointLetter":"MA","StopName":"St Paul's Way","Latitude":51.516600,"Longitude":-0.029526,"Action":0},{"StopId":14839,"StopCode":"20927","PointLetter":"MB","StopName":"Turners Road","Latitude":51.517916,"Longitude":-0.030233,"Action":0},{"StopId":14676,"StopCode":"14487","PointLetter":"MC","StopName":"Eric Street","Latitude":51.521150,"Longitude":-0.033236,"Action":0},{"StopId":13910,"StopCode":"14485","PointLetter":"MD","StopName":"Bow Common Lane","Latitude":51.522170,"Longitude":-0.034043,"Action":0},{"StopId":14078,"StopCode":"1423","PointLetter":"B","StopName":"Mile End Station","Latitude":51.523752,"Longitude":-0.034508,"Action":0}], "Routes" : [{"Id":4445,"Route":"D7","From":"Poplar / All Saints Church","Towards":"Mile End Station","Run":"1","IsDay":1,"encodedLevels":"PCF?EAAG@B?B@@?DB@BDAA@BBAG?@E?B@HCAF@BAD@B@?J?@BAD?@BG?ADADD@H@B@BA@G@B??AB@@BCCFH?CCA@C@B@AB?@H?A?C@C?BD?AC@B?E@E@?ACB?FABAAAAE@B@@B@AADA@@P","encodedPoints":"gxkyHdmAnHwAlDLFoDBsLf@g@L?|EeGTNd@Hd@ClFi@VAZFVCjA?lC`@~C~AbBt@fD|@RGNNj@@fEd@nBt@|Gr@|Gb@~Bi@lIqBbA]n@s@|OgPTON?hNfFd@\\^t@d@~AlAbFzApIp@lGRpCNtF@nBK~GEn@If@{ArGk@hBaDzJcDbIYn@aAbBeA~AmElFm@b@m@ZuEdBoAEmEN}B~Bq@JcW~@eDH_F?_Jq@_AQaCR]CGGE]@c@HQHCRa@L_AJyCh@qJDsCp@sHr@Lr@{MyHuAk@xJeAxSk@hFU?OHCLObDUtKHLHd@Af@CRIZQTOHQ@QCKEOQMe@]DkHn@{AK]MkAg@m@g@_@@cEUGIYMmA~AwEpFSGOM_Ae@m@KeD_@g@FWFuErBQXyHrC_CdAMPiIdDiDlB_Az@kBxB_BnCCR]j@WLaAfAK^g@Xc@T_@@yFnA{B\\","Color":"993333","hasRunTwo":1,"startPoint":{"Latitude":51.511240,"Longitude":-0.012503},"endPoint":{"Latitude":51.523978,"Longitude":-0.034464}}]}


