{"Stops" : [{"StopId":5054,"StopCode":"33775","PointLetter":"E","StopName":"Swiss Cottage Station","Latitude":51.542412,"Longitude":-0.173607,"Action":0},{"StopId":3397,"StopCode":"12037","PointLetter":"V","StopName":"Boundary Road","Latitude":51.539288,"Longitude":-0.175679,"Action":0},{"StopId":3575,"StopCode":"1027","PointLetter":"U","StopName":"Queens Grove","Latitude":51.536840,"Longitude":-0.176138,"Action":0},{"StopId":3582,"StopCode":"2193","PointLetter":"C","StopName":"St John's Wood Station","Latitude":51.533987,"Longitude":-0.173685,"Action":0},{"StopId":3298,"StopCode":"11962","PointLetter":"E","StopName":"Cavendish Avenue","Latitude":51.532394,"Longitude":-0.174196,"Action":0},{"StopId":9562,"StopCode":"1593","PointLetter":"H","StopName":"St John's Wood Rd / Lord's Cricket Grd","Latitude":51.528467,"Longitude":-0.174958,"Action":0},{"StopId":9331,"StopCode":"34383","PointLetter":"LH","StopName":"Frampton Street","Latitude":51.525927,"Longitude":-0.170620,"Action":0},{"StopId":9512,"StopCode":"29321","PointLetter":"LJ","StopName":"Church Street","Latitude":51.525247,"Longitude":-0.169148,"Action":0},{"StopId":9473,"StopCode":"35464","PointLetter":"LK","StopName":"Rossmore Road / Lisson Grove","Latitude":51.524646,"Longitude":-0.166318,"Action":0},{"StopId":9513,"StopCode":"29318","PointLetter":"LL","StopName":"Park Road / London Business School","Latitude":51.525571,"Longitude":-0.162215,"Action":0}], "Routes" : [{"Id":871,"Route":"DF2","From":"Swiss Cottage Station","Towards":"Park Road / London Business School","Run":"1","IsDay":1,"encodedLevels":"PC@?EABFABFA?ABAA?AAA@ABAA@A@@AFA?CG?C?AC?@E@H?BD?C?G@CP","encodedPoints":"}xqyHbfa@yE[OWEWAYZi@tBkB~BkARp@TfF^t@~@ZdBVfEb@rCj@fEf@JKD@NNlANHMNBJNbAJN@BOP?FLPAHMJAHFdASRMn@i@`N_Q`@r@lExGh@b@^TrBtBZj@N^|@nCrD[^KfEsFlDuEfD}F~IiW~@aCz@sArAiBu@mB_CaI}BgT","Color":"993333","hasRunTwo":1,"startPoint":{"Latitude":51.542076,"Longitude":-0.175216},"endPoint":{"Latitude":51.525591,"Longitude":-0.161848}}]}


