{"Stops" : [{"StopId":7727,"StopCode":"BP2512","PointLetter":"TL","StopName":"Islip Manor Road","Latitude":51.545258,"Longitude":-0.382961,"Action":0},{"StopId":7390,"StopCode":"BP1563","PointLetter":"TM","StopName":"Manor Gate","Latitude":51.546523,"Longitude":-0.381445,"Action":0},{"StopId":7785,"StopCode":"BP1564","PointLetter":"","StopName":"Arnold Road","Latitude":51.547923,"Longitude":-0.378641,"Action":0},{"StopId":7765,"StopCode":"BP1565","PointLetter":"M","StopName":"Islip Manor Park","Latitude":51.547493,"Longitude":-0.373536,"Action":0},{"StopId":5524,"StopCode":"37262","PointLetter":"C","StopName":"Moat Farm Road","Latitude":51.546461,"Longitude":-0.370472,"Action":0},{"StopId":20477,"StopCode":"HC51","PointLetter":"","StopName":"Hail & Ride Section","Latitude":51.545150,"Longitude":-0.362832,"Action":0},{"StopId":7393,"StopCode":"BP2638","PointLetter":"","StopName":"Fort Road","Latitude":51.543192,"Longitude":-0.364906,"Action":0},{"StopId":7541,"StopCode":"BP2658","PointLetter":"","StopName":"Belvue School","Latitude":51.542067,"Longitude":-0.367442,"Action":0},{"StopId":7728,"StopCode":"BP2511","PointLetter":"","StopName":"Horseshoe Crescent","Latitude":51.538005,"Longitude":-0.369548,"Action":0},{"StopId":7389,"StopCode":"CW34","PointLetter":"","StopName":"Hotspur Road","Latitude":51.536904,"Longitude":-0.370554,"Action":0},{"StopId":7712,"StopCode":"CW56","PointLetter":"EA","StopName":"Elm Tree Close","Latitude":51.535888,"Longitude":-0.371210,"Action":0},{"StopId":7711,"StopCode":"CW57","PointLetter":"EB","StopName":"Kensington Road / Ruislip Road","Latitude":51.533877,"Longitude":-0.371469,"Action":0},{"StopId":7487,"StopCode":"BP026","PointLetter":"EN","StopName":"Gosling Close","Latitude":51.532746,"Longitude":-0.369058,"Action":0},{"StopId":7571,"StopCode":"BP024","PointLetter":"EP","StopName":"Marley Close","Latitude":51.534176,"Longitude":-0.369065,"Action":0},{"StopId":7490,"StopCode":"BP020","PointLetter":"EQ","StopName":"Rosedene Avenue","Latitude":51.535046,"Longitude":-0.366943,"Action":0},{"StopId":7492,"StopCode":"BP017","PointLetter":"ER","StopName":"Marnham Crescent","Latitude":51.535061,"Longitude":-0.361579,"Action":0},{"StopId":7491,"StopCode":"BP018","PointLetter":"","StopName":"West Ridge Gardens","Latitude":51.535446,"Longitude":-0.355682,"Action":0},{"StopId":7489,"StopCode":"BP022","PointLetter":"","StopName":"East Close","Latitude":51.535323,"Longitude":-0.350106,"Action":0},{"StopId":7613,"StopCode":"BP031","PointLetter":"A","StopName":"Farndale Crescent","Latitude":51.532370,"Longitude":-0.351799,"Action":0},{"StopId":7835,"StopCode":"BP049","PointLetter":"B","StopName":"Greenford Police Station","Latitude":51.528926,"Longitude":-0.354994,"Action":0},{"StopId":4721,"StopCode":"2031","PointLetter":"J","StopName":"Greenford Broadway","Latitude":51.528032,"Longitude":-0.354046,"Action":0},{"StopId":7753,"StopCode":"33862","PointLetter":"L","StopName":"Clifton Road","Latitude":51.527481,"Longitude":-0.350721,"Action":0},{"StopId":7458,"StopCode":"17025","PointLetter":"RS","StopName":"Greenford Avenue","Latitude":51.527393,"Longitude":-0.341916,"Action":0},{"StopId":7422,"StopCode":"17026","PointLetter":"RT","StopName":"Cuckoo Avenue","Latitude":51.527751,"Longitude":-0.338601,"Action":0},{"StopId":7362,"StopCode":"25078","PointLetter":"RW","StopName":"Gurnell Leisure Centre","Latitude":51.528649,"Longitude":-0.331519,"Action":0},{"StopId":7828,"StopCode":"15678","PointLetter":"AA","StopName":"Ruislip Road East","Latitude":51.527999,"Longitude":-0.326353,"Action":0},{"StopId":7827,"StopCode":"15681","PointLetter":"AB","StopName":"Scotch Common","Latitude":51.524937,"Longitude":-0.324101,"Action":0},{"StopId":7826,"StopCode":"15683","PointLetter":"CE","StopName":"Hollingbourne Gardens","Latitude":51.521426,"Longitude":-0.321952,"Action":0},{"StopId":7825,"StopCode":"15684","PointLetter":"SA","StopName":"Kent Gardens","Latitude":51.521830,"Longitude":-0.316893,"Action":0},{"StopId":7616,"StopCode":"15686","PointLetter":"SB","StopName":"The Knoll","Latitude":51.521584,"Longitude":-0.312923,"Action":0},{"StopId":7614,"StopCode":"BP045","PointLetter":"SD","StopName":"Charlbury Grove","Latitude":51.519366,"Longitude":-0.310627,"Action":0},{"StopId":7485,"StopCode":"BP047","PointLetter":"","StopName":"Eaton Rise","Latitude":51.516346,"Longitude":-0.305709,"Action":0},{"StopId":7651,"StopCode":"35628","PointLetter":"D","StopName":"Haven Green / Ealing Broadway Stn","Latitude":51.515179,"Longitude":-0.303388,"Action":0}], "Routes" : [{"Id":442,"Route":"E10","From":"Islip Manor Road","Towards":"Haven Green / Ealing Broadway Stn","Run":"1","IsDay":1,"encodedLevels":"PA?BACDACAG?A@CFE@@BDB@CHCEA?C@ABA?G@@C?@BAECA?C?@B?B@?F@B@C?AF@B?B?DB@I?ABBF@BDC?F?@CAD?C?EAA?E@BH@B?DBB?BD?H@?D@?B@FAB?B?BDA@C@H???ADBE@AG??C@?@@E?@CAG@@@C?FB@EA@@DBFA@BEAP","encodedPoints":"clryHtxiASCEM?SeDsCk@y@}FkNeCgIoAcFAuBMs@`@o@tDqH`AwA~BiEhBkIkF_IFMVSNEx@iE_A}BE_@F_@~G{ZdKtIfD~FtAlDRt@n@rCTxAP~BJ`ENz@FNNJF@`AQb@?v@Pp@ThDv@`CNd@G`Bi@Dq@DSNURMF@bBs@Ny@HUPOPGVAVJRVLf@B^EnCK`CUnA\\JhCX~CKd@?bFj@pC\\bAB`@YZc@Nc@Fk@`@sHUGF_AkBSgCKsBZqB[M[Mk@Ag@BcDI{Ie@oCq@aHj@yDrAcKFiG?eBIaBwB{Qy@gKAYBsAPmCpBcNLHnCd@d@TjBnAtCnChB`DbFdG~@nA~DlDjDtAzBx@~@yDhBmJJo@NqBBuAv@aPJgI?sCIyIc@wLSgC_AwQ?oCDwBYoHu@iJeB}NIqA_@wV@eALATMXItF}BtE}B|AwBhFiEfDa@~F}@`FgAO}Co@{Qo@gOGSMOKEWc@AIBWDIf@}@r@iLdA}KTOrD}@~CgAfFuA~AuAVWxDmGVu@Ho@b@kGn@cGb@iB@c@w@uJDoBRGNP`@P`EJKzAw@dC","Color":"993333","hasRunTwo":1,"startPoint":{"Latitude":51.545141,"Longitude":-0.382985},"endPoint":{"Latitude":51.515261,"Longitude":-0.303464}}]}


