{"Stops" : [{"StopId":5377,"StopCode":"35292","PointLetter":"JJ","StopName":"Rockware Avenue / Greenford Station","Latitude":51.542910,"Longitude":-0.345462,"Action":0},{"StopId":5463,"StopCode":"13152","PointLetter":"MM","StopName":"Greenford Station","Latitude":51.542011,"Longitude":-0.346143,"Action":0},{"StopId":5467,"StopCode":"17112","PointLetter":"NN","StopName":"Birkbeck Avenue","Latitude":51.540479,"Longitude":-0.347771,"Action":0},{"StopId":5439,"StopCode":"17110","PointLetter":"OO","StopName":"Courthope Road","Latitude":51.537858,"Longitude":-0.348745,"Action":0},{"StopId":4823,"StopCode":"16266","PointLetter":"DD","StopName":"Cowgate Road","Latitude":51.534526,"Longitude":-0.347179,"Action":0},{"StopId":4698,"StopCode":"15297","PointLetter":"C","StopName":"Costons Lane","Latitude":51.530492,"Longitude":-0.350569,"Action":0},{"StopId":4625,"StopCode":"2028","PointLetter":"D","StopName":"Ruislip Road East","Latitude":51.528048,"Longitude":-0.351984,"Action":0},{"StopId":5449,"StopCode":"2032","PointLetter":"N","StopName":"Greenford Broadway","Latitude":51.527982,"Longitude":-0.354379,"Action":0},{"StopId":4623,"StopCode":"15299","PointLetter":"R","StopName":"Pembroke Road","Latitude":51.528696,"Longitude":-0.359760,"Action":0},{"StopId":4867,"StopCode":"15792","PointLetter":"EL","StopName":"Beechwood Avenue","Latitude":51.530804,"Longitude":-0.364543,"Action":0},{"StopId":5343,"StopCode":"15790","PointLetter":"EM","StopName":"Greenford Sports Centre","Latitude":51.532444,"Longitude":-0.369963,"Action":0},{"StopId":5364,"StopCode":"15788","PointLetter":"WS","StopName":"Adrienne Avenue","Latitude":51.532654,"Longitude":-0.372752,"Action":0},{"StopId":6175,"StopCode":"CW27","PointLetter":"WP","StopName":"Broadmead Road / Ruislip Road","Latitude":51.531951,"Longitude":-0.379179,"Action":0},{"StopId":6152,"StopCode":"BP073","PointLetter":"WR","StopName":"Sentinel Close","Latitude":51.529519,"Longitude":-0.380779,"Action":0},{"StopId":6091,"StopCode":"R0208","PointLetter":"","StopName":"Berrydale Road","Latitude":51.528055,"Longitude":-0.382908,"Action":0},{"StopId":6092,"StopCode":"R0206","PointLetter":"","StopName":"Kingsash Drive","Latitude":51.527600,"Longitude":-0.386384,"Action":0},{"StopId":6094,"StopCode":"R0192","PointLetter":"","StopName":"Pendula Drive","Latitude":51.526701,"Longitude":-0.389673,"Action":0},{"StopId":6102,"StopCode":"BP105","PointLetter":"","StopName":"Jollys Lane","Latitude":51.524895,"Longitude":-0.389132,"Action":0},{"StopId":18875,"StopCode":"BP163","PointLetter":"","StopName":"Yeading Tesco","Latitude":51.523700,"Longitude":-0.385959,"Action":0},{"StopId":18876,"StopCode":"BP2623","PointLetter":"","StopName":"Jollys Lane","Latitude":51.523987,"Longitude":-0.387838,"Action":0},{"StopId":6140,"StopCode":"36993","PointLetter":"","StopName":"Homefield Close","Latitude":51.526322,"Longitude":-0.393565,"Action":0},{"StopId":6019,"StopCode":"14864","PointLetter":"C","StopName":"Shakespeare Avenue","Latitude":51.526649,"Longitude":-0.399002,"Action":0},{"StopId":6226,"StopCode":"16152","PointLetter":"B","StopName":"Shaftesbury Waye","Latitude":51.522087,"Longitude":-0.401469,"Action":0},{"StopId":6185,"StopCode":"10462","PointLetter":"Q","StopName":"The Grapes","Latitude":51.518251,"Longitude":-0.406317,"Action":0},{"StopId":6240,"StopCode":"BP994","PointLetter":"U","StopName":"Hesa Road","Latitude":51.516109,"Longitude":-0.408885,"Action":0},{"StopId":6285,"StopCode":"16156","PointLetter":"SU","StopName":"Precinct Road","Latitude":51.514134,"Longitude":-0.410467,"Action":0},{"StopId":6168,"StopCode":"BP1075","PointLetter":"SV","StopName":"Avondale Drive","Latitude":51.511940,"Longitude":-0.412431,"Action":0},{"StopId":6149,"StopCode":"16157","PointLetter":"SW","StopName":"East Way","Latitude":51.510529,"Longitude":-0.413821,"Action":0},{"StopId":6101,"StopCode":"BP108","PointLetter":"SX","StopName":"Fairdale Gardens","Latitude":51.508622,"Longitude":-0.415774,"Action":0},{"StopId":6100,"StopCode":"BP109","PointLetter":"SY","StopName":"Mount Road","Latitude":51.507684,"Longitude":-0.416859,"Action":0},{"StopId":4903,"StopCode":"BP110","PointLetter":"D","StopName":"Clayton Road","Latitude":51.504840,"Longitude":-0.419364,"Action":0},{"StopId":5011,"StopCode":"15979","PointLetter":"E","StopName":"Hayes and Harlington Station","Latitude":51.503060,"Longitude":-0.420751,"Action":0},{"StopId":5010,"StopCode":"16165","PointLetter":"F","StopName":"Fairey Corner","Latitude":51.500938,"Longitude":-0.424124,"Action":0},{"StopId":18873,"StopCode":"BP1778","PointLetter":"","StopName":"Crowland Avenue","Latitude":51.498419,"Longitude":-0.425392,"Action":0},{"StopId":18874,"StopCode":"BP1777","PointLetter":"","StopName":"North Hyde Road","Latitude":51.497704,"Longitude":-0.413012,"Action":0},{"StopId":17855,"StopCode":"BP2736","PointLetter":"BW","StopName":"Bulls Bridge Tesco","Latitude":51.498642,"Longitude":-0.405920,"Action":0}], "Routes" : [{"Id":3018,"Route":"E6","From":"Rockware Avenue / Greenford Station","Towards":"Bulls Bridge Tesco","Run":"1","IsDay":1,"encodedLevels":"PF@C?GABB@?EA@AC@?G@B?@BDBB@?D?AB@I?AC@BA@D?AEB?D@A?F@@B@@B@B@AHEAE?A?AD?B?BG@@CAE?AC?AHA?DB?FBA?A@C?D@AC?@??BA@HA@A?C@BA?ABDA?AAD@??C?@?BC??@D@C?EC@AI@ADABFAC@?BD?ADAE@?AA?D@?@CB@E??C@E@AED??BAD@B?A?@EACA?BI@F@EB@F@C?GF?F@D?F@B?@D?@@C??D@B?P","encodedPoints":"{zqyHd_bAyB~N~A~@lDfChFvFxGtHt@BVIrF{CfAUn@Cd@K^_E@eBG_@HeC^]VMJAJBXVFLFRNhAh@n@zA`@hD~BnJbHdG`FnA~@rDzBpAr@tDfBjBr@~A`@]vBwAdH_ArDSnBE`AAhJQzD[rDsAfIGf@oBtJaFfEg@n@o@dA]p@g@zA[hAsA~FMvAUfHa@rHBxBDJAt@Uf@E`@AzCa@tO?bILlHrHfCfFbCx@t@\\b@l@|@zChFbFlH`@PjA^FSDCPN?TGJeB|JuAfC_BjEEl@@~@JfAHb@Tl@^d@n@d@h@NpGfClAHXId@WzAyAN{@RUFS@a@n@eCZa@pCiEOQM]CYDeAHg@Bq@CM@QBMPBDJ?^MHECIh@OlBBXL\\NPJMD?LTCZQFO`@QXw@n@cC~CIx@Az@BJEdACFOFKLO\\q@hCAt@D`@AdAEPITaBxAe@fB{DnM_AzE?pASpGe@vHj@@`Jg@fADx@LjCjAfC`BxErFjDhFh@|@tCxFt@`B~CpEfB`ArG`E\\`@xAdDb@tB^^~AjAxLfJ`DzCdHxF|@z@~EzERZbEpEpBpBlEvFNV`@zAN@BDPBN[TaB\\NvBdBlE`EYfANLzA|@bEnC~AvAlCbDd@fAlBbHXj@V\\XRNNHVTBxGvETYJEH?`FjD`AyEpGsXxAdAdGlDf@BVQnAmAVq@^yBXyPD{AcJ}GdBcIb@{BqCwAyAk@qGR_B@AsAs@eOMs@EKQyABSJ[RYTw@@a@AoE@sBa@c@We@Qq@QgA","Color":"993333","hasRunTwo":1,"startPoint":{"Latitude":51.542381,"Longitude":-0.343065},"endPoint":{"Latitude":51.498616,"Longitude":-0.405768}}]}


