{"Stops" : [{"StopId":7561,"StopCode":"BP1636","PointLetter":"","StopName":"Welbeck Avenue","Latitude":51.529995,"Longitude":-0.405719,"Action":0},{"StopId":20836,"StopCode":"HC49","PointLetter":"","StopName":"Hail & Ride Section","Latitude":51.533073,"Longitude":-0.405236,"Action":0},{"StopId":6049,"StopCode":"17221","PointLetter":"","StopName":"Gurney Road","Latitude":51.533349,"Longitude":-0.403035,"Action":0},{"StopId":7783,"StopCode":"16151","PointLetter":"K","StopName":"Kingshill Avenue","Latitude":51.533752,"Longitude":-0.396374,"Action":0},{"StopId":7411,"StopCode":"14723","PointLetter":"N","StopName":"Tangmere Gardens","Latitude":51.535910,"Longitude":-0.392420,"Action":0},{"StopId":5430,"StopCode":"15785","PointLetter":"Y","StopName":"Church Road","Latitude":51.535018,"Longitude":-0.389019,"Action":0},{"StopId":5513,"StopCode":"14889","PointLetter":"","StopName":"Wayfarer Road","Latitude":51.533243,"Longitude":-0.384814,"Action":0},{"StopId":5349,"StopCode":"20494","PointLetter":"WE","StopName":"Broadmead Road","Latitude":51.532937,"Longitude":-0.378279,"Action":0},{"StopId":5458,"StopCode":"15787","PointLetter":"WF","StopName":"Adrienne Avenue","Latitude":51.532754,"Longitude":-0.372864,"Action":0},{"StopId":5403,"StopCode":"15789","PointLetter":"EG","StopName":"Greenford High School","Latitude":51.532382,"Longitude":-0.368062,"Action":0},{"StopId":4611,"StopCode":"15791","PointLetter":"EH","StopName":"Eastmead Avenue","Latitude":51.529937,"Longitude":-0.363594,"Action":0},{"StopId":4865,"StopCode":"15300","PointLetter":"H","StopName":"Pembroke Road","Latitude":51.528717,"Longitude":-0.359327,"Action":0},{"StopId":4721,"StopCode":"2031","PointLetter":"J","StopName":"Greenford Broadway","Latitude":51.528032,"Longitude":-0.354046,"Action":0},{"StopId":7753,"StopCode":"33862","PointLetter":"L","StopName":"Clifton Road","Latitude":51.527481,"Longitude":-0.350721,"Action":0},{"StopId":7458,"StopCode":"17025","PointLetter":"RS","StopName":"Greenford Avenue","Latitude":51.527393,"Longitude":-0.341916,"Action":0},{"StopId":7422,"StopCode":"17026","PointLetter":"RT","StopName":"Cuckoo Avenue","Latitude":51.527751,"Longitude":-0.338601,"Action":0},{"StopId":7362,"StopCode":"25078","PointLetter":"RW","StopName":"Gurnell Leisure Centre","Latitude":51.528649,"Longitude":-0.331519,"Action":0},{"StopId":7828,"StopCode":"15678","PointLetter":"AA","StopName":"Ruislip Road East","Latitude":51.527999,"Longitude":-0.326353,"Action":0},{"StopId":7827,"StopCode":"15681","PointLetter":"AB","StopName":"Scotch Common","Latitude":51.524937,"Longitude":-0.324101,"Action":0},{"StopId":7462,"StopCode":"20387","PointLetter":"SC","StopName":"Kent Gardens","Latitude":51.525091,"Longitude":-0.319136,"Action":0},{"StopId":7420,"StopCode":"20385","PointLetter":"SM","StopName":"Pitshanger Library","Latitude":51.526130,"Longitude":-0.313836,"Action":0},{"StopId":7625,"StopCode":"20383","PointLetter":"SN","StopName":"St Barnabas Church","Latitude":51.526946,"Longitude":-0.309337,"Action":0},{"StopId":7832,"StopCode":"20380","PointLetter":"SP","StopName":"Fairlea Place","Latitude":51.523873,"Longitude":-0.308254,"Action":0},{"StopId":3568,"StopCode":"10580","PointLetter":"SQ","StopName":"Montpelier Road","Latitude":51.521547,"Longitude":-0.306582,"Action":0},{"StopId":3572,"StopCode":"15689","PointLetter":"SR","StopName":"Marchwood Crescent","Latitude":51.520272,"Longitude":-0.306082,"Action":0},{"StopId":3446,"StopCode":"15691","PointLetter":"ST","StopName":"Castlebar Road","Latitude":51.516768,"Longitude":-0.306327,"Action":0},{"StopId":7468,"StopCode":"R0747","PointLetter":"X2","StopName":"Ealing Broadway Station","Latitude":51.515449,"Longitude":-0.302168,"Action":0}], "Routes" : [{"Id":1037,"Route":"E9","From":"Welbeck Avenue","Towards":"Ealing Broadway Station","Run":"1","IsDay":1,"encodedLevels":"PAA@EB??A?G@D?A?BCF@ACFD?ABDAH?A?A@BDBAF?B?DB?@B?CB@?D???@C?FAD?@@F?@@C@AAD@B@G?B?AB?EABAAC??C?G???ADBAF?CABIA?CEAAD?BE?@??GA@D??EA@AP","encodedPoints":"wooyH|cnALD|@dC?RhAnDiDbFKXEf@Kh@EHQHeEmM[o@OSoAmA]USEFYmEaB^{DdA}PNaFk@wGyAuL]_@o@aAiDyGaDyHq@eDeAyINUNMTEN?JSbAm@nCiDpBkDhByE`@oB`@mCpAwKL}AZqGDeLMqDIcEGeHBmB^gNEqF[aAAI?Y@KHWFC`@iAD_@`@sHv@mMzA{FtAgD^k@h@o@x@s@jFiGHa@vAeMV}Af@}EP{DHkEEqBV}E~@sDvAeHPgAZaDBuA?uDJgBd@eFPiG?oFGqGWcKsAcVMgGDwBe@eLw@mHIg@wAmNOoJMmMLATMXItF}BtE}B|AwBtC}BbA}A_@kIiAiUoEu_@gBkLs@uL~DQdHw@dFo@lBXBY\\UfFeIr@a@RKzDo@b@AtAFtIXtCPlCHZyDt@_D@[?QK{@e@}KRINP`@PzAB","Color":"993333","hasRunTwo":1,"startPoint":{"Latitude":51.530366,"Longitude":-0.405263},"endPoint":{"Latitude":51.515435,"Longitude":-0.302294}}]}


