{"Stops" : [{"StopId":16698,"StopCode":"37150","PointLetter":"S","StopName":"Hermitage Lane","Latitude":51.414748,"Longitude":-0.123260,"Action":0},{"StopId":5622,"StopCode":"1833","PointLetter":"CK","StopName":"Arragon Gardens","Latitude":51.416689,"Longitude":-0.125956,"Action":0},{"StopId":5548,"StopCode":"15100","PointLetter":"CL","StopName":"Kempshott Road","Latitude":51.419012,"Longitude":-0.127860,"Action":0},{"StopId":5633,"StopCode":"4868","PointLetter":"CM","StopName":"Streatham Common / Greyhound Lane","Latitude":51.421177,"Longitude":-0.128807,"Action":0},{"StopId":21573,"StopCode":"91240","PointLetter":"SZ","StopName":"Streatham Station","Latitude":51.424406,"Longitude":-0.130546,"Action":0},{"StopId":5574,"StopCode":"SL37","PointLetter":"SK","StopName":"St Leonard's Church","Latitude":51.428542,"Longitude":-0.131111,"Action":0},{"StopId":2951,"StopCode":"12803","PointLetter":"SL","StopName":"Streatham / St Leonard's Church","Latitude":51.428419,"Longitude":-0.131806,"Action":0},{"StopId":8140,"StopCode":"9271","PointLetter":"S","StopName":"Garrad's Road","Latitude":51.430246,"Longitude":-0.136464,"Action":0},{"StopId":9783,"StopCode":"BP5176","PointLetter":"M","StopName":"Ullathorne Road","Latitude":51.428615,"Longitude":-0.144169,"Action":0},{"StopId":2865,"StopCode":"8817","PointLetter":"P","StopName":"Bickley Street","Latitude":51.426049,"Longitude":-0.165721,"Action":0},{"StopId":8559,"StopCode":"25286","PointLetter":"H","StopName":"Tooting Broadway Station","Latitude":51.427156,"Longitude":-0.166885,"Action":0},{"StopId":2809,"StopCode":"260","PointLetter":"K","StopName":"Tooting Broadway  / Sth Thames College","Latitude":51.427556,"Longitude":-0.168366,"Action":0},{"StopId":2882,"StopCode":"25636","PointLetter":"HF","StopName":"Nutwell Street","Latitude":51.425881,"Longitude":-0.169885,"Action":0},{"StopId":2883,"StopCode":"25634","PointLetter":"HG","StopName":"Longley Road","Latitude":51.423970,"Longitude":-0.171947,"Action":0},{"StopId":17409,"StopCode":"BP5016","PointLetter":"HH","StopName":"St George's Hospital","Latitude":51.424298,"Longitude":-0.175113,"Action":0},{"StopId":16700,"StopCode":"W24","PointLetter":"HA","StopName":"St George's / University Of London","Latitude":51.427600,"Longitude":-0.175182,"Action":0},{"StopId":16699,"StopCode":"W23","PointLetter":"HC","StopName":"St George's Hospital / Lanesborough Wing","Latitude":51.427499,"Longitude":-0.171619,"Action":0},{"StopId":20006,"StopCode":"BP5353","PointLetter":"HV","StopName":"St George's Hospital / Main Entrance","Latitude":51.426330,"Longitude":-0.172744,"Action":0},{"StopId":16686,"StopCode":"W25","PointLetter":"HD","StopName":"St George's Hospital / St James Wing","Latitude":51.425613,"Longitude":-0.174068,"Action":0},{"StopId":16694,"StopCode":"BP818","PointLetter":"HE","StopName":"St George's Hosp / Knightsbridge Wing","Latitude":51.425253,"Longitude":-0.176944,"Action":0},{"StopId":21329,"StopCode":"BP5599","PointLetter":"","StopName":"Cranmer Terrace","Latitude":51.428065,"Longitude":-0.176200,"Action":0},{"StopId":11968,"StopCode":"8822","PointLetter":"HR","StopName":"Fairlight Road","Latitude":51.430233,"Longitude":-0.174516,"Action":0},{"StopId":11925,"StopCode":"8824","PointLetter":"SA","StopName":"Streatham Cemetery","Latitude":51.431874,"Longitude":-0.177055,"Action":0},{"StopId":11984,"StopCode":"8827","PointLetter":"SB","StopName":"Wimbledon Road","Latitude":51.432556,"Longitude":-0.179876,"Action":0},{"StopId":20853,"StopCode":"BP5442","PointLetter":"","StopName":"St George's Grove","Latitude":51.436244,"Longitude":-0.178780,"Action":0},{"StopId":20773,"StopCode":"BP5424","PointLetter":"","StopName":"Grosvenor Way","Latitude":51.434824,"Longitude":-0.176506,"Action":0},{"StopId":16696,"StopCode":"12739","PointLetter":"SU","StopName":"Burntwood School / Swaby Road","Latitude":51.438416,"Longitude":-0.180234,"Action":0},{"StopId":8553,"StopCode":"12741","PointLetter":"","StopName":"Openview","Latitude":51.439595,"Longitude":-0.177999,"Action":0},{"StopId":16688,"StopCode":"BP2295","PointLetter":"","StopName":"Springfield University Hospital","Latitude":51.438654,"Longitude":-0.173030,"Action":0},{"StopId":8482,"StopCode":"12743","PointLetter":"","StopName":"Tilehurst Road","Latitude":51.440827,"Longitude":-0.174554,"Action":0},{"StopId":8269,"StopCode":"12745","PointLetter":"M","StopName":"Marham Gardens","Latitude":51.441850,"Longitude":-0.171492,"Action":0},{"StopId":8480,"StopCode":"12747","PointLetter":"G","StopName":"Trinity Road","Latitude":51.443542,"Longitude":-0.168676,"Action":0},{"StopId":8234,"StopCode":"2315","PointLetter":"A","StopName":"Wandsworth Common Station","Latitude":51.445795,"Longitude":-0.166154,"Action":0},{"StopId":8539,"StopCode":"12850","PointLetter":"K","StopName":"Ravenslea Road","Latitude":51.448614,"Longitude":-0.162932,"Action":0},{"StopId":8565,"StopCode":"12852","PointLetter":"","StopName":"Rusham Road","Latitude":51.450160,"Longitude":-0.158307,"Action":0},{"StopId":8477,"StopCode":"12854","PointLetter":"","StopName":"Ramsden Road","Latitude":51.450959,"Longitude":-0.155368,"Action":0},{"StopId":8566,"StopCode":"12855","PointLetter":"SU","StopName":"Thurleigh Avenue","Latitude":51.452716,"Longitude":-0.152131,"Action":0},{"StopId":8273,"StopCode":"1087","PointLetter":"SB","StopName":"Clapham South Station","Latitude":51.453007,"Longitude":-0.148406,"Action":0},{"StopId":19479,"StopCode":"BP5585","PointLetter":"","StopName":"Broomwood Road","Latitude":51.456656,"Longitude":-0.153929,"Action":0},{"StopId":8474,"StopCode":"12862","PointLetter":"","StopName":"Darley Road","Latitude":51.454181,"Longitude":-0.164119,"Action":0},{"StopId":8476,"StopCode":"12856","PointLetter":"","StopName":"Salcott Road","Latitude":51.457842,"Longitude":-0.165944,"Action":0},{"StopId":1892,"StopCode":"1414","PointLetter":"V","StopName":"Clapham Junction / The Northcote","Latitude":51.461762,"Longitude":-0.167616,"Action":0},{"StopId":12561,"StopCode":"431","PointLetter":"P","StopName":"Clapham Junction / The Falcon","Latitude":51.463222,"Longitude":-0.167802,"Action":0},{"StopId":12646,"StopCode":"2350","PointLetter":"K","StopName":"Lavender Hill Police Station","Latitude":51.464215,"Longitude":-0.164566,"Action":0},{"StopId":9735,"StopCode":"BP5220","PointLetter":"","StopName":"Shaftesbury Estate / Wickersley Road","Latitude":51.469521,"Longitude":-0.154303,"Action":0}], "Routes" : [{"Id":2450,"Route":"G1","From":"Hermitage Lane","Towards":"Shaftesbury Estate / Wickersley Road","Run":"1","IsDay":1,"encodedLevels":"P?AC?E@?C@?@CFAAB?CBE@?AG@C@C?A@FDD?I@FF@C?@BBC?DBA?@?@?CAAE?B@C?GAABAG@B@?C?G?A?C?K@A?DCEC@DBA?BFABAH@CB?D@FAHCEC@CF?EAG?A?ADA?B@G@@DCD@FBAC?E?AEA@H?AB@EAC?ACCACEB@C?I?A?B??@F?AC@@BC??G@B?C@C@C?ACA?G?BDC@@F??F@ACA?@@E?AE?B@D@@I@?@D?@FAA@C@G?@IABA@D?AAH@AG@FAAFD?ADBEA@BP","encodedPoints":"c_yxHd`WJBLHj@|@Hd@JzAW?e@HYJm@d@}E~Em@p@_FxE{HdFgCz@q@HuHrCaIlDoHxCWK}H`Cc@@QEaHm@oCEOPEXf@`@bCpCDLTjA|@dCh@dAqEtGwFSOR_@|@o@dNc@nLpJ\\AfHJvLDx@PdBXzAVQ`@pBd@hFx@bLWJh@xEAPDfAb@`GHr@?l@DX@r@]n@C`@BX`EdQ|BtLpCjPZ~Dt@rI_AhAeB~CWv@oL~OUh@T\\F`@pH`HZTbHlGrDhFf@v@c@dB}@fDqAfHsB~J_AvB{@fBQa@C]Ag@BMcE?cAiAq@kCb@kCASmAaCBa@Y}@w@sB}AgCl@eCt@kBp@{AlAgB|CzEp@tAzCrHBtABLJJhCt@Cl@wEnMcE?cAiAq@kCb@kCASmAaCk@|@sBzCqFgKyAiBO\\k@dAaEdGi@r@u@hBu@nC_@|CmAhIo@bBmApEi@Oa@YcBg@_A`AqACkCwB_CwB^{Am@k@CSLgFD]LMh@WjFiBk@wFGOI?OD]P_A|@m@v@{@|AZp@LrAi@VMLE\\MfFBRl@j@_@zAg@]I?WNy@rAmDhFQYe@aAqDeJmEgLCKASEUy@qCjAcAf@k@^{@XaATyAxB{H`@e@I_@@YESKEM@KNGV?NX~@o@r@_@v@MpAq@vEY`A_@z@g@j@kAbAmCsL_C}J_CqHkDkEk@iA_A{Ci@kAgBeBqRwRkDsD{AuEsA{EgC_K_AaHo@kDeBqKUyBW_A_@o@wFyHWq@G]UcDIaEG_Pe@UQ?e@]]XQDq@\\WTK`@}B~G_Lp[tAlEJx@fEnO~CbMpCdOv@lFsCnAkG|C}A|@mErA_LhCsFbBwAp@iGlBa@?kBJuC^_@CKq@y@{QeAsOaGhAqGtAMqAmBep@MaA}J|D[cAO]@SvCoAHLGRI?OMuBz@","Color":"993333","hasRunTwo":1,"startPoint":{"Latitude":51.415069,"Longitude":-0.123070},"endPoint":{"Latitude":51.469919,"Longitude":-0.154469}}]}


