{"Stops" : [{"StopId":9150,"StopCode":"R0840","PointLetter":"D","StopName":"Harrow Bus Station","Latitude":51.580068,"Longitude":-0.337936,"Action":0},{"StopId":7906,"StopCode":"29074","PointLetter":"WX","StopName":"Lascelles Avenue","Latitude":51.576718,"Longitude":-0.345245,"Action":0},{"StopId":9239,"StopCode":"BP2927","PointLetter":"WA","StopName":"Drury Road","Latitude":51.575193,"Longitude":-0.351261,"Action":0},{"StopId":9237,"StopCode":"BP2929","PointLetter":"WB","StopName":"Shaftesbury Avenue","Latitude":51.575078,"Longitude":-0.356504,"Action":0},{"StopId":9235,"StopCode":"BP2931","PointLetter":"NP","StopName":"Elm Drive","Latitude":51.580091,"Longitude":-0.363265,"Action":0},{"StopId":9198,"StopCode":"BP2933","PointLetter":"NR","StopName":"Imperial Drive","Latitude":51.581170,"Longitude":-0.364511,"Action":0},{"StopId":9233,"StopCode":"BP2935","PointLetter":"NT","StopName":"Church Drive","Latitude":51.583017,"Longitude":-0.366682,"Action":0},{"StopId":9112,"StopCode":"BP3117","PointLetter":"","StopName":"Suffolk Road","Latitude":51.583952,"Longitude":-0.371859,"Action":0},{"StopId":9258,"StopCode":"BP2937","PointLetter":"","StopName":"Rayners Lane","Latitude":51.583967,"Longitude":-0.374861,"Action":0},{"StopId":9232,"StopCode":"BP2939","PointLetter":"","StopName":"Compton Rise","Latitude":51.584943,"Longitude":-0.379113,"Action":0},{"StopId":9199,"StopCode":"BP2941","PointLetter":"","StopName":"Cannon Lane","Latitude":51.585744,"Longitude":-0.381134,"Action":0},{"StopId":9095,"StopCode":"BP4330","PointLetter":"","StopName":"Hereford Gardens","Latitude":51.587247,"Longitude":-0.381875,"Action":0},{"StopId":9188,"StopCode":"16425","PointLetter":"","StopName":"Cannon Lane","Latitude":51.588882,"Longitude":-0.382408,"Action":0},{"StopId":9218,"StopCode":"7502","PointLetter":"H","StopName":"Holwell Place","Latitude":51.590359,"Longitude":-0.380580,"Action":0},{"StopId":9100,"StopCode":"17474","PointLetter":"B","StopName":"Pinner Station","Latitude":51.592402,"Longitude":-0.382067,"Action":0},{"StopId":9195,"StopCode":"4543","PointLetter":"D","StopName":"Love Lane","Latitude":51.594706,"Longitude":-0.383486,"Action":0},{"StopId":9105,"StopCode":"37243","PointLetter":"PP","StopName":"Granville Place","Latitude":51.595992,"Longitude":-0.386126,"Action":0},{"StopId":9128,"StopCode":"17194","PointLetter":"PR","StopName":"West End Lane","Latitude":51.598084,"Longitude":-0.391799,"Action":0},{"StopId":9119,"StopCode":"17196","PointLetter":"PS","StopName":"Cuckoo Hill","Latitude":51.598090,"Longitude":-0.396116,"Action":0},{"StopId":9201,"StopCode":"17197","PointLetter":"PT","StopName":"Crossway","Latitude":51.599863,"Longitude":-0.400211,"Action":0},{"StopId":9166,"StopCode":"3399","PointLetter":"D","StopName":"Briarwood Drive","Latitude":51.601716,"Longitude":-0.406211,"Action":0},{"StopId":5391,"StopCode":"20226","PointLetter":"E","StopName":"Northwood Hills Circus","Latitude":51.602918,"Longitude":-0.410602,"Action":0},{"StopId":5392,"StopCode":"19600","PointLetter":"G","StopName":"Northwood Health Centre","Latitude":51.603457,"Longitude":-0.412605,"Action":0},{"StopId":5383,"StopCode":"3400","PointLetter":"","StopName":"Northwood Iron Bridge","Latitude":51.604473,"Longitude":-0.416512,"Action":0},{"StopId":5393,"StopCode":"BP4163","PointLetter":"","StopName":"Hallowell Road","Latitude":51.605509,"Longitude":-0.417400,"Action":0},{"StopId":5320,"StopCode":"17199","PointLetter":"","StopName":"Emmanuel Church","Latitude":51.608033,"Longitude":-0.415796,"Action":0},{"StopId":5356,"StopCode":"20107","PointLetter":"","StopName":"Church Road","Latitude":51.610323,"Longitude":-0.415601,"Action":0},{"StopId":5466,"StopCode":"14854","PointLetter":"C","StopName":"Northwood Station","Latitude":51.611263,"Longitude":-0.422630,"Action":0},{"StopId":5440,"StopCode":"22294","PointLetter":"H","StopName":"Dene Road","Latitude":51.611972,"Longitude":-0.426549,"Action":0},{"StopId":5358,"StopCode":"BP2684","PointLetter":"P","StopName":"The Glen","Latitude":51.611881,"Longitude":-0.430495,"Action":0},{"StopId":5508,"StopCode":"22295","PointLetter":"R","StopName":"Myrtleside Close","Latitude":51.611613,"Longitude":-0.432613,"Action":0},{"StopId":5424,"StopCode":"8402","PointLetter":"S","StopName":"Holy Trinity School","Latitude":51.614081,"Longitude":-0.437727,"Action":0},{"StopId":5522,"StopCode":"28985","PointLetter":"D","StopName":"Mount Vernon Hospital","Latitude":51.616361,"Longitude":-0.444871,"Action":0}], "Routes" : [{"Id":8045,"Route":"H11","From":"Harrow Bus Station","Towards":"Mount Vernon Hospital","Run":"1","IsDay":1,"encodedLevels":"P@A?@F?AB@?A?CAD@@BAF?BB@@F@BC@@I??@?BAG?BAF@AADB@H@@DBF@B@CG??BBD?A@EAC?H@BBB?BEAD?@F@AE@B?@A@B@H@H?B?DB?A?D@AE??@C?FAAC@@A@EAD@P","encodedPoints":"wfyyHd}`AAhA^|JCvGCj@Dx@BFNJb@@PAHGJQHAFBj@~@rAxA\\HfA@z@Nt@`@bARApABJfB`JzAhHhD`NbAtEMnC@nD\\jWMjEMfAIzAa@b@a@l@sPfSeFtGoUrYiCdDoB`DGh@Ap@lCf[BzAEAOh@}BpQwBjNkA~DaA|BaBxCQEaAAkCDiE`B{@v@i@uAY_@WMcDqCkBeFCFSRqDbDsBvCgAl@QF_AN_@CkDRa@|@mBpBmBvEaCfGkDvNmApEeAzAcBfGWhBi@hC}AbD|AxCrAzD@l@CbAI|@o@tBcLp]}A~FgEvUeC|NOtB@JSnAG@}CdO_DtQ_CxOqVaNwGiDi@tBuEbTUdBS|BIdFJ~A^jE@zAAl@SbCyArKe@rF?`AT`LBfC^lMd@hC^hBa@d@ICmDlEeAxBkA`DoCfG_AzAuDrIiC~JyBpKFnDN~A","Color":"993333","hasRunTwo":1,"startPoint":{"Latitude":51.580126,"Longitude":-0.337622},"endPoint":{"Latitude":51.616378,"Longitude":-0.444919}}]}


