{"Stops" : [{"StopId":9150,"StopCode":"R0840","PointLetter":"D","StopName":"Harrow Bus Station","Latitude":51.580068,"Longitude":-0.337936,"Action":0},{"StopId":9137,"StopCode":"17183","PointLetter":"WH","StopName":"Neptune Road","Latitude":51.581267,"Longitude":-0.345123,"Action":0},{"StopId":9136,"StopCode":"17184","PointLetter":"WJ","StopName":"Oxford Road","Latitude":51.581254,"Longitude":-0.349324,"Action":0},{"StopId":9134,"StopCode":"17186","PointLetter":"WK","StopName":"The Gardens","Latitude":51.582886,"Longitude":-0.354086,"Action":0},{"StopId":9145,"StopCode":"18460","PointLetter":"NJ","StopName":"Durham Road","Latitude":51.584207,"Longitude":-0.357921,"Action":0},{"StopId":9196,"StopCode":"4547","PointLetter":"NB","StopName":"North Harrow Post Office","Latitude":51.586627,"Longitude":-0.361861,"Action":0},{"StopId":9132,"StopCode":"17188","PointLetter":"","StopName":"Southfield Park","Latitude":51.589064,"Longitude":-0.363159,"Action":0},{"StopId":18000,"StopCode":"BP455","PointLetter":"","StopName":"Priory Way","Latitude":51.591802,"Longitude":-0.362786,"Action":0},{"StopId":17864,"StopCode":"BP454","PointLetter":"","StopName":"Elmcroft Crescent","Latitude":51.593487,"Longitude":-0.361065,"Action":0},{"StopId":17632,"StopCode":"BP447","PointLetter":"","StopName":"Pinner Park Avenue","Latitude":51.597285,"Longitude":-0.356799,"Action":0},{"StopId":17866,"StopCode":"BP449","PointLetter":"","StopName":"Broadfields Sports Ground","Latitude":51.599479,"Longitude":-0.356200,"Action":0},{"StopId":17863,"StopCode":"BP456","PointLetter":"D","StopName":"Headstone Lane Station","Latitude":51.602016,"Longitude":-0.356224,"Action":0},{"StopId":9120,"StopCode":"26393","PointLetter":"A","StopName":"Headstone Lane","Latitude":51.603900,"Longitude":-0.355896,"Action":0},{"StopId":9251,"StopCode":"37292","PointLetter":"K","StopName":"Courtenay Avenue","Latitude":51.603904,"Longitude":-0.353672,"Action":0},{"StopId":9382,"StopCode":"BP2378","PointLetter":"E","StopName":"Long Elmes / Boxtree Lane","Latitude":51.603955,"Longitude":-0.351518,"Action":0},{"StopId":9345,"StopCode":"26389","PointLetter":"","StopName":"Stanhope Avenue","Latitude":51.604248,"Longitude":-0.344836,"Action":0},{"StopId":4271,"StopCode":"16410","PointLetter":"WS","StopName":"Long Elmes","Latitude":51.604864,"Longitude":-0.340077,"Action":0},{"StopId":9422,"StopCode":"16409","PointLetter":"WT","StopName":"Harrow Weald Bus Garage","Latitude":51.607033,"Longitude":-0.340243,"Action":0},{"StopId":9314,"StopCode":"BP146","PointLetter":"WV","StopName":"Monro Gardens","Latitude":51.609353,"Longitude":-0.339595,"Action":0},{"StopId":9393,"StopCode":"16407","PointLetter":"WE","StopName":"Brookshill","Latitude":51.611219,"Longitude":-0.337996,"Action":0},{"StopId":9453,"StopCode":"26983","PointLetter":"WF","StopName":"All Saints Mews","Latitude":51.612037,"Longitude":-0.334182,"Action":0},{"StopId":17629,"StopCode":"BP3119","PointLetter":"","StopName":"Brockhurst Corner","Latitude":51.612644,"Longitude":-0.331315,"Action":0},{"StopId":17906,"StopCode":"BP3037","PointLetter":"","StopName":"Gordon Avenue","Latitude":51.609528,"Longitude":-0.329710,"Action":0},{"StopId":17760,"StopCode":"BP3443","PointLetter":"BA","StopName":"Laurel Park","Latitude":51.607241,"Longitude":-0.329506,"Action":0},{"StopId":17952,"StopCode":"M19","PointLetter":"BB","StopName":"College Hill Road","Latitude":51.604548,"Longitude":-0.327973,"Action":0},{"StopId":17801,"StopCode":"29949","PointLetter":"BC","StopName":"Fisher Road","Latitude":51.602072,"Longitude":-0.325262,"Action":0},{"StopId":12101,"StopCode":"70117","PointLetter":"BD","StopName":"Belmont Health Centre","Latitude":51.600845,"Longitude":-0.320571,"Action":0},{"StopId":12036,"StopCode":"15027","PointLetter":"BE","StopName":"Belmont Circle","Latitude":51.601516,"Longitude":-0.317817,"Action":0},{"StopId":17860,"StopCode":"29950","PointLetter":"BG","StopName":"Clifton Avenue","Latitude":51.599078,"Longitude":-0.313965,"Action":0},{"StopId":17858,"StopCode":"29952","PointLetter":"Q","StopName":"Queens Avenue","Latitude":51.595919,"Longitude":-0.312538,"Action":0},{"StopId":7900,"StopCode":"7504","PointLetter":"S","StopName":"Kenton Library","Latitude":51.592563,"Longitude":-0.310540,"Action":0},{"StopId":7864,"StopCode":"16123","PointLetter":"T","StopName":"Hunters Grove","Latitude":51.590060,"Longitude":-0.308438,"Action":0},{"StopId":7996,"StopCode":"16125","PointLetter":"H","StopName":"Woodcock Hill / Kenton Lane","Latitude":51.586206,"Longitude":-0.307441,"Action":0},{"StopId":4715,"StopCode":"25066","PointLetter":"L","StopName":"St Leonard's Avenue","Latitude":51.584998,"Longitude":-0.310965,"Action":0},{"StopId":4858,"StopCode":"16126","PointLetter":"LL","StopName":"Upton Gardens","Latitude":51.583340,"Longitude":-0.314505,"Action":0},{"StopId":4614,"StopCode":"1757","PointLetter":"II","StopName":"Kenton Station","Latitude":51.581096,"Longitude":-0.318557,"Action":0},{"StopId":7993,"StopCode":"33935","PointLetter":"NN","StopName":"Northwick Park Station","Latitude":51.579050,"Longitude":-0.318200,"Action":0},{"StopId":4330,"StopCode":"15016","PointLetter":"G","StopName":"Harrow Central Police Station","Latitude":51.577834,"Longitude":-0.333875,"Action":0},{"StopId":4293,"StopCode":"37310","PointLetter":"L","StopName":"Harrow Town Centre","Latitude":51.579347,"Longitude":-0.334022,"Action":0},{"StopId":4703,"StopCode":"R0839","PointLetter":"E","StopName":"Harrow Bus Station","Latitude":51.579995,"Longitude":-0.337852,"Action":0}], "Routes" : [{"Id":1299,"Route":"H18","From":"Harrow Bus Station","Towards":"Harrow Bus Station","Run":"1","IsDay":1,"encodedLevels":"P@?EAAEB?E??@@AB?D@AFGAC?BE@@J?@B?DBAB?G?BB?AF@E?A?A@?E?A@CHBABAB?????HAB?DA@@D?C@AGA??BAEABAJBB?C?E@A@CBF?BADAD@@G?@B??DA?CFACAHABB@ADAC?@@DAC??BJ?A?D?AAAAGHA?B?E@CA?C@EA@?@AB@C?A?F@D@B@FAD@BP","encodedPoints":"wfyyHd}`AAhARjFL~EORcBFyCr@Dr@PTpClEAHMPCBQl@i@~@_ApCUlBEl@A~BLdNRpHqU~`A{@~B{@dA_FjFgAbA}C~B}Cr@qFzAmE~@wBgBi@a@cDwCyB{BcHoHuFsGuAuDeAiBSQi@[wDmAiA[_Gu@mBs@k@Y_AIWBuG@ILq@rBWpAOdAMd@ILMLG@SE[W{BiAqAX?sXOII[F_@NKMwJq@u`@?mAM{HWaOCaEgBf@mEf@w@AgA@qBScDk@eAW{F_AiBI}AAWRKVSBMQC[DQ?m@mDkYeAeG[cA}@yAoDuDUg@JWp@D`HeB^Qj@c@lGiEf@G`BAfEHn@CrG}@nBu@z@{@tAkAzAo@bGkEvAiDfAgBt@i@~F{CvFkDLSHYL{@CC?sAI{@{@wDKW_A}CaCaSTCXNbGkNlD}Gr@g@jAc@`L}ChD}ArAy@dHoCfEeCvI_GXUfAkAz@kA|@s@v@YxIyATOjBeBPMlA_@BFxFnU`C`Jf@`B|B~FdAbCJRDGfGlNnF|KhJwJa@bKIdIQ`LGNQRVpAxB|Hp@CJBLHRd@PfAJdAAZERKVC`@@fC@hAZrG|@dG^vC~@tJBv@mBvAiAn@UKWCgDF_DRO~PHxGLGHQ@uA","Color":"993333","hasRunTwo":0,"startPoint":{"Latitude":51.580126,"Longitude":-0.337622},"endPoint":{"Latitude":51.579921,"Longitude":-0.337817}}]}


