{"Stops" : [{"StopId":2743,"StopCode":"BP930","PointLetter":"U","StopName":"The Bell","Latitude":51.467182,"Longitude":-0.366430,"Action":0},{"StopId":3772,"StopCode":"15580","PointLetter":"O","StopName":"Treaty Centre","Latitude":51.467554,"Longitude":-0.362127,"Action":0},{"StopId":5266,"StopCode":"BP2285","PointLetter":"K","StopName":"Hounslow High Street","Latitude":51.469604,"Longitude":-0.357647,"Action":0},{"StopId":2988,"StopCode":"1341","PointLetter":"F","StopName":"Hounslow Bus Station","Latitude":51.471013,"Longitude":-0.353594,"Action":0},{"StopId":8026,"StopCode":"25794","PointLetter":"","StopName":"Stanborough Road","Latitude":51.470309,"Longitude":-0.348292,"Action":0},{"StopId":8022,"StopCode":"25798","PointLetter":"","StopName":"Farnell Road","Latitude":51.467614,"Longitude":-0.345308,"Action":0},{"StopId":8092,"StopCode":"25801","PointLetter":"","StopName":"Heath Road","Latitude":51.464945,"Longitude":-0.347334,"Action":0},{"StopId":8048,"StopCode":"25803","PointLetter":"","StopName":"Eaton Road","Latitude":51.462811,"Longitude":-0.347785,"Action":0},{"StopId":8068,"StopCode":"25805","PointLetter":"","StopName":"Reapers Way","Latitude":51.460652,"Longitude":-0.349634,"Action":0},{"StopId":8089,"StopCode":"25807","PointLetter":"","StopName":"Whitton Dene","Latitude":51.458081,"Longitude":-0.352231,"Action":0},{"StopId":8015,"StopCode":"25810","PointLetter":"S","StopName":"Kneller Road","Latitude":51.454730,"Longitude":-0.354367,"Action":0},{"StopId":3884,"StopCode":"25823","PointLetter":"W","StopName":"Whitton / Admiral Nelson","Latitude":51.453554,"Longitude":-0.356467,"Action":0},{"StopId":8066,"StopCode":"25824","PointLetter":"X","StopName":"Whitton High Street","Latitude":51.451785,"Longitude":-0.357913,"Action":0},{"StopId":8079,"StopCode":"25812","PointLetter":"B","StopName":"Whitton Station","Latitude":51.449225,"Longitude":-0.358091,"Action":0},{"StopId":8098,"StopCode":"25814","PointLetter":"C","StopName":"Pauline Crescent","Latitude":51.446328,"Longitude":-0.359922,"Action":0},{"StopId":8045,"StopCode":"25816","PointLetter":"D","StopName":"Ryecroft Avenue","Latitude":51.445071,"Longitude":-0.361996,"Action":0},{"StopId":4402,"StopCode":"26226","PointLetter":"E","StopName":"Whitton Corner Health & Social Care Ctr","Latitude":51.443757,"Longitude":-0.365165,"Action":0},{"StopId":4528,"StopCode":"16182","PointLetter":"F","StopName":"Willow Way","Latitude":51.440097,"Longitude":-0.363195,"Action":0},{"StopId":4439,"StopCode":"16180","PointLetter":"C","StopName":"Sixth Cross Road","Latitude":51.439768,"Longitude":-0.358977,"Action":0},{"StopId":4558,"StopCode":"14115","PointLetter":"GH","StopName":"Mill Road","Latitude":51.441573,"Longitude":-0.353674,"Action":0},{"StopId":4527,"StopCode":"16177","PointLetter":"GJ","StopName":"Meadway","Latitude":51.443922,"Longitude":-0.347446,"Action":0},{"StopId":4427,"StopCode":"16175","PointLetter":"GK","StopName":"First Cross Road","Latitude":51.444289,"Longitude":-0.344741,"Action":0},{"StopId":4525,"StopCode":"16173","PointLetter":"GL","StopName":"Twickenham Green","Latitude":51.444599,"Longitude":-0.341219,"Action":0},{"StopId":3914,"StopCode":"6422","PointLetter":"GP","StopName":"Heath Road / Grove Avenue","Latitude":51.445422,"Longitude":-0.335893,"Action":0},{"StopId":3817,"StopCode":"25898","PointLetter":"T","StopName":"Heath Road / Copthall Gardens","Latitude":51.445248,"Longitude":-0.332474,"Action":0},{"StopId":4409,"StopCode":"R0271","PointLetter":"N","StopName":"Twickenham / King Street","Latitude":51.445851,"Longitude":-0.329315,"Action":0},{"StopId":4487,"StopCode":"29987","PointLetter":"H","StopName":"York Street / Twickenham","Latitude":51.447537,"Longitude":-0.327138,"Action":0},{"StopId":8008,"StopCode":"9390","PointLetter":"S","StopName":"Lebanon Court","Latitude":51.449141,"Longitude":-0.323611,"Action":0},{"StopId":8016,"StopCode":"15559","PointLetter":"T","StopName":"Orleans Park School","Latitude":51.450313,"Longitude":-0.321323,"Action":0},{"StopId":13519,"StopCode":"BP5097","PointLetter":"U","StopName":"Marble Hill Park / Crown Road","Latitude":51.451896,"Longitude":-0.316299,"Action":0},{"StopId":8051,"StopCode":"15556","PointLetter":"V","StopName":"St Stephen's Church","Latitude":51.453356,"Longitude":-0.313439,"Action":0},{"StopId":4452,"StopCode":"15211","PointLetter":"W","StopName":"Cresswell Road","Latitude":51.455841,"Longitude":-0.309878,"Action":0},{"StopId":1879,"StopCode":"29982","PointLetter":"B","StopName":"George Street","Latitude":51.460713,"Longitude":-0.304718,"Action":0},{"StopId":1851,"StopCode":"16350","PointLetter":"C","StopName":"The Quadrant","Latitude":51.462742,"Longitude":-0.302656,"Action":0},{"StopId":1787,"StopCode":"14726","PointLetter":"M","StopName":"Richmond Station","Latitude":51.463756,"Longitude":-0.301898,"Action":0},{"StopId":1853,"StopCode":"16239","PointLetter":"RS","StopName":"Richmond Circus","Latitude":51.465387,"Longitude":-0.297130,"Action":0},{"StopId":1907,"StopCode":"16242","PointLetter":"ST","StopName":"Sheendale Road","Latitude":51.465959,"Longitude":-0.294402,"Action":0},{"StopId":1827,"StopCode":"9347","PointLetter":"SA","StopName":"Manor Circus","Latitude":51.467140,"Longitude":-0.290313,"Action":0},{"StopId":17451,"StopCode":"BP3087","PointLetter":"","StopName":"Manor Road","Latitude":51.467174,"Longitude":-0.289606,"Action":0}], "Routes" : [{"Id":789,"Route":"H22","From":"The Bell","Towards":"Manor Road","Run":"1","IsDay":1,"encodedLevels":"PAC@E@@AA@EB@@@@@@A@B?BAAE?AA?G?C?AAEAJ?B?@?B@?AF@C@E@D?BAAF@?B@@FA@C??@EC?B@AD?B@FABF@C@?@E@C@FB?D?A@HCA@@C@@ACAFAJ@@AD?ACAF?@@C@AD?BD@A@H?BB@BAD??C?EAB@BGAB@EA@CAE?B?F@B?F?A@E@A@CB@@CAA?A?G@B@@@@AC?D?@?B?BA@G@?B@@BP","encodedPoints":"mfcyHprfAbAYr@i@JYDi@?e@Iw@sA_MW{@@k@Gc@k@_CEGG@KO?IWa@G@KO@Im@aAa@qAiEmOaAcC_@Ws@qAq@kEiByJ{@aIgBkLQy@h@e@nF_G~AoAvCsBrAk@`Ay@jAeCbDgKTPJPJXJv@Pj@^z@X`@~CzFb@|@d@f@xCLvCX`Ch@|DfAzHxHb@Zj@X`A^xCn@d@@|CpAEFD`@FjDEJK`FKl@VAj@c@hCoAx@Af@DpACXD|BbA?RHj@VZz@lBt@~@b@VLDfANdABPhDl@fFhApFN@r@`@tAAlH]z@GxA?vBd@~Ah@`HfDfFrC`ErGVp@~@rCV|@\\tA^xCrA|HxEq@`@OTSFUPMPAPJz@Nt@IlB[|CmA`@m@zEaOKs@i@uHe@aFaA}Gk@qBkHqUsFmPmB_JkByKGy@GwCSaOIoAcAmK_BkL]_EEsBAkFb@uNGoCe@aHU}Ba@qCy@oBWe@{@aA[Q[CkByB_@s@}@qCiCuISk@iLgXg@aAgAmDk@gDQsB_B{M{B}Mu@AsB\\]A[K[[aBcFWa@IIgABUy@oBeGoAoCiM{Wm@d@{E~BOAMEOKOScB_EqEsJm@i@a@UeFsBo@_@{@s@AKaCkDk@gA[W_@GMJC?KGGIIc@WaDAm@@WHMCa@D}@Gy@cAuIkCaTqAeGGc@qBqIcA_Fw@qBGKAa@DMHEPBFDFJD`@GRPfB|AvH","Color":"993333","hasRunTwo":1,"startPoint":{"Latitude":51.467438,"Longitude":-0.366642},"endPoint":{"Latitude":51.467001,"Longitude":-0.290583}}]}


