{"Stops" : [{"StopId":17855,"StopCode":"BP2736","PointLetter":"BW","StopName":"Bulls Bridge Tesco","Latitude":51.498642,"Longitude":-0.405920,"Action":0},{"StopId":17850,"StopCode":"34937","PointLetter":"BA","StopName":"Hayes Road / Tesco","Latitude":51.498091,"Longitude":-0.405738,"Action":0},{"StopId":5291,"StopCode":"BP1292","PointLetter":"BT","StopName":"Navigator Park","Latitude":51.496191,"Longitude":-0.400977,"Action":0},{"StopId":5485,"StopCode":"34586","PointLetter":"A","StopName":"Heston Centre","Latitude":51.493481,"Longitude":-0.401994,"Action":0},{"StopId":5339,"StopCode":"34588","PointLetter":"B","StopName":"Cranford Community School","Latitude":51.486772,"Longitude":-0.405268,"Action":0},{"StopId":9632,"StopCode":"27907","PointLetter":"C","StopName":"Cranford Lane / Redwood Estate","Latitude":51.485201,"Longitude":-0.404833,"Action":0},{"StopId":17989,"StopCode":"BP3675","PointLetter":"HA","StopName":"Brabazon Road / Cranford Lane","Latitude":51.484171,"Longitude":-0.400462,"Action":0},{"StopId":17988,"StopCode":"BP3674","PointLetter":"HB","StopName":"Bleriot Road","Latitude":51.482686,"Longitude":-0.399750,"Action":0},{"StopId":17826,"StopCode":"BP3673","PointLetter":"HC","StopName":"Johnson Road","Latitude":51.481447,"Longitude":-0.397244,"Action":0},{"StopId":17825,"StopCode":"BP3672","PointLetter":"HD","StopName":"Alcock Road","Latitude":51.481873,"Longitude":-0.395530,"Action":0},{"StopId":17622,"StopCode":"BP3671","PointLetter":"HE","StopName":"Armytage Road","Latitude":51.482744,"Longitude":-0.394103,"Action":0},{"StopId":9618,"StopCode":"27903","PointLetter":"E","StopName":"Northfield Road","Latitude":51.484399,"Longitude":-0.392806,"Action":0},{"StopId":9620,"StopCode":"27901","PointLetter":"F","StopName":"Somerset Waye","Latitude":51.483811,"Longitude":-0.386676,"Action":0},{"StopId":17987,"StopCode":"BP3670","PointLetter":"HF","StopName":"Speart Lane","Latitude":51.483091,"Longitude":-0.386673,"Action":0},{"StopId":17824,"StopCode":"BP3669","PointLetter":"HG","StopName":"Blackthorn Court","Latitude":51.481720,"Longitude":-0.387643,"Action":0},{"StopId":17885,"StopCode":"BP3668","PointLetter":"","StopName":"Victoria Gardens","Latitude":51.480413,"Longitude":-0.388107,"Action":0},{"StopId":17823,"StopCode":"BP3667","PointLetter":"","StopName":"Beaufort Gardens","Latitude":51.479651,"Longitude":-0.385009,"Action":0},{"StopId":6258,"StopCode":"16204","PointLetter":"VB","StopName":"Heston House","Latitude":51.480117,"Longitude":-0.382271,"Action":0},{"StopId":17886,"StopCode":"BP3666","PointLetter":"CP","StopName":"The Warren","Latitude":51.481251,"Longitude":-0.379724,"Action":0},{"StopId":17621,"StopCode":"BP3665","PointLetter":"CQ","StopName":"Sutton Way","Latitude":51.480704,"Longitude":-0.375279,"Action":0},{"StopId":17944,"StopCode":"BP1174","PointLetter":"CR","StopName":"Upper Sutton Lane","Latitude":51.479331,"Longitude":-0.372232,"Action":0},{"StopId":17724,"StopCode":"BP1175","PointLetter":"CS","StopName":"Willow Gardens / Great West Road","Latitude":51.477025,"Longitude":-0.373927,"Action":0},{"StopId":17722,"StopCode":"BP1178","PointLetter":"","StopName":"Queenswood Avenue","Latitude":51.474711,"Longitude":-0.375651,"Action":0},{"StopId":18010,"StopCode":"BP1180","PointLetter":"P","StopName":"Dene Avenue","Latitude":51.472019,"Longitude":-0.378007,"Action":0},{"StopId":17720,"StopCode":"BP1181","PointLetter":"R","StopName":"Bath Road","Latitude":51.469716,"Longitude":-0.378621,"Action":0},{"StopId":18011,"StopCode":"BP1184","PointLetter":"K","StopName":"Staines Road","Latitude":51.466077,"Longitude":-0.378203,"Action":0},{"StopId":17945,"StopCode":"BP1185","PointLetter":"L","StopName":"Beverley Avenue","Latitude":51.464079,"Longitude":-0.377381,"Action":0},{"StopId":17762,"StopCode":"BP4561","PointLetter":"","StopName":"Marshall Close","Latitude":51.462617,"Longitude":-0.376382,"Action":0},{"StopId":17726,"StopCode":"BP1172","PointLetter":"","StopName":"Granville Avenue","Latitude":51.460266,"Longitude":-0.374753,"Action":0},{"StopId":4556,"StopCode":"16193","PointLetter":"N","StopName":"Nelson Road","Latitude":51.457495,"Longitude":-0.372116,"Action":0},{"StopId":4477,"StopCode":"16195","PointLetter":"ST","StopName":"Cromwell Road","Latitude":51.459809,"Longitude":-0.369759,"Action":0},{"StopId":4475,"StopCode":"16197","PointLetter":"SU","StopName":"Hibernia Road","Latitude":51.462079,"Longitude":-0.367447,"Action":0},{"StopId":4474,"StopCode":"16199","PointLetter":"SW","StopName":"Bell Road","Latitude":51.464730,"Longitude":-0.364733,"Action":0},{"StopId":3859,"StopCode":"BP1365","PointLetter":"J","StopName":"Grove Road","Latitude":51.466513,"Longitude":-0.362984,"Action":0},{"StopId":3772,"StopCode":"15580","PointLetter":"O","StopName":"Treaty Centre","Latitude":51.467554,"Longitude":-0.362127,"Action":0},{"StopId":5266,"StopCode":"BP2285","PointLetter":"K","StopName":"Hounslow High Street","Latitude":51.469604,"Longitude":-0.357647,"Action":0},{"StopId":9583,"StopCode":"BP4824","PointLetter":"E","StopName":"Hounslow Bus Station","Latitude":51.470395,"Longitude":-0.355689,"Action":0},{"StopId":9614,"StopCode":"16217","PointLetter":"EE","StopName":"Hounslow East Station","Latitude":51.472936,"Longitude":-0.356736,"Action":0},{"StopId":9615,"StopCode":"16216","PointLetter":"","StopName":"Denbigh Road","Latitude":51.475953,"Longitude":-0.360228,"Action":0},{"StopId":17887,"StopCode":"BP3664","PointLetter":"","StopName":"Spring Grove Crescent","Latitude":51.476835,"Longitude":-0.356437,"Action":0},{"StopId":17818,"StopCode":"BP4197","PointLetter":"","StopName":"Gresham Road","Latitude":51.476194,"Longitude":-0.353710,"Action":0},{"StopId":17620,"StopCode":"BP3663","PointLetter":"","StopName":"Worton Way","Latitude":51.476129,"Longitude":-0.351624,"Action":0},{"StopId":17619,"StopCode":"BP3662","PointLetter":"Y","StopName":"Witham Road","Latitude":51.476187,"Longitude":-0.348080,"Action":0},{"StopId":17773,"StopCode":"BP3661","PointLetter":"","StopName":"Eversley Crescent","Latitude":51.477483,"Longitude":-0.345570,"Action":0},{"StopId":17888,"StopCode":"BP3660","PointLetter":"C","StopName":"Thornbury Avenue / Great West Road","Latitude":51.480483,"Longitude":-0.346643,"Action":0},{"StopId":17889,"StopCode":"BP3659","PointLetter":"D","StopName":"Osterley Library","Latitude":51.482640,"Longitude":-0.345931,"Action":0},{"StopId":17986,"StopCode":"BP3658","PointLetter":"E","StopName":"Jersey Gardens","Latitude":51.483167,"Longitude":-0.343723,"Action":0},{"StopId":17772,"StopCode":"BP3657","PointLetter":"","StopName":"Ridgeway Road","Latitude":51.483949,"Longitude":-0.342441,"Action":0},{"StopId":17822,"StopCode":"BP3656","PointLetter":"","StopName":"Jersey Road","Latitude":51.487181,"Longitude":-0.341403,"Action":0},{"StopId":17618,"StopCode":"BP3655","PointLetter":"","StopName":"Conquest Club","Latitude":51.485265,"Longitude":-0.338865,"Action":0},{"StopId":17985,"StopCode":"BP3654","PointLetter":"F","StopName":"Braybourne Drive / Great West Road","Latitude":51.483515,"Longitude":-0.337215,"Action":0},{"StopId":20993,"StopCode":"BP5496","PointLetter":"Y","StopName":"Great West Road / Borough Road","Latitude":51.482163,"Longitude":-0.336371,"Action":0},{"StopId":17890,"StopCode":"BP3653","PointLetter":"","StopName":"Borough Road","Latitude":51.480145,"Longitude":-0.335422,"Action":0},{"StopId":17891,"StopCode":"BP3652","PointLetter":"S","StopName":"Hartham Road","Latitude":51.476522,"Longitude":-0.332328,"Action":0},{"StopId":8923,"StopCode":"BP3651","PointLetter":"T","StopName":"Alton Close","Latitude":51.475340,"Longitude":-0.330801,"Action":0},{"StopId":5856,"StopCode":"4568","PointLetter":"HC","StopName":"Twickenham Rd / West Middlesex Hospital","Latitude":51.475239,"Longitude":-0.326269,"Action":0},{"StopId":5844,"StopCode":"27569","PointLetter":"TD","StopName":"Park Road","Latitude":51.477917,"Longitude":-0.323579,"Action":0},{"StopId":2915,"StopCode":"6187","PointLetter":"T","StopName":"Busch Corner","Latitude":51.479005,"Longitude":-0.322329,"Action":0},{"StopId":17943,"StopCode":"BP1107","PointLetter":"Y","StopName":"Marlborough Road","Latitude":51.480434,"Longitude":-0.321039,"Action":0},{"StopId":17981,"StopCode":"BP989","PointLetter":"B","StopName":"Syon Lane Station","Latitude":51.482257,"Longitude":-0.325220,"Action":0},{"StopId":17869,"StopCode":"BP3121","PointLetter":"L","StopName":"Tescos Osterley","Latitude":51.484928,"Longitude":-0.330308,"Action":0}], "Routes" : [{"Id":2919,"Route":"H28","From":"Bulls Bridge Tesco","Towards":"Tescos Osterley","Run":"1","IsDay":1,"encodedLevels":"P?E@?C@D??@G?ACB@BD@@BHCAF?AB@I?@A@@E??B?EE?FGA??G?BAFG@F?B@@FABAACA@D?I@ABEBAD??CA@E?BAA@A@AH@@AA@F@?BJA?DC@FABAAAACH@CD@BADBA@H?@D?BDBB@HB@E?@G??C@F?E?BDAI@BC?ABD?B?@C?AE@C?BH?@FA@DB@E@I?AC?A@A@CAADAE@B?@P","encodedPoints":"mhiyHfjnAIY]kCD?D^\\|BT\\l@\\BaAl@eLZuDr@cNx@HlB\\~KbCdFnBhDdCdAh@dExArShGp@XtGhBjEh@l@eLDgGY_Gr@YxHsCrH{BNKT]HUDY@_@P{KJ_DC_ACGKOGEoBWmB]VgFuCc@iFaATwQh@aERwCBgAr@aMh@\\nFnEd@HvHdFzBkN~A}Lp@sGg@[o@[m@Ku@EeGaAb@aJT_MVgEz@uGZ{GAuASu@?SPW~AaDNG~@?pF\\xAh@jCrC|@fC~@bB`A`@pExB`B|@t@n@z@nAlFjFVLhGjCdEjAFGVDRPPEVDDHb@ADITCxRcA|Hw@V@xHaFj_@cUjC{AjAwAAMw^g_@}SqT}FeFk@Aw@FUwAc@sAG@oDsIgAwDyDeKs@qA}AqJoBb@kAd@aKjIqAtAqChDuDjFm@jAgB~AqAr@}@VY@Ao@k@oK?cANaAbCqLhAoJTsGKqYPyFVkE}JkBc@Cs@ByKtEgH|CqBbAMiBgAgMIk@u@iDmBiHq@V}FnCwAcC[e@iBcBuHaCeAi@`@Gl@SjMuHPOx@eAnG_GhC_Bn@WtGaDf@Ox@QdAK|AaAjF}CbDaCrEkEnAsAxB_DfEoG`AmCJ[N_AxA}JiBeBuKwNwAcBkA}@s@CgDq@kCkLgAqFm@|@{CzEw@bBWtAa@bC[jAc@jAEXB^m@|@eDlHuDjJsCzPy@zCUe@_@cBCU?e@F[","Color":"993333","hasRunTwo":1,"startPoint":{"Latitude":51.498476,"Longitude":-0.406276},"endPoint":{"Latitude":51.484854,"Longitude":-0.330143}}]}


