{"Stops" : [{"StopId":4577,"StopCode":"BP1268","PointLetter":"NJ","StopName":"Kingston Hospital","Latitude":51.414948,"Longitude":-0.281101,"Action":0},{"StopId":4489,"StopCode":"BP1735","PointLetter":"NA","StopName":"Norbiton Station","Latitude":51.412739,"Longitude":-0.283212,"Action":0},{"StopId":4488,"StopCode":"BP1736","PointLetter":"NV","StopName":"Station Road","Latitude":51.412078,"Longitude":-0.289032,"Action":0},{"StopId":19994,"StopCode":"BP5305","PointLetter":"NW","StopName":"Gordon Road","Latitude":51.411745,"Longitude":-0.290223,"Action":0},{"StopId":2273,"StopCode":"R0277","PointLetter":"","StopName":"Norbiton Church","Latitude":51.410653,"Longitude":-0.293068,"Action":0},{"StopId":2912,"StopCode":"BP387","PointLetter":"C","StopName":"Tiffin School / London Road","Latitude":51.410546,"Longitude":-0.295546,"Action":0},{"StopId":2186,"StopCode":"R0702","PointLetter":"D2","StopName":"Eden Street","Latitude":51.410025,"Longitude":-0.302409,"Action":0},{"StopId":2170,"StopCode":"BP492","PointLetter":"F","StopName":"Brook Street","Latitude":51.408325,"Longitude":-0.303652,"Action":0},{"StopId":2265,"StopCode":"12900","PointLetter":"UA","StopName":"Kingston University / County Hall","Latitude":51.404258,"Longitude":-0.304118,"Action":0},{"StopId":2255,"StopCode":"4486","PointLetter":"B","StopName":"Surbiton Crescent","Latitude":51.400687,"Longitude":-0.304034,"Action":0},{"StopId":2177,"StopCode":"27354","PointLetter":"C","StopName":"Maple Road","Latitude":51.398996,"Longitude":-0.304658,"Action":0},{"StopId":2139,"StopCode":"19590","PointLetter":"NH","StopName":"The Crescent","Latitude":51.395669,"Longitude":-0.304019,"Action":0},{"StopId":2215,"StopCode":"27532","PointLetter":"NK","StopName":"Surbiton Station","Latitude":51.393550,"Longitude":-0.304255,"Action":0},{"StopId":2138,"StopCode":"25135","PointLetter":"NL","StopName":"St Mark's Church","Latitude":51.394959,"Longitude":-0.300365,"Action":0},{"StopId":2221,"StopCode":"6726","PointLetter":"SM","StopName":"Surbiton Telephone Exchange","Latitude":51.393756,"Longitude":-0.298641,"Action":0},{"StopId":4007,"StopCode":"31742","PointLetter":"SQ","StopName":"Berrylands Road","Latitude":51.393297,"Longitude":-0.297364,"Action":0},{"StopId":4090,"StopCode":"24483","PointLetter":"","StopName":"Parklands","Latitude":51.394267,"Longitude":-0.293563,"Action":0},{"StopId":4003,"StopCode":"23520","PointLetter":"","StopName":"Regent Road","Latitude":51.395842,"Longitude":-0.292454,"Action":0},{"StopId":4077,"StopCode":"23517","PointLetter":"","StopName":"The Ridings","Latitude":51.397274,"Longitude":-0.287025,"Action":0},{"StopId":4094,"StopCode":"23515","PointLetter":"B","StopName":"The Berrylands / Berrylands Station","Latitude":51.397925,"Longitude":-0.281739,"Action":0},{"StopId":4002,"StopCode":"23514","PointLetter":"","StopName":"Pembroke Avenue","Latitude":51.397378,"Longitude":-0.278180,"Action":0},{"StopId":4000,"StopCode":"23511","PointLetter":"","StopName":"The Roystons","Latitude":51.395249,"Longitude":-0.280143,"Action":0},{"StopId":4056,"StopCode":"23509","PointLetter":"","StopName":"Pine Gardens","Latitude":51.391472,"Longitude":-0.281981,"Action":0},{"StopId":4022,"StopCode":"R0133","PointLetter":"","StopName":"Edith Gardens","Latitude":51.389488,"Longitude":-0.281638,"Action":0},{"StopId":4041,"StopCode":"23505","PointLetter":"","StopName":"Southcote Avenue","Latitude":51.386145,"Longitude":-0.280556,"Action":0},{"StopId":3999,"StopCode":"23504","PointLetter":"","StopName":"Austyn Gardens","Latitude":51.384392,"Longitude":-0.283065,"Action":0},{"StopId":2199,"StopCode":"BP4867","PointLetter":"J","StopName":"Princes Avenue","Latitude":51.382369,"Longitude":-0.284922,"Action":0},{"StopId":2213,"StopCode":"11739","PointLetter":"F","StopName":"Tolworth Broadway","Latitude":51.379943,"Longitude":-0.281377,"Action":0},{"StopId":2188,"StopCode":"R0287","PointLetter":"B","StopName":"Tolworth Station","Latitude":51.378217,"Longitude":-0.279545,"Action":0},{"StopId":20471,"StopCode":"BP5327","PointLetter":"","StopName":"Jubilee Way / King George's Field","Latitude":51.371178,"Longitude":-0.284004,"Action":0},{"StopId":4498,"StopCode":"34034","PointLetter":"","StopName":"Roebuck Road","Latitude":51.369002,"Longitude":-0.287116,"Action":0},{"StopId":4444,"StopCode":"BP1960","PointLetter":"","StopName":"Mount Road","Latitude":51.369059,"Longitude":-0.291022,"Action":0},{"StopId":4502,"StopCode":"BP1957","PointLetter":"","StopName":"Oakcroft Road","Latitude":51.368974,"Longitude":-0.295034,"Action":0},{"StopId":4492,"StopCode":"BP3619","PointLetter":"","StopName":"Cox Lane","Latitude":51.369353,"Longitude":-0.300091,"Action":0},{"StopId":4491,"StopCode":"BP3620","PointLetter":"HT","StopName":"Elm Road","Latitude":51.368224,"Longitude":-0.302273,"Action":0},{"StopId":4458,"StopCode":"BP3621","PointLetter":"AP","StopName":"Rosemary Gardens","Latitude":51.369167,"Longitude":-0.304006,"Action":0},{"StopId":4500,"StopCode":"C17","PointLetter":"HJ","StopName":"Hook Parade","Latitude":51.367941,"Longitude":-0.306306,"Action":0}], "Routes" : [{"Id":1153,"Route":"K2","From":"Kingston Hospital","Towards":"Hook Parade","Run":"1","IsDay":1,"encodedLevels":"P?D?F@?B?A@E@C?@?EBAA?DCB@IB@F??CA?ABAAB??E?@@E?B@D?B@E@@C@EAJ?ACAF@AF@ACA?FBF??ACA?FBD@@?A?IA?B?@BC@ADABG?AE@DBGDC@HADBBCA@EAD@AJ??@BDEB?G?BAA?@B@@DBFAF@DF@?P","encodedPoints":"c~xxHr}u@GuA@_@pBKdGQ~@rUAh@b@bODh@j@nEj@jHCXz@lAbDxFJn@JX?FN~A\\jHJxGKn@NbKPdSgAJJpDPj@PRhFtE`@b@bAbB~AEv@EtCEp@Vh@G^Av@FjEp@`BBrH`Ad@BhFFr@DDERGt@}@lB_BJj@ZdAd@x@VVZTXLt@Lx@@b@C|A]VQt@m@vAiBtVtAnEFKu@I[qHeTk@oC]wCrA]bCUnDQAeBTuHA_Im@yD?ODg@{GqB}DyB_@yBaBwHg@kCsAgJo@oE}@aJa@}E[mIHoKD?b@kErAsINo@A_@D_@NIF@HL@PC\\ILp@~Av@hBrAhCxBjD~AzBnCtC|@Tv@N|JxA|E\\bOkEbG}A`BIvCVrHhT`CtEt@l@dBdA`AsGRg@nDiGhEgF~B{DJ_ATu@R_@`AG~Bk@~AoBlIkJrAgAHRBZV~@fCrHhDbHbMjQ|BvBfH|DfCxAJ~@@V_@xICrECrH@jELbQEhMGHErHyA~CYrB|EnLvAdEqD`FcDdFYhEtDh@|Dn@xAX","Color":"993333","hasRunTwo":1,"startPoint":{"Latitude":51.414905,"Longitude":-0.281375},"endPoint":{"Latitude":51.367704,"Longitude":-0.306523}}]}


