{"Stops" : [{"StopId":6745,"StopCode":"LG48","PointLetter":"PA","StopName":"Roehampton Vale Asda","Latitude":51.438795,"Longitude":-0.247673,"Action":0},{"StopId":5695,"StopCode":"19553","PointLetter":"","StopName":"Roehampton Vale Campus","Latitude":51.438147,"Longitude":-0.250604,"Action":0},{"StopId":6708,"StopCode":"BP3896","PointLetter":"H","StopName":"Windermere Road","Latitude":51.429373,"Longitude":-0.258693,"Action":0},{"StopId":6679,"StopCode":"BP3897","PointLetter":"J","StopName":"Bowness Crescent","Latitude":51.427378,"Longitude":-0.258754,"Action":0},{"StopId":5808,"StopCode":"BP069","PointLetter":"K","StopName":"Keswick Avenue","Latitude":51.427729,"Longitude":-0.256382,"Action":0},{"StopId":5797,"StopCode":"18723","PointLetter":"L","StopName":"Grasmere Avenue","Latitude":51.431733,"Longitude":-0.257093,"Action":0},{"StopId":5809,"StopCode":"3475","PointLetter":"M","StopName":"Vale Crescent / Robin Hood","Latitude":51.435019,"Longitude":-0.256766,"Action":0},{"StopId":6684,"StopCode":"2416","PointLetter":"P","StopName":"Robin Hood Lane","Latitude":51.434360,"Longitude":-0.259625,"Action":0},{"StopId":6691,"StopCode":"19551","PointLetter":"Q","StopName":"Woodview Close","Latitude":51.432686,"Longitude":-0.263185,"Action":0},{"StopId":6725,"StopCode":"19549","PointLetter":"R","StopName":"Kingston University","Latitude":51.429712,"Longitude":-0.267585,"Action":0},{"StopId":6699,"StopCode":"BP1337","PointLetter":"S","StopName":"Galsworthy House","Latitude":51.427125,"Longitude":-0.272631,"Action":0},{"StopId":6712,"StopCode":"1602","PointLetter":"T","StopName":"Warren Road","Latitude":51.424558,"Longitude":-0.274814,"Action":0},{"StopId":6762,"StopCode":"R0279","PointLetter":"","StopName":"Ravenswood Court","Latitude":51.421456,"Longitude":-0.277261,"Action":0},{"StopId":6683,"StopCode":"1916","PointLetter":"","StopName":"Kingston Lodge","Latitude":51.418725,"Longitude":-0.279320,"Action":0},{"StopId":2839,"StopCode":"29817","PointLetter":"NK","StopName":"Kingston Hospital","Latitude":51.415592,"Longitude":-0.280876,"Action":0},{"StopId":4489,"StopCode":"BP1735","PointLetter":"NA","StopName":"Norbiton Station","Latitude":51.412739,"Longitude":-0.283212,"Action":0},{"StopId":4488,"StopCode":"BP1736","PointLetter":"NV","StopName":"Station Road","Latitude":51.412078,"Longitude":-0.289032,"Action":0},{"StopId":19994,"StopCode":"BP5305","PointLetter":"NW","StopName":"Gordon Road","Latitude":51.411745,"Longitude":-0.290223,"Action":0},{"StopId":2273,"StopCode":"R0277","PointLetter":"","StopName":"Norbiton Church","Latitude":51.410653,"Longitude":-0.293068,"Action":0},{"StopId":2912,"StopCode":"BP387","PointLetter":"C","StopName":"Tiffin School / London Road","Latitude":51.410546,"Longitude":-0.295546,"Action":0},{"StopId":2186,"StopCode":"R0702","PointLetter":"D2","StopName":"Eden Street","Latitude":51.410025,"Longitude":-0.302409,"Action":0},{"StopId":2170,"StopCode":"BP492","PointLetter":"F","StopName":"Brook Street","Latitude":51.408325,"Longitude":-0.303652,"Action":0},{"StopId":2265,"StopCode":"12900","PointLetter":"UA","StopName":"Kingston University / County Hall","Latitude":51.404258,"Longitude":-0.304118,"Action":0},{"StopId":2255,"StopCode":"4486","PointLetter":"B","StopName":"Surbiton Crescent","Latitude":51.400687,"Longitude":-0.304034,"Action":0},{"StopId":2177,"StopCode":"27354","PointLetter":"C","StopName":"Maple Road","Latitude":51.398996,"Longitude":-0.304658,"Action":0},{"StopId":2139,"StopCode":"19590","PointLetter":"NH","StopName":"The Crescent","Latitude":51.395669,"Longitude":-0.304019,"Action":0},{"StopId":2215,"StopCode":"27532","PointLetter":"NK","StopName":"Surbiton Station","Latitude":51.393550,"Longitude":-0.304255,"Action":0},{"StopId":2848,"StopCode":"1420","PointLetter":"NP","StopName":"Victoria Road / Surbiton Station","Latitude":51.392544,"Longitude":-0.305629,"Action":0},{"StopId":2956,"StopCode":"BP379","PointLetter":"NR","StopName":"Surbiton Sainsbury's","Latitude":51.391711,"Longitude":-0.307672,"Action":0},{"StopId":6666,"StopCode":"19463","PointLetter":"NS","StopName":"Balaclava Road","Latitude":51.391523,"Longitude":-0.311531,"Action":0},{"StopId":6739,"StopCode":"BP2466","PointLetter":"","StopName":"Victoria Recreation Ground","Latitude":51.389436,"Longitude":-0.315229,"Action":0},{"StopId":6665,"StopCode":"19464","PointLetter":"","StopName":"St Mary's Road","Latitude":51.387969,"Longitude":-0.316979,"Action":0},{"StopId":6663,"StopCode":"19466","PointLetter":"","StopName":"Windmill Lane","Latitude":51.386632,"Longitude":-0.320348,"Action":0},{"StopId":6753,"StopCode":"34949","PointLetter":"","StopName":"Rectory Lane","Latitude":51.383683,"Longitude":-0.322238,"Action":0},{"StopId":6736,"StopCode":"34947","PointLetter":"","StopName":"Mayfield Close","Latitude":51.382261,"Longitude":-0.327205,"Action":0},{"StopId":6737,"StopCode":"34945","PointLetter":"","StopName":"Claygate Lane","Latitude":51.379915,"Longitude":-0.333627,"Action":0},{"StopId":6752,"StopCode":"34943","PointLetter":"","StopName":"Hinchley Wood Station","Latitude":51.374489,"Longitude":-0.338422,"Action":0},{"StopId":6731,"StopCode":"35524","PointLetter":"","StopName":"Manor Road South","Latitude":51.368024,"Longitude":-0.345436,"Action":0},{"StopId":6733,"StopCode":"35522","PointLetter":"","StopName":"Oaken Lane","Latitude":51.362828,"Longitude":-0.342434,"Action":0},{"StopId":6668,"StopCode":"19361","PointLetter":"","StopName":"St Leonards Road","Latitude":51.360303,"Longitude":-0.338762,"Action":0},{"StopId":6667,"StopCode":"19362","PointLetter":"","StopName":"Red Lane","Latitude":51.360810,"Longitude":-0.336417,"Action":0},{"StopId":6747,"StopCode":"R0163","PointLetter":"","StopName":"Common Road","Latitude":51.359354,"Longitude":-0.334617,"Action":0},{"StopId":6689,"StopCode":"20643","PointLetter":"","StopName":"The Causeway","Latitude":51.357688,"Longitude":-0.336990,"Action":0},{"StopId":6757,"StopCode":"25460","PointLetter":"","StopName":"The Recreation Ground","Latitude":51.357962,"Longitude":-0.337913,"Action":0},{"StopId":6707,"StopCode":"19363","PointLetter":"","StopName":"Claygate Village Hall","Latitude":51.359423,"Longitude":-0.339441,"Action":0},{"StopId":6713,"StopCode":"33013","PointLetter":"","StopName":"Dalmore Avenue","Latitude":51.360070,"Longitude":-0.341959,"Action":0},{"StopId":6669,"StopCode":"19360","PointLetter":"","StopName":"The Parade / Claygate Station","Latitude":51.360536,"Longitude":-0.345677,"Action":0},{"StopId":6671,"StopCode":"19358","PointLetter":"","StopName":"Loseberry Road","Latitude":51.362961,"Longitude":-0.349928,"Action":0},{"StopId":6673,"StopCode":"19355","PointLetter":"","StopName":"Arbrook Lane","Latitude":51.364317,"Longitude":-0.354879,"Action":0},{"StopId":6705,"StopCode":"19353","PointLetter":"","StopName":"Orchard Way","Latitude":51.363497,"Longitude":-0.360539,"Action":0},{"StopId":6680,"StopCode":"BP287","PointLetter":"","StopName":"Clare Hill","Latitude":51.364295,"Longitude":-0.364260,"Action":0},{"StopId":6748,"StopCode":"35368","PointLetter":"","StopName":"Esher High Street","Latitude":51.369984,"Longitude":-0.364617,"Action":0}], "Routes" : [{"Id":2642,"Route":"K3","From":"Roehampton Vale Asda","Towards":"Esher High Street","Run":"1","IsDay":1,"encodedLevels":"P?AB?A@EAB@AE@?AC?@CACAH??CB@FDAD?BG@E@HAC?@D?B@B??DHAA?D?A@DBAC@?H@BA?A@AE@?G@CD?AHB?CBA@E@C?@?EBAA?DCB@IB@F??CA?ABAAB??E?@@E?AC@AE?AD?AEBI@@@E@F?BDAA@C?AEF?ACF@AAC@C?@GC@C?EA?C?ADID@E@BA@CA?GAAA?A?BAF@@C@D@BJ?BAF?@AC?FAAF?ABBF?B@E@FC@?A@C@H??B@@B@?EA@BF@BA?EP","encodedPoints":"cu}xHtmo@TUt@k@ZA?KFQJCJDHPGb@MDUVoAzBfBhGxBdJtB`IzBhH`AtAVTvAjBLj@M|BtBlFzAnCHCnB]jCk@~DHfH_@nGe@j@zEbAe@PBHRP`BXGbDqAxCyAiAgIWwCaEv@cIdAgAJoH`@gHV]AoC[IKASa@Oq@OmDaAAjAhEhL`DfKvAxDhCvGf@bAjBzCbF~GhAhB`CzEdEbMjD`Jb@~@rBdDb@j@fCpCn@f@nQvLdGrElB|A|FrDf@TbExCzAhChCrFnBzD^a@dE_DhCu@l@ItCSdGQt@bOBlAB`Jb@lIhAdJR~DCXz@lAbDxFJn@JX?FN~A\\jHJxGKn@NbKPdSgAJJpDPj@PRhFtE`@b@bAbB~AEv@EtCEp@Vh@G^Av@FjEp@`BBrH`Ad@BhFFr@DDERGt@}@lB_BJj@ZdAd@x@r@l@XLt@Lx@@b@C|A]VQt@m@vAiBtVtAxFt@P~@rHpV`@x@Ff@iA~CmAjEtGdNrFrLr@nCPB^r@VTRDN@VGh@WfLx`@j@]|G_FZc@^j@H^@j@pI|c@lBrLj@~HVzBb@|A~A|EZl@nErCtFvG`A`AvCxBhZnTnDtDvAdB|DnF^t@dAlCnClFtEtChCpAdAm@pBw@pAgAbGeElAc@bHyDnBaAhEuCrAcAdFiEHYMSO}C_@mCa@gCs@uGY{CEwAJu@L[T[RMREhAIz@?^DbDx@AXDRjFbMDb@GBMHwArA{ItJYn@w@`C~@xM`@nCDrCKX[d@iBxBaLhJiB~BALVbMMrBMxGSl@yEnKKlFNrAP|@z@pHBv@lArNPnERvNc@?IDI?EGs@ImGqAw@GmC?[@y@RkFxCwH|DqFrBCkBFyAVuBPo@Na@|AzC","Color":"993333","hasRunTwo":1,"startPoint":{"Latitude":51.439064,"Longitude":-0.248102},"endPoint":{"Latitude":51.369857,"Longitude":-0.365074}}]}


