{"Stops" : [{"StopId":5547,"StopCode":"BP1549","PointLetter":"KL","StopName":"Croydon Library","Latitude":51.372408,"Longitude":-0.099116,"Action":0},{"StopId":5575,"StopCode":"SL33","PointLetter":"KE","StopName":"Park Street","Latitude":51.373593,"Longitude":-0.097932,"Action":0},{"StopId":5667,"StopCode":"10813","PointLetter":"WL","StopName":"Whitgift Centre","Latitude":51.376092,"Longitude":-0.098432,"Action":0},{"StopId":6946,"StopCode":"R0852","PointLetter":"B4","StopName":"West Croydon Bus Station","Latitude":51.379251,"Longitude":-0.101348,"Action":0},{"StopId":6791,"StopCode":"BP2000","PointLetter":"WT","StopName":"West Croydon Station","Latitude":51.378581,"Longitude":-0.103272,"Action":0},{"StopId":7227,"StopCode":"15112","PointLetter":"LD","StopName":"Montague Road","Latitude":51.380443,"Longitude":-0.104977,"Action":0},{"StopId":7128,"StopCode":"4417","PointLetter":"LE","StopName":"Sumner Road","Latitude":51.383772,"Longitude":-0.108404,"Action":0},{"StopId":7242,"StopCode":"15110","PointLetter":"LF","StopName":"Broad Green Avenue","Latitude":51.385269,"Longitude":-0.109822,"Action":0},{"StopId":6980,"StopCode":"25866","PointLetter":"B","StopName":"Canterbury Road","Latitude":51.386899,"Longitude":-0.111020,"Action":0},{"StopId":7228,"StopCode":"15108","PointLetter":"D","StopName":"Croydon University Hospital","Latitude":51.390283,"Longitude":-0.112318,"Action":0},{"StopId":8755,"StopCode":"26981","PointLetter":"J","StopName":"Thornton Heath Pond","Latitude":51.393099,"Longitude":-0.114113,"Action":0},{"StopId":7241,"StopCode":"15106","PointLetter":"S","StopName":"Colliers Water Lane","Latitude":51.395234,"Longitude":-0.114888,"Action":0},{"StopId":7330,"StopCode":"15600","PointLetter":"A","StopName":"Langdale Road","Latitude":51.397672,"Longitude":-0.116053,"Action":0},{"StopId":8678,"StopCode":"1164","PointLetter":"B","StopName":"Galpins Road","Latitude":51.401325,"Longitude":-0.118418,"Action":0},{"StopId":8708,"StopCode":"15104","PointLetter":"W","StopName":"Ederline Avenue","Latitude":51.403878,"Longitude":-0.119478,"Action":0},{"StopId":8622,"StopCode":"15102","PointLetter":"G","StopName":"Tylecroft Road","Latitude":51.407644,"Longitude":-0.121567,"Action":0},{"StopId":5615,"StopCode":"4425","PointLetter":"B","StopName":"Norbury Station","Latitude":51.410922,"Longitude":-0.123000,"Action":0},{"StopId":5673,"StopCode":"15602","PointLetter":"K","StopName":"Hermitage Lane","Latitude":51.414342,"Longitude":-0.124312,"Action":0},{"StopId":5622,"StopCode":"1833","PointLetter":"CK","StopName":"Arragon Gardens","Latitude":51.416689,"Longitude":-0.125956,"Action":0},{"StopId":5548,"StopCode":"15100","PointLetter":"CL","StopName":"Kempshott Road","Latitude":51.419012,"Longitude":-0.127860,"Action":0},{"StopId":5633,"StopCode":"4868","PointLetter":"CM","StopName":"Streatham Common / Greyhound Lane","Latitude":51.421177,"Longitude":-0.128807,"Action":0},{"StopId":21573,"StopCode":"91240","PointLetter":"SZ","StopName":"Streatham Station","Latitude":51.424406,"Longitude":-0.130546,"Action":0},{"StopId":5574,"StopCode":"SL37","PointLetter":"SK","StopName":"St Leonard's Church","Latitude":51.428542,"Longitude":-0.131111,"Action":0},{"StopId":5646,"StopCode":"4865","PointLetter":"OA","StopName":"Becmead Avenue","Latitude":51.432816,"Longitude":-0.128951,"Action":0},{"StopId":2846,"StopCode":"2403","PointLetter":"M","StopName":"Kingscourt Road","Latitude":51.434489,"Longitude":-0.128422,"Action":0},{"StopId":2833,"StopCode":"36915","PointLetter":"K","StopName":"Mount Ephraim Road","Latitude":51.435941,"Longitude":-0.128161,"Action":0},{"StopId":2807,"StopCode":"25856","PointLetter":"A","StopName":"Streatham Hill Stn  / Streatham Hill","Latitude":51.439382,"Longitude":-0.126251,"Action":0},{"StopId":2768,"StopCode":"1764","PointLetter":"S","StopName":"Barrhill Road","Latitude":51.440782,"Longitude":-0.125546,"Action":0},{"StopId":5603,"StopCode":"25666","PointLetter":"T","StopName":"Telford Avenue","Latitude":51.442849,"Longitude":-0.124871,"Action":0},{"StopId":2873,"StopCode":"43","PointLetter":"BS","StopName":"Christchurch Road","Latitude":51.444592,"Longitude":-0.124757,"Action":0},{"StopId":5540,"StopCode":"2397","PointLetter":"BT","StopName":"Holmewood Road","Latitude":51.446951,"Longitude":-0.124358,"Action":0},{"StopId":5670,"StopCode":"706","PointLetter":"BU","StopName":"New Park Road","Latitude":51.448858,"Longitude":-0.123819,"Action":0},{"StopId":5671,"StopCode":"707","PointLetter":"BV","StopName":"Jebb Avenue / Brixton Prison","Latitude":51.451078,"Longitude":-0.122116,"Action":0},{"StopId":5672,"StopCode":"710","PointLetter":"BW","StopName":"Blenheim Gardens","Latitude":51.454319,"Longitude":-0.120040,"Action":0},{"StopId":5658,"StopCode":"2395","PointLetter":"BY","StopName":"Rush Common","Latitude":51.457105,"Longitude":-0.118285,"Action":0},{"StopId":5537,"StopCode":"24458","PointLetter":"X","StopName":"Lambeth Town Hall","Latitude":51.459912,"Longitude":-0.116658,"Action":0},{"StopId":5556,"StopCode":"14622","PointLetter":"R","StopName":"Brixton Station","Latitude":51.462417,"Longitude":-0.115302,"Action":0},{"StopId":5542,"StopCode":"236","PointLetter":"D","StopName":"Brixton Road / Brixton Police Station","Latitude":51.465613,"Longitude":-0.113861,"Action":0},{"StopId":5611,"StopCode":"2393","PointLetter":"RA","StopName":"Villa Road","Latitude":51.467423,"Longitude":-0.112893,"Action":0},{"StopId":5643,"StopCode":"4726","PointLetter":"RB","StopName":"Loughborough Road","Latitude":51.469586,"Longitude":-0.112588,"Action":0},{"StopId":5657,"StopCode":"2391","PointLetter":"RC","StopName":"Groveway","Latitude":51.472693,"Longitude":-0.112863,"Action":0},{"StopId":5578,"StopCode":"BP2394","PointLetter":"RD","StopName":"Hillyard Street","Latitude":51.474714,"Longitude":-0.112737,"Action":0},{"StopId":5616,"StopCode":"451","PointLetter":"RE","StopName":"Vassall Road","Latitude":51.477308,"Longitude":-0.112414,"Action":0},{"StopId":5629,"StopCode":"517","PointLetter":"H","StopName":"Kennington Church","Latitude":51.480712,"Longitude":-0.111063,"Action":0},{"StopId":8778,"StopCode":"25649","PointLetter":"M","StopName":"Kennington Park","Latitude":51.483757,"Longitude":-0.110837,"Action":0},{"StopId":5545,"StopCode":"26761","PointLetter":"U","StopName":"Kennington Park Post Office","Latitude":51.485061,"Longitude":-0.110869,"Action":0},{"StopId":5655,"StopCode":"384","PointLetter":"KP","StopName":"Windmill Row","Latitude":51.487705,"Longitude":-0.111423,"Action":0},{"StopId":5589,"StopCode":"2650","PointLetter":"KH","StopName":"Kennington Lane","Latitude":51.489924,"Longitude":-0.111259,"Action":0},{"StopId":5610,"StopCode":"26764","PointLetter":"KG","StopName":"Fitzalan Street","Latitude":51.492807,"Longitude":-0.111068,"Action":0},{"StopId":5564,"StopCode":"25654","PointLetter":"E","StopName":"Kennington Road / Imperial War Museum","Latitude":51.495695,"Longitude":-0.111164,"Action":0},{"StopId":5602,"StopCode":"25652","PointLetter":"G","StopName":"Lambeth North Station","Latitude":51.498087,"Longitude":-0.112261,"Action":0},{"StopId":1639,"StopCode":"4741","PointLetter":"A","StopName":"Lower Marsh","Latitude":51.499573,"Longitude":-0.114073,"Action":0},{"StopId":1557,"StopCode":"26487","PointLetter":"D","StopName":"Westminster Bridge / County Hall","Latitude":51.500689,"Longitude":-0.119199,"Action":0},{"StopId":5647,"StopCode":"996","PointLetter":"A","StopName":"Parliament Square","Latitude":51.501874,"Longitude":-0.126341,"Action":0},{"StopId":5675,"StopCode":"7867","PointLetter":"","StopName":"Horse Guards Parade","Latitude":51.504051,"Longitude":-0.126381,"Action":0},{"StopId":3221,"StopCode":"BP3503","PointLetter":"T","StopName":"Trafalgar Square","Latitude":51.507523,"Longitude":-0.129812,"Action":0},{"StopId":2143,"StopCode":"17683","PointLetter":"Z","StopName":"Regent Street / Charles I I Street","Latitude":51.508249,"Longitude":-0.133601,"Action":0},{"StopId":1563,"StopCode":"156","PointLetter":"D","StopName":"Piccadilly Circus","Latitude":51.509822,"Longitude":-0.136967,"Action":0},{"StopId":1660,"StopCode":"16573","PointLetter":"M","StopName":"Conduit Street / Hamleys Toy Store","Latitude":51.512363,"Longitude":-0.140135,"Action":0},{"StopId":7321,"StopCode":"34848","PointLetter":"AP","StopName":"Oxford Circus","Latitude":51.514504,"Longitude":-0.144169,"Action":0}], "Routes" : [{"Id":3829,"Route":"109","From":"Croydon Library","Towards":"Brixton Station","Run":"1","IsDay":1,"encodedLevels":"PE@AE?DBG?CAAF@?D?C@G@@@CA@C@G@B?@@D@@BCB@BE@B?DD@B??D@AC?AC@D@E?C?ABBE@A@CEAAB?CBJ@?BA@EAE@@ACBC@CEB@@B?A?AF@?D@C?BF@B?C??@DB@@P","encodedPoints":"gtpxHprRCqJc@DoBB_APo@{HEYKScAXiDlBwS|LaD~@g@AaA`@H|@n@hDFJ`Ab@pCvA`@nAFf@ORE?sKpJwHlGmG~GwE`GIRoDrCyGzEaAj@sAf@oBf@aI~BCE{FdBcAl@mDdCcDlBqBl@_Av@GP?f@yBrAOy@Q]MGWIoInCCHmHzCaGbD_KzFaAd@oBp@kHpBwChAkEnBgLnFoHxC_ANyFvA_KzFwDlBqAVOHu@Yo@[KOqA_@e@HgAp@s@p@wE~E_FxE{HdFgCz@q@HuHrCaIlDoHxCWK}H`Cc@@QEaHm@oCESFa@?eFqGq@g@UG_CQ[@eCa@eC}A}EqAe@DaFUyEkAqFoB_@WU[y@g@{FgC]MoEiCu@e@sEsBu@?SDoHh@uDu@gFy@gGEo@CoCe@eBy@}@m@iDwCy@k@_GgD{RqK_Am@wHaEeXyMwF_CyDqASO","Color":"993333","hasRunTwo":1,"startPoint":{"Latitude":51.372367,"Longitude":-0.100406},"endPoint":{"Latitude":51.462889,"Longitude":-0.115048}},{"Id":3763,"Route":"N109","From":"Croydon Library","Towards":"Oxford Circus","Run":"1","IsDay":0,"encodedLevels":"PE@AE?DBG?CAAF@?D?C@G@@@CA@C@G@B?@@D@@BCB@BE@B?DD@B??D@AC?AC@D@E?C?ABBE@A@CEAAB?CBJ@?BA@EAE@@ACBC@CEB@@B?A?AF@?D@C?BF@B?AC@?BEA?ABH?A?BDA?E?CA@EB?B?E?@FA@BEB?BAJA@BE?ABG@A@C?A?CG?@BBCAE@ABG?ABADFA@AAAAAB?E??C@E@@@@?@EEA@CA?CP","encodedPoints":"gtpxHprRCqJc@DoBB_APo@{HEYKScAXiDlBwS|LaD~@g@AaA`@H|@n@hDFJ`Ab@pCvA`@nAFf@ORE?sKpJwHlGmG~GwE`GIRoDrCyGzEaAj@sAf@oBf@aI~BCE{FdBcAl@mDdCcDlBqBl@_Av@GP?f@yBrAOy@Q]MGWIoInCCHmHzCaGbD_KzFaAd@oBp@kHpBwChAkEnBgLnFoHxC_ANyFvA_KzFwDlBqAVOHu@Yo@[KOqA_@e@HgAp@s@p@wE~E_FxE{HdFgCz@q@HuHrCaIlDoHxCWK}H`Cc@@QEaHm@oCESFa@?eFqGq@g@UG_CQ[@eCa@eC}A}EqAe@DaFUyEkAqFoB_@WU[y@g@{FgC]MoEiCu@e@sEsBu@?SDoHh@uDu@gFy@gGEo@CoCe@eBy@}@m@iDwCy@k@_GgD{RqK_Am@wHaEeXyMwF_CmKwDmK{DiH_DkEaAe@Ec@AeB@sHJsKj@iGIsO{@qDWuEcAeBc@eC}@{CaBiAc@_AP]VgBfAsAPoAJ[]y@s@mF{Ds@^a@h@cDxCs@F{HAaBIod@sAaCA}CTyD`B{Bv@kF|AaDlBaBnEmAzCkA|AcApCAl@DVd@`AJh@AXGXYl@e@rAs@fu@GHIDQ@eDg@eEIOJaFb@KFsB\\cLxDq@t@ALe@lBU`CUdEE~F`BtGiIbGAPQNGIWRAPQNIGaAz@}A`B?RFx@NpHOlAo@jCOTK@UXuCdCKBmGrFqG~FdA|HKPc@L_Aj@On@ARBZiC~@","Color":"663366","hasRunTwo":1,"startPoint":{"Latitude":51.372367,"Longitude":-0.100406},"endPoint":{"Latitude":51.514983,"Longitude":-0.144346}}]}


