{"Stops" : [{"StopId":2738,"StopCode":"19280","PointLetter":"F","StopName":"Ealing Broadway Station","Latitude":51.514704,"Longitude":-0.302224,"Action":0},{"StopId":8881,"StopCode":"18849","PointLetter":"R","StopName":"Ealing Town Hall","Latitude":51.512805,"Longitude":-0.307094,"Action":0},{"StopId":8875,"StopCode":"BP1361","PointLetter":"Q","StopName":"St Leonard's Road","Latitude":51.512099,"Longitude":-0.311746,"Action":0},{"StopId":8892,"StopCode":"33864","PointLetter":"P","StopName":"Dane Road","Latitude":51.511401,"Longitude":-0.315764,"Action":0},{"StopId":7527,"StopCode":"18464","PointLetter":"H","StopName":"The Lido","Latitude":51.510253,"Longitude":-0.319106,"Action":0},{"StopId":7723,"StopCode":"BP3542","PointLetter":"","StopName":"Sherwood Close","Latitude":51.507379,"Longitude":-0.319385,"Action":0},{"StopId":7750,"StopCode":"15353","PointLetter":"","StopName":"Hessel Road","Latitude":51.505201,"Longitude":-0.319249,"Action":0},{"StopId":7847,"StopCode":"R0458","PointLetter":"A","StopName":"Graham Avenue","Latitude":51.503108,"Longitude":-0.316891,"Action":0},{"StopId":7820,"StopCode":"14093","PointLetter":"B","StopName":"Northfields Station","Latitude":51.498789,"Longitude":-0.314198,"Action":0},{"StopId":7545,"StopCode":"15356","PointLetter":"C","StopName":"Julien Road","Latitude":51.497786,"Longitude":-0.313212,"Action":0},{"StopId":7797,"StopCode":"15358","PointLetter":"N","StopName":"South Ealing Road","Latitude":51.498193,"Longitude":-0.306541,"Action":0},{"StopId":7546,"StopCode":"15361","PointLetter":"P","StopName":"Lionel Road North","Latitude":51.499931,"Longitude":-0.299258,"Action":0},{"StopId":7380,"StopCode":"14692","PointLetter":"R","StopName":"Knights Avenue","Latitude":51.501646,"Longitude":-0.294122,"Action":0},{"StopId":7598,"StopCode":"17288","PointLetter":"","StopName":"Gunnersbury Park","Latitude":51.500910,"Longitude":-0.288012,"Action":0},{"StopId":7798,"StopCode":"15364","PointLetter":"","StopName":"Gunnersbury Avenue","Latitude":51.501636,"Longitude":-0.283590,"Action":0},{"StopId":7645,"StopCode":"33852","PointLetter":"S","StopName":"Acton Town Station","Latitude":51.504019,"Longitude":-0.279841,"Action":0},{"StopId":7799,"StopCode":"15366","PointLetter":"T","StopName":"Hillcrest Road","Latitude":51.506243,"Longitude":-0.278229,"Action":0},{"StopId":7623,"StopCode":"2037","PointLetter":"Q","StopName":"Acton Fire Station","Latitude":51.507814,"Longitude":-0.276816,"Action":0},{"StopId":6452,"StopCode":"R0742","PointLetter":"D","StopName":"King Street","Latitude":51.507568,"Longitude":-0.272314,"Action":0},{"StopId":5129,"StopCode":"3043","PointLetter":"F","StopName":"Acton Old Town Hall","Latitude":51.506816,"Longitude":-0.268899,"Action":0},{"StopId":7425,"StopCode":"20819","PointLetter":"V","StopName":"Petersfield Road","Latitude":51.503987,"Longitude":-0.266715,"Action":0},{"StopId":7745,"StopCode":"15370","PointLetter":"A","StopName":"Wilkinson Way","Latitude":51.502558,"Longitude":-0.264320,"Action":0},{"StopId":7449,"StopCode":"17350","PointLetter":"B","StopName":"St Peter's Church","Latitude":51.502649,"Longitude":-0.260758,"Action":0},{"StopId":7743,"StopCode":"15372","PointLetter":"C","StopName":"Rugby Road","Latitude":51.502280,"Longitude":-0.257688,"Action":0},{"StopId":7801,"StopCode":"15374","PointLetter":"D","StopName":"Blandford Road","Latitude":51.499924,"Longitude":-0.256467,"Action":0},{"StopId":7741,"StopCode":"15375","PointLetter":"K","StopName":"Bedford Road","Latitude":51.497154,"Longitude":-0.255881,"Action":0},{"StopId":7590,"StopCode":"11761","PointLetter":"KK","StopName":"Turnham Green Station","Latitude":51.495112,"Longitude":-0.255210,"Action":0},{"StopId":7823,"StopCode":"20294","PointLetter":"NN","StopName":"Chardin Road","Latitude":51.493152,"Longitude":-0.255242,"Action":0},{"StopId":1878,"StopCode":"29149","PointLetter":"OO","StopName":"Chiswick Lane","Latitude":51.492913,"Longitude":-0.253047,"Action":0},{"StopId":1790,"StopCode":"1037","PointLetter":"H","StopName":"Stamford Brook Bus Garage","Latitude":51.493153,"Longitude":-0.249263,"Action":0},{"StopId":1863,"StopCode":"29874","PointLetter":"M","StopName":"Goldhawk Road / Young's Corner","Latitude":51.493412,"Longitude":-0.246732,"Action":0},{"StopId":1814,"StopCode":"6148","PointLetter":"F","StopName":"Ravenscourt Park","Latitude":51.493552,"Longitude":-0.239855,"Action":0},{"StopId":1794,"StopCode":"6146","PointLetter":"E","StopName":"Ravenscourt Park Station","Latitude":51.493326,"Longitude":-0.237386,"Action":0},{"StopId":1877,"StopCode":"6144","PointLetter":"C","StopName":"Dalling Road","Latitude":51.492993,"Longitude":-0.235555,"Action":0},{"StopId":1799,"StopCode":"BP3195","PointLetter":"","StopName":"Lamington Street","Latitude":51.494506,"Longitude":-0.231549,"Action":0},{"StopId":1915,"StopCode":"20412","PointLetter":"","StopName":"Iffley Road","Latitude":51.494494,"Longitude":-0.229576,"Action":0},{"StopId":1861,"StopCode":"29966","PointLetter":"W","StopName":"Hammersmith Stn / H'smith & City Line","Latitude":51.493339,"Longitude":-0.225169,"Action":0},{"StopId":2040,"StopCode":"R0877","PointLetter":"C","StopName":"Hammersmith Bus Station","Latitude":51.491906,"Longitude":-0.223756,"Action":0},{"StopId":2061,"StopCode":"33000","PointLetter":"M","StopName":"Hammersmith Broadway","Latitude":51.490597,"Longitude":-0.223432,"Action":0},{"StopId":2081,"StopCode":"8886","PointLetter":"HA","StopName":"Charing Cross Hospital","Latitude":51.486601,"Longitude":-0.220822,"Action":0},{"StopId":2110,"StopCode":"401","PointLetter":"HB","StopName":"Greyhound Road","Latitude":51.485394,"Longitude":-0.220091,"Action":0},{"StopId":3874,"StopCode":"4655","PointLetter":"HC","StopName":"Bothwell Street","Latitude":51.483488,"Longitude":-0.217775,"Action":0},{"StopId":6344,"StopCode":"11249","PointLetter":"HH","StopName":"Munster Road / Fulham Cross","Latitude":51.482127,"Longitude":-0.213449,"Action":0},{"StopId":6345,"StopCode":"11247","PointLetter":"HJ","StopName":"Hannell Road","Latitude":51.481599,"Longitude":-0.211785,"Action":0},{"StopId":6549,"StopCode":"11245","PointLetter":"","StopName":"Sherbrooke Road","Latitude":51.480787,"Longitude":-0.206373,"Action":0},{"StopId":6347,"StopCode":"11243","PointLetter":"J","StopName":"Shorrolds Road","Latitude":51.480280,"Longitude":-0.203181,"Action":0},{"StopId":6343,"StopCode":"1459","PointLetter":"B","StopName":"North End Road","Latitude":51.480642,"Longitude":-0.200387,"Action":0},{"StopId":1825,"StopCode":"9327","PointLetter":"E","StopName":"Fulham Broadway","Latitude":51.480356,"Longitude":-0.198181,"Action":0},{"StopId":11879,"StopCode":"1456","PointLetter":"R","StopName":"Fulham Town Hall","Latitude":51.479324,"Longitude":-0.194779,"Action":0},{"StopId":1813,"StopCode":"1462","PointLetter":"GE","StopName":"Tyrawley Road","Latitude":51.477658,"Longitude":-0.192339,"Action":0},{"StopId":11881,"StopCode":"11263","PointLetter":"GC","StopName":"Rumbold Road","Latitude":51.478452,"Longitude":-0.188981,"Action":0},{"StopId":11952,"StopCode":"1808","PointLetter":"GD","StopName":"Worlds End Health Centre","Latitude":51.480717,"Longitude":-0.184830,"Action":0},{"StopId":11951,"StopCode":"37444","PointLetter":"","StopName":"Edith Grove / Worlds End","Latitude":51.481603,"Longitude":-0.182217,"Action":0},{"StopId":5183,"StopCode":"11296","PointLetter":"QH","StopName":"Hobury Street / Worlds End","Latitude":51.482463,"Longitude":-0.179129,"Action":0},{"StopId":11885,"StopCode":"1448","PointLetter":"QT","StopName":"Beaufort Street","Latitude":51.484281,"Longitude":-0.176306,"Action":0},{"StopId":1872,"StopCode":"35905","PointLetter":"KE","StopName":"Old Church Street","Latitude":51.485537,"Longitude":-0.173808,"Action":0},{"StopId":1772,"StopCode":"11294","PointLetter":"KF","StopName":"Carlyle Square","Latitude":51.486646,"Longitude":-0.171113,"Action":0},{"StopId":5668,"StopCode":"1573","PointLetter":"KL","StopName":"Chelsea Old Town Hall","Latitude":51.487976,"Longitude":-0.167588,"Action":0},{"StopId":5626,"StopCode":"1824","PointLetter":"KN","StopName":"Markham Street","Latitude":51.488954,"Longitude":-0.165201,"Action":0},{"StopId":5558,"StopCode":"11291","PointLetter":"KP","StopName":"Duke Of York Square","Latitude":51.490880,"Longitude":-0.161277,"Action":0},{"StopId":5562,"StopCode":"20968","PointLetter":"E","StopName":"Cadogan Gardens / Sloane Square","Latitude":51.492058,"Longitude":-0.158925,"Action":0},{"StopId":7096,"StopCode":"R0098","PointLetter":"M","StopName":"Sloane Square Station/ Lower Sloane St","Latitude":51.491663,"Longitude":-0.157299,"Action":0},{"StopId":11940,"StopCode":"9418","PointLetter":"P","StopName":"Chelsea Bridge Road","Latitude":51.490023,"Longitude":-0.155334,"Action":0},{"StopId":11949,"StopCode":"35311","PointLetter":"R","StopName":"Ebury Bridge Road","Latitude":51.490891,"Longitude":-0.151093,"Action":0},{"StopId":10327,"StopCode":"7820","PointLetter":"W","StopName":"Victoria Coach Station","Latitude":51.492108,"Longitude":-0.148407,"Action":0},{"StopId":10351,"StopCode":"35312","PointLetter":"T","StopName":"Eccleston Bridge","Latitude":51.493492,"Longitude":-0.147242,"Action":0},{"StopId":20942,"StopCode":"BP5458","PointLetter":"S","StopName":"Victoria Station   / Grosvenor Gardens","Latitude":51.496444,"Longitude":-0.145105,"Action":0},{"StopId":1584,"StopCode":"14973","PointLetter":"N","StopName":"Westminster Cathedral","Latitude":51.496921,"Longitude":-0.140029,"Action":0},{"StopId":1615,"StopCode":"20434","PointLetter":"SA","StopName":"Westminster City Hall","Latitude":51.497416,"Longitude":-0.136652,"Action":0},{"StopId":1653,"StopCode":"7863","PointLetter":"SC","StopName":"New Scotland Yard","Latitude":51.497762,"Longitude":-0.134635,"Action":0},{"StopId":7027,"StopCode":"20179","PointLetter":"R","StopName":"Westminster Abbey","Latitude":51.499034,"Longitude":-0.130967,"Action":0},{"StopId":5647,"StopCode":"996","PointLetter":"A","StopName":"Parliament Square","Latitude":51.501874,"Longitude":-0.126341,"Action":0},{"StopId":5675,"StopCode":"7867","PointLetter":"","StopName":"Horse Guards Parade","Latitude":51.504051,"Longitude":-0.126381,"Action":0},{"StopId":3089,"StopCode":"BP3506","PointLetter":"F","StopName":"Trafalgar Square / Charing Cross Stn","Latitude":51.508292,"Longitude":-0.126178,"Action":0},{"StopId":2233,"StopCode":"7853","PointLetter":"A","StopName":"Southampton Street / Covent Garden","Latitude":51.510366,"Longitude":-0.122043,"Action":0},{"StopId":11,"StopCode":"14628","PointLetter":"D","StopName":"Aldwych","Latitude":51.512368,"Longitude":-0.118978,"Action":0},{"StopId":52,"StopCode":"1853","PointLetter":"M","StopName":"The Royal Courts Of Justice","Latitude":51.513315,"Longitude":-0.114139,"Action":0},{"StopId":201,"StopCode":"3177","PointLetter":"","StopName":"Fetter Lane","Latitude":51.514253,"Longitude":-0.108725,"Action":0},{"StopId":165,"StopCode":"969","PointLetter":"E","StopName":"Ludgate Circus","Latitude":51.514251,"Longitude":-0.105280,"Action":0},{"StopId":259,"StopCode":"14501","PointLetter":"G","StopName":"Ludgate Hill / Old Bailey","Latitude":51.513953,"Longitude":-0.101862,"Action":0},{"StopId":172,"StopCode":"8601","PointLetter":"SK","StopName":"St Paul's Cathedral","Latitude":51.513192,"Longitude":-0.097599,"Action":0},{"StopId":207,"StopCode":"8551","PointLetter":"ME","StopName":"Mansion House Station","Latitude":51.512671,"Longitude":-0.094854,"Action":0},{"StopId":122,"StopCode":"4770","PointLetter":"MD","StopName":"Bank Station  / Queen Victoria Street","Latitude":51.512925,"Longitude":-0.091716,"Action":0},{"StopId":726,"StopCode":"8606","PointLetter":"C","StopName":"Bank Station  / Threadneedle Street","Latitude":51.513824,"Longitude":-0.087844,"Action":0},{"StopId":3101,"StopCode":"37665","PointLetter":"Z","StopName":"Great Winchester Street","Latitude":51.515814,"Longitude":-0.084114,"Action":0},{"StopId":3034,"StopCode":"OC509","PointLetter":"","StopName":"Liverpool Street Station","Latitude":51.518032,"Longitude":-0.082796,"Action":0}], "Routes" : [{"Id":4651,"Route":"11","From":"Fulham Town Hall","Towards":"Liverpool Street Station","Run":"1","IsDay":1,"encodedLevels":"P@GBA?C??AD@B??ABD?@C@?B?D?C@A??DAB??G@AEA@CEECF@CD?CH@AB@BDBFAC@GABC@@@E@B@ACAF?BE@?H?BBD@BEBA@AAFCA@DC@@AGA??BAA@@C@?EADB@HACA??C??@?A?D@F??BBB@AG@?B??A?@F@D@B?AP","encodedPoints":"useyHjee@`EoGrIwNsAyC@_AQ_AISq@kAqFwKcEaIe@sA}AsFeCeKKi@{@cGE_@eBcImCaJQa@e@q@USSGW@m@KQUe@cAuDsJwCcImDoL_FqQmEmN]oAcC}HqGkNyDwJsBkDGEKUGu@GoDJOVCLDJPJlCvGmAjC}@~BqEsAeCIU_BiLUoC}@sJZqB[e@G]u@aAQ?]UqEeFcRsL}EuB{@~CcArBaCvASTMs@GuFJsEVwBRs@H}A^wBXu@LOl@a@z@W`As@L[A_@k@wGwBwXkAgJqGcVWw@sDqMMSAK}BM_@i@Dw@CqBQKeDg@oBGKJO@IMo@A_FVOTaCf@gCx@{G~Bq@t@ALg@n@IASWEYAMc@yB_C{Fg@u@Ss@gCeGeC}G}@uCiCoJ{@oDwBUsAe@u@o@_@k@g@qAe@uBOoBAmBJ{AFa@RcDMgAI]WsBA[}AmNQyBy@uKCgENeV\\kFLuAn@mJb@w@r@iK`@{B`BeOZaGu@cGuA_Ii@eDGgA?s@EYGUwAkIi@yDe@q@}DyHsBeBqCkBe@O{DaBqAu@","Color":"993333","hasRunTwo":1,"startPoint":{"Latitude":51.479794,"Longitude":-0.195575},"endPoint":{"Latitude":51.518119,"Longitude":-0.082673}},{"Id":1316,"Route":"N11","From":"Ealing Broadway Station","Towards":"Liverpool Street Station","Run":"1","IsDay":0,"encodedLevels":"P@B?@A?E@@EAAB?AIDBDF?@??D@D??B?DAAJ@AC?AD?B@@D@BF@B?@BD@B@@?G?B?EBC@BEC?IB?AB@DG@DFA?CAACAF?C?@H?@CE?BABDH@B?@B?E?B@B@EFAH@A@CBAAAF?BC?@EAA?DAC@@?E?BD?BB?H?ABD?D@D?@@?AEC@BE@B@DAB@F@D@JBA?C??AD@B??ABD?@C@?B?D?C@A??DAB??G@AEA@CEECF@CD?CH@AB@BDBFAC@GABC@@@E@B@ACAF?BE@?H?BBD@BEBA@AAFCA@DC@@AGA??BAA@@C@?EADB@HACA??C??@?A?D@F??BBB@AG@?B??A?@F@D@B?AP","encodedPoints":"golyHr`z@t@CPGRMT]`@WDCPBHJRrAtCtK@~Aj@bJzBdY|AnO|@tJ|BpXzDmAdRrA~FDtCgAf@i@l@w@tEoG|AyBJK~AkAjGcEJAlA@`@C\\I`DgAzJ_JnA{@`@m@Lc@Ho@GkAUy@q@iBeBeHYsEaAuLQu@yB{R_BsLQc@_Ja_@qAcI@uA`@gJLoAfAmIVmCTyFFiDEeAWiCMQCc@G_@KS{C_LqDsJm@uAu@iAiLcGiB_BsGyGeB_AaBsBEaBA_DXmCJQxAuEt@aDPaBrBeNV_PRAtAc@r@nHjC_AzD_CjAm@z@_A\\cAfAaA`@KlADW{]EgNBYHUXc@PMfDcBz@o@Do@bKsA~IeAjDw@pAk@tEq@`NF[qS@uBa@}H]yE]}H[_UOuOFaFPgIf@_F~@qLEE@uBkHkAKaUJwQFAhAgBhAiCNg@dAqERyBEo@LuAHGHCJCt@hCHHJ@^?TG`BsBHQ@OnAHnE]t@]lFuAVK~Bu@fC}CrCaDzAeAbAi@p@W~EgAvBaA~@i@Is@@a@b@uIbAuIj@cCr@oDl@m@tBaBVeD^uGpCa\\RgDx@_K`@eCNiDe@}BkA_IK}Cj@KvAk@V[?Is@{@m@aBIm@Ba@XqAlBaH`EoGrIwNsAyC@_AQ_AISq@kAqFwKcEaIe@sA}AsFeCeKKi@{@cGE_@eBcImCaJQa@e@q@USSGW@m@KQUe@cAuDsJwCcImDoL_FqQmEmN]oAcC}HqGkNyDwJsBkDGEKUGu@GoDJOVCLDJPJlCvGmAjC}@~BqEsAeCIU_BiLUoC}@sJZqB[e@G]u@aAQ?]UqEeFcRsL}EuB{@~CcArBaCvASTMs@GuFJsEVwBRs@H}A^wBXu@LOl@a@z@W`As@L[A_@k@wGwBwXkAgJqGcVWw@sDqMMSAK}BM_@i@Dw@CqBQKeDg@oBGKJO@IMo@A_FVOTaCf@gCx@{G~Bq@t@ALg@n@IASWEYAMc@yB_C{Fg@u@Ss@gCeGeC}G}@uCiCoJ{@oDwBUsAe@u@o@_@k@g@qAe@uBOoBAmBJ{AFa@RcDMgAI]WsBA[}AmNQyBy@uKCgENeV\\kFLuAn@mJb@w@r@iK`@{B`BeOZaGu@cGuA_Ii@eDGgA?s@EYGUwAkIi@yDe@q@}DyHsBeBqCkBe@O{DaBqAu@","Color":"663366","hasRunTwo":1,"startPoint":{"Latitude":51.514921,"Longitude":-0.302338},"endPoint":{"Latitude":51.518119,"Longitude":-0.082673}}]}


