{"Stops" : [{"StopId":6954,"StopCode":"BP2418","PointLetter":"D","StopName":"Crystal Palace Bus Station","Latitude":51.420426,"Longitude":-0.077995,"Action":0},{"StopId":7106,"StopCode":"13222","PointLetter":"G","StopName":"Westow Hill","Latitude":51.419018,"Longitude":-0.079363,"Action":0},{"StopId":7248,"StopCode":"BP3761","PointLetter":"H","StopName":"Westow Street","Latitude":51.417841,"Longitude":-0.082145,"Action":0},{"StopId":7047,"StopCode":"1443","PointLetter":"L","StopName":"Gipsy Hill Police Station","Latitude":51.419434,"Longitude":-0.084408,"Action":0},{"StopId":7348,"StopCode":"13190","PointLetter":"","StopName":"Rockmount Road","Latitude":51.420306,"Longitude":-0.088844,"Action":0},{"StopId":7349,"StopCode":"13189","PointLetter":"H","StopName":"Hermitage Road","Latitude":51.421643,"Longitude":-0.091392,"Action":0},{"StopId":7012,"StopCode":"13188","PointLetter":"J","StopName":"Salter's Hill","Latitude":51.422756,"Longitude":-0.094582,"Action":0},{"StopId":7333,"StopCode":"13354","PointLetter":"K","StopName":"Norwood Park","Latitude":51.424043,"Longitude":-0.097937,"Action":0},{"StopId":7078,"StopCode":"13353","PointLetter":"L","StopName":"Gipsy Road","Latitude":51.427294,"Longitude":-0.099932,"Action":0},{"StopId":7122,"StopCode":"37121","PointLetter":"U","StopName":"Norwood Bus Garage","Latitude":51.429690,"Longitude":-0.103501,"Action":0},{"StopId":7335,"StopCode":"13339","PointLetter":"Y","StopName":"St Julian's Farm Road","Latitude":51.430154,"Longitude":-0.104388,"Action":0},{"StopId":6895,"StopCode":"26299","PointLetter":"W","StopName":"West Norwood Station","Latitude":51.432359,"Longitude":-0.103951,"Action":0},{"StopId":6984,"StopCode":"26301","PointLetter":"N","StopName":"Norwood Road / Robson Road","Latitude":51.434075,"Longitude":-0.103823,"Action":0},{"StopId":6892,"StopCode":"26402","PointLetter":"K","StopName":"Lancaster Avenue","Latitude":51.436766,"Longitude":-0.105064,"Action":0},{"StopId":7328,"StopCode":"35303","PointLetter":"E","StopName":"Tulse Hill Station","Latitude":51.440269,"Longitude":-0.107552,"Action":0},{"StopId":7136,"StopCode":"35304","PointLetter":"D","StopName":"Hardel Rise","Latitude":51.441265,"Longitude":-0.108533,"Action":0},{"StopId":7205,"StopCode":"R0511","PointLetter":"H","StopName":"High Trees","Latitude":51.443235,"Longitude":-0.110250,"Action":0},{"StopId":7244,"StopCode":"25686","PointLetter":"J","StopName":"Upper Tulse Hill","Latitude":51.445323,"Longitude":-0.112006,"Action":0},{"StopId":7153,"StopCode":"25684","PointLetter":"K","StopName":"Craignair Road","Latitude":51.448892,"Longitude":-0.113110,"Action":0},{"StopId":7155,"StopCode":"25682","PointLetter":"L","StopName":"Jubilee Primary School","Latitude":51.451648,"Longitude":-0.113313,"Action":0},{"StopId":7157,"StopCode":"25680","PointLetter":"M","StopName":"Brixton Water Lane","Latitude":51.454572,"Longitude":-0.113466,"Action":0},{"StopId":7108,"StopCode":"13246","PointLetter":"N","StopName":"Morval Road","Latitude":51.456611,"Longitude":-0.114376,"Action":0},{"StopId":6808,"StopCode":"BP4246","PointLetter":"P","StopName":"St Matthews Estate","Latitude":51.458438,"Longitude":-0.115034,"Action":0},{"StopId":7186,"StopCode":"29249","PointLetter":"W","StopName":"Lambeth Town Hall","Latitude":51.460152,"Longitude":-0.116518,"Action":0},{"StopId":6786,"StopCode":"231","PointLetter":"T","StopName":"Brixton Station","Latitude":51.462060,"Longitude":-0.115475,"Action":0},{"StopId":7238,"StopCode":"421","PointLetter":"C","StopName":"Brixton Academy","Latitude":51.464976,"Longitude":-0.115039,"Action":0},{"StopId":6893,"StopCode":"26341","PointLetter":"","StopName":"Stansfield Road","Latitude":51.466566,"Longitude":-0.117205,"Action":0},{"StopId":7255,"StopCode":"12825","PointLetter":"","StopName":"Stockwell Green","Latitude":51.468540,"Longitude":-0.119183,"Action":0},{"StopId":6803,"StopCode":"509","PointLetter":"R","StopName":"Stockwell Gardens","Latitude":51.471795,"Longitude":-0.121957,"Action":0},{"StopId":7192,"StopCode":"BP2502","PointLetter":"A","StopName":"South Lambeth Road / Stockwell Station","Latitude":51.473016,"Longitude":-0.122397,"Action":0},{"StopId":7275,"StopCode":"12822","PointLetter":"Q","StopName":"Lansdowne Way","Latitude":51.475356,"Longitude":-0.123064,"Action":0},{"StopId":7256,"StopCode":"12818","PointLetter":"S","StopName":"Thorne Road","Latitude":51.476789,"Longitude":-0.123293,"Action":0},{"StopId":7015,"StopCode":"608","PointLetter":"T","StopName":"Tate Library","Latitude":51.478385,"Longitude":-0.123530,"Action":0},{"StopId":6894,"StopCode":"26339","PointLetter":"","StopName":"Wheatsheaf Lane","Latitude":51.480769,"Longitude":-0.124685,"Action":0},{"StopId":6795,"StopCode":"12213","PointLetter":"W","StopName":"Vauxhall Park","Latitude":51.483733,"Longitude":-0.123368,"Action":0},{"StopId":6809,"StopCode":"BP4316","PointLetter":"A","StopName":"Vauxhall Bus Station","Latitude":51.486223,"Longitude":-0.123843,"Action":0},{"StopId":7016,"StopCode":"369","PointLetter":"X","StopName":"Vauxhall Bridge / Millbank","Latitude":51.488196,"Longitude":-0.128601,"Action":0},{"StopId":7165,"StopCode":"29976","PointLetter":"A","StopName":"Pimlico Station","Latitude":51.489846,"Longitude":-0.132236,"Action":0},{"StopId":7326,"StopCode":"351","PointLetter":"W","StopName":"Rochester Row","Latitude":51.492355,"Longitude":-0.137319,"Action":0},{"StopId":7231,"StopCode":"1945","PointLetter":"K","StopName":"Neathouse Place","Latitude":51.494332,"Longitude":-0.141215,"Action":0},{"StopId":7057,"StopCode":"7869","PointLetter":"H","StopName":"Victoria Station","Latitude":51.495294,"Longitude":-0.142904,"Action":0},{"StopId":1584,"StopCode":"14973","PointLetter":"N","StopName":"Westminster Cathedral","Latitude":51.496921,"Longitude":-0.140029,"Action":0},{"StopId":1615,"StopCode":"20434","PointLetter":"SA","StopName":"Westminster City Hall","Latitude":51.497416,"Longitude":-0.136652,"Action":0},{"StopId":1653,"StopCode":"7863","PointLetter":"SC","StopName":"New Scotland Yard","Latitude":51.497762,"Longitude":-0.134635,"Action":0},{"StopId":7027,"StopCode":"20179","PointLetter":"R","StopName":"Westminster Abbey","Latitude":51.499034,"Longitude":-0.130967,"Action":0},{"StopId":7163,"StopCode":"1645","PointLetter":"C","StopName":"Westminster Station / Parliament Square","Latitude":51.501569,"Longitude":-0.126382,"Action":0},{"StopId":5675,"StopCode":"7867","PointLetter":"","StopName":"Horse Guards Parade","Latitude":51.504051,"Longitude":-0.126381,"Action":0}], "Routes" : [{"Id":2070,"Route":"2","From":"Marylebone Station","Towards":"Norwood Bus Garage","Run":"1","IsDay":1,"encodedLevels":"PDAEAAG@?@@?G@CB@?GAE@@C@@F?B@CEA@BFD?BH??AC?AFAAC@A@AF?B@DA?C?EC@F???CB@A@F@?C?BFCC?I@E??C??BC@FB@AD@@?C@@EE?G@@AB@B@EA?@AG@A?F@?B@AE?D@DAGBCAEADB@F?@A@C@?DAAC??AC?P","encodedPoints":"u|myHtz^YkCdCaAj@a@oA{L}@oLLGpLcEvAm@pKsDtIoC`DqAjE{Ar@pQV~DXdBNJH@HAdKsEpEiCh@q@`CaExAuBzDaEvG_IvEeF~@UTA|ALnBZ`Co@LQ?mBJy@Za@xBPL^dC`GRAX_@lDsG@E~DaGlAuAvAuAlByAPkAGuFP}FPmARs@H}A^wBXu@LOl@a@z@WhAMPLFn@TpAJ?\\G|CyA~C}CfCsCnMq]nEkLtDiKtF{NtHuTHi@h@_BJiAXyANKREH?^NxDtBhB\\yC_ByBuBBGPSZKfH}AB@RBbFrAr@bAP\\r@|@p@^l@NjDh@tBi@`B{@`C}ApAa@|AKxMuAR?dAGdFcAb@ObDg@\\mEVPpE~BXMpB_BbIaHrF{D|AuAjFwF|DeDRGh@m@Ne@F[vAsDhBsD|Bv@fGbBlAVbIjBjJwBbMeDhAUnE{A`CcA`Du@h@FtF~@bDq@hG{@dMr@pAGjCu@tEuCvGwExHkG|DoEPe@rAmETwARqCZATGjCEFDfB@nASxBg@~Ac@dEmBnAaAdG_Dv@K~Ci@~@KxDaAz@g@bFcC","Color":"993333","hasRunTwo":1,"startPoint":{"Latitude":51.522197,"Longitude":-0.163147},"endPoint":{"Latitude":51.431543,"Longitude":-0.102544}},{"Id":4634,"Route":"N2","From":"Crystal Palace Bus Station","Towards":"Horse Guards Parade","Run":"1","IsDay":0,"encodedLevels":"PAB@DAA?D?BAG?BAF?B@?E@?CBAC?AAAE?AB?@FAB??F@BIB?C?@B@D?GCBD@B@?E?BAFA@EABC?AF?AB?DBAD?BFAAAAE?GA@AGAE@A?@B@AB?GACD?B@CCEAC@@B?EAAE@BE@@IBAAA??AD??A?C@D@?@BE?AD?B@EBD@C@JABC@@@E@B@BAF??BG@?D?BBD@F@CA@AAAP","encodedPoints":"gbzxH|dNXNJVDx@C`@\\JlA@^HJFx@lAbC|CfChB`F~EUd@ML}GjDiFzCT~Ax@dHJ`C?t@Er@SnAg@tBg@bByAfDeAhAaBtCUn@g@rBuBdFs@dAqA~DK`AIz@IxG?z@R~FFn@}@X_CfBwQlJyF~CaD~ADzAIzHa@vHuASo@BcH@]GcBa@yCa@mBQwDS_AJ_Dh@cF|AiDnCeElByEjAoAReABa@EGES^KVYfH]rCKFa@EgEGo@~@eDdDcIpGuFzDkAt@yEbC[JaAJaDCuGi@}@CmBH_IbBuABWGsBu@wAGgCn@aCbAyGpBcMdDo@\\ObAkAdFS?eEsBwF_CeP{Fy@xAiE|JSFeAx@}DtDq@v@qEjEgAr@sGdFmIbHOXy@bA_@Yo@O{E`@oAZiGrAeAF}SbCaC|AiHrAyAWoB}@_@g@Ue@gAwAYS]Ke@NuBEi@V@rBM|CQDQCkAm@_G{Bg@|CcAtCSNuHvTCF?RUfAi@xAwArD{DnJ{@lBgF`NoMp]y@pA}@~@ANQXCRCd@`@tBcBx@i@X_EvAUe@KOME[@m@fMs@hCUp@m@`AaCvASTMs@GuFJsEVwBRs@H}A^wBXu@LOl@a@z@W`As@L[A_@k@wGwBwXkAgJqGcVWw@sDqMMSAK}BM_@i@Dw@CqBQKeDg@oBGKJO@IMo@A_FV","Color":"663366","hasRunTwo":1,"startPoint":{"Latitude":51.420684,"Longitude":-0.077749},"endPoint":{"Latitude":51.504138,"Longitude":-0.126242}}]}


