{"Stops" : [{"StopId":1002,"StopCode":"4127","PointLetter":"G","StopName":"Barnet High Street / Barnet Church","Latitude":51.652811,"Longitude":-0.199155,"Action":0},{"StopId":990,"StopCode":"1478","PointLetter":"N","StopName":"High Barnet Station/Meadway","Latitude":51.651364,"Longitude":-0.196871,"Action":0},{"StopId":968,"StopCode":"9923","PointLetter":"R","StopName":"High Barnet Station","Latitude":51.649356,"Longitude":-0.193192,"Action":0},{"StopId":969,"StopCode":"9921","PointLetter":"A","StopName":"Potters Lane","Latitude":51.647212,"Longitude":-0.188261,"Action":0},{"StopId":1041,"StopCode":"1333","PointLetter":"D","StopName":"Barnet Odeon","Latitude":51.646408,"Longitude":-0.186848,"Action":0},{"StopId":1034,"StopCode":"9919","PointLetter":"E","StopName":"Dinsdale Gardens","Latitude":51.644025,"Longitude":-0.183936,"Action":0},{"StopId":1009,"StopCode":"3778","PointLetter":"J","StopName":"Lyonsdown Road","Latitude":51.640888,"Longitude":-0.180550,"Action":0},{"StopId":1033,"StopCode":"9917","PointLetter":"K","StopName":"Walfield Avenue","Latitude":51.639231,"Longitude":-0.179821,"Action":0},{"StopId":1024,"StopCode":"9915","PointLetter":"","StopName":"Friern Mount Drive","Latitude":51.636567,"Longitude":-0.177385,"Action":0},{"StopId":971,"StopCode":"9913","PointLetter":"L","StopName":"Chandos Avenue","Latitude":51.633900,"Longitude":-0.175830,"Action":0},{"StopId":999,"StopCode":"4653","PointLetter":"M","StopName":"Athenaeum Road","Latitude":51.630946,"Longitude":-0.175009,"Action":0},{"StopId":1397,"StopCode":"9910","PointLetter":"E","StopName":"Oakleigh Road North","Latitude":51.628698,"Longitude":-0.174420,"Action":0},{"StopId":1493,"StopCode":"9908","PointLetter":"H","StopName":"Friern Barnet Lane","Latitude":51.626688,"Longitude":-0.175281,"Action":0},{"StopId":1494,"StopCode":"9906","PointLetter":"J","StopName":"Derwent Crescent","Latitude":51.623908,"Longitude":-0.176303,"Action":0},{"StopId":1323,"StopCode":"1556","PointLetter":"K","StopName":"Finchley Park","Latitude":51.620251,"Longitude":-0.176493,"Action":0},{"StopId":1414,"StopCode":"80008","PointLetter":"A","StopName":"Ravensdale Avenue","Latitude":51.617906,"Longitude":-0.176630,"Action":0},{"StopId":1265,"StopCode":"9901","PointLetter":"D","StopName":"Tally Ho Corner","Latitude":51.614999,"Longitude":-0.176501,"Action":0},{"StopId":6581,"StopCode":"OC568","PointLetter":"P","StopName":"North Finchley Bus Station","Latitude":51.612640,"Longitude":-0.176870,"Action":0},{"StopId":1398,"StopCode":"6114","PointLetter":"Q","StopName":"Christchurch Avenue","Latitude":51.609995,"Longitude":-0.180861,"Action":0},{"StopId":1346,"StopCode":"6112","PointLetter":"LL","StopName":"Granville Road","Latitude":51.609036,"Longitude":-0.182171,"Action":0},{"StopId":1457,"StopCode":"6108","PointLetter":"MM","StopName":"Victoria Park","Latitude":51.606779,"Longitude":-0.185683,"Action":0},{"StopId":1324,"StopCode":"2758","PointLetter":"B","StopName":"Long Lane","Latitude":51.604139,"Longitude":-0.189442,"Action":0},{"StopId":1292,"StopCode":"2760","PointLetter":"D","StopName":"Finchley Central Station","Latitude":51.602259,"Longitude":-0.192275,"Action":0},{"StopId":1480,"StopCode":"15677","PointLetter":"H","StopName":"Hendon Lane","Latitude":51.599463,"Longitude":-0.195822,"Action":0},{"StopId":1278,"StopCode":"2297","PointLetter":"S","StopName":"East End Road","Latitude":51.597912,"Longitude":-0.197313,"Action":0},{"StopId":11189,"StopCode":"34043","PointLetter":"T","StopName":"Holmwood Gardens","Latitude":51.596427,"Longitude":-0.191409,"Action":0},{"StopId":11175,"StopCode":"16504","PointLetter":"V","StopName":"Manor View","Latitude":51.595817,"Longitude":-0.189138,"Action":0},{"StopId":10672,"StopCode":"16506","PointLetter":"W","StopName":"Basing Way","Latitude":51.594541,"Longitude":-0.186287,"Action":0},{"StopId":10680,"StopCode":"33333","PointLetter":"J","StopName":"East Finchley Cemetery","Latitude":51.593163,"Longitude":-0.182097,"Action":0},{"StopId":10673,"StopCode":"16508","PointLetter":"K","StopName":"Ossulton Way","Latitude":51.591788,"Longitude":-0.178673,"Action":0},{"StopId":10700,"StopCode":"16510","PointLetter":"","StopName":"Trinity Avenue","Latitude":51.591004,"Longitude":-0.173940,"Action":0},{"StopId":10682,"StopCode":"16511","PointLetter":"","StopName":"Stanley Road","Latitude":51.589834,"Longitude":-0.170999,"Action":0},{"StopId":10670,"StopCode":"BP4125","PointLetter":"R","StopName":"High Road East Finchley","Latitude":51.589607,"Longitude":-0.164554,"Action":0},{"StopId":1271,"StopCode":"10242","PointLetter":"J","StopName":"Fairlawn Avenue","Latitude":51.588904,"Longitude":-0.163890,"Action":0},{"StopId":10081,"StopCode":"27477","PointLetter":"G","StopName":"East Finchley Station","Latitude":51.586674,"Longitude":-0.163879,"Action":0},{"StopId":10094,"StopCode":"9877","PointLetter":"C","StopName":"The Bishops Avenue","Latitude":51.585052,"Longitude":-0.162486,"Action":0},{"StopId":10093,"StopCode":"9873","PointLetter":"P","StopName":"Woodside Avenue","Latitude":51.583200,"Longitude":-0.159097,"Action":0},{"StopId":10520,"StopCode":"9871","PointLetter":"Q","StopName":"North Hill","Latitude":51.581102,"Longitude":-0.154909,"Action":0},{"StopId":10546,"StopCode":"4709","PointLetter":"R","StopName":"Highgate Wood","Latitude":51.579749,"Longitude":-0.151774,"Action":0},{"StopId":10547,"StopCode":"9869","PointLetter":"S","StopName":"Muswell Hill Road","Latitude":51.578396,"Longitude":-0.148668,"Action":0},{"StopId":9330,"StopCode":"9431","PointLetter":"T","StopName":"Highgate Station","Latitude":51.577239,"Longitude":-0.146002,"Action":0},{"StopId":9321,"StopCode":"10860","PointLetter":"U","StopName":"Southwood Avenue","Latitude":51.575581,"Longitude":-0.142952,"Action":0},{"StopId":9284,"StopCode":"1909","PointLetter":"","StopName":"Northwood Road","Latitude":51.573427,"Longitude":-0.140918,"Action":0},{"StopId":9376,"StopCode":"9863","PointLetter":"HW","StopName":"Langdon Park Road","Latitude":51.571619,"Longitude":-0.139217,"Action":0},{"StopId":9377,"StopCode":"9861","PointLetter":"Q","StopName":"Waterlow Road","Latitude":51.568769,"Longitude":-0.136433,"Action":0},{"StopId":9476,"StopCode":"67","PointLetter":"K","StopName":"Whittington Hospital","Latitude":51.567285,"Longitude":-0.135253,"Action":0},{"StopId":9397,"StopCode":"33985","PointLetter":"W","StopName":"Archway Station","Latitude":51.564831,"Longitude":-0.134776,"Action":0},{"StopId":9303,"StopCode":"11419","PointLetter":"TL","StopName":"Pemberton Gardens","Latitude":51.562041,"Longitude":-0.136333,"Action":0},{"StopId":9441,"StopCode":"11417","PointLetter":"TM","StopName":"Monnery Road","Latitude":51.559756,"Longitude":-0.137408,"Action":0},{"StopId":9394,"StopCode":"4717","PointLetter":"TN","StopName":"Tufnell Park Station","Latitude":51.557778,"Longitude":-0.137950,"Action":0},{"StopId":9440,"StopCode":"11413","PointLetter":"TQ","StopName":"Lady Somerset Road","Latitude":51.554742,"Longitude":-0.139877,"Action":0},{"StopId":9405,"StopCode":"11409","PointLetter":"KA","StopName":"Fortess Walk","Latitude":51.552519,"Longitude":-0.140949,"Action":0},{"StopId":6644,"StopCode":"1078","PointLetter":"KB","StopName":"Kentish Town Station","Latitude":51.550213,"Longitude":-0.140682,"Action":0},{"StopId":6643,"StopCode":"11392","PointLetter":"KC","StopName":"Kentish Town Post Office","Latitude":51.548215,"Longitude":-0.141124,"Action":0},{"StopId":9477,"StopCode":"669","PointLetter":"KD","StopName":"Kentish Town Road / Prince Of Wales Road","Latitude":51.545930,"Longitude":-0.141636,"Action":0},{"StopId":9283,"StopCode":"2675","PointLetter":"KL","StopName":"Royal College Street","Latitude":51.544236,"Longitude":-0.141416,"Action":0},{"StopId":9439,"StopCode":"33096","PointLetter":"D","StopName":"Camden Gardens","Latitude":51.541963,"Longitude":-0.141019,"Action":0},{"StopId":935,"StopCode":"324","PointLetter":"S","StopName":"Camden Town Station","Latitude":51.539801,"Longitude":-0.141323,"Action":0},{"StopId":357,"StopCode":"36859","PointLetter":"W","StopName":"Pratt Street","Latitude":51.536963,"Longitude":-0.139304,"Action":0},{"StopId":267,"StopCode":"666","PointLetter":"G","StopName":"Mornington Crescent Station","Latitude":51.534037,"Longitude":-0.137982,"Action":0},{"StopId":373,"StopCode":"8343","PointLetter":"S","StopName":"Aldenham Street","Latitude":51.531009,"Longitude":-0.134732,"Action":0},{"StopId":315,"StopCode":"8341","PointLetter":"B","StopName":"Euston Station","Latitude":51.528501,"Longitude":-0.131966,"Action":0},{"StopId":923,"StopCode":"BP4524","PointLetter":"F","StopName":"Euston Bus Station","Latitude":51.527113,"Longitude":-0.132296,"Action":0},{"StopId":22,"StopCode":"672","PointLetter":"P","StopName":"Euston Square Station","Latitude":51.525813,"Longitude":-0.134858,"Action":0},{"StopId":254,"StopCode":"29674","PointLetter":"N","StopName":"University College Hospital","Latitude":51.524105,"Longitude":-0.134308,"Action":0},{"StopId":150,"StopCode":"BP2167","PointLetter":"C","StopName":"Torrington Place","Latitude":51.522916,"Longitude":-0.133016,"Action":0},{"StopId":76,"StopCode":"29676","PointLetter":"D","StopName":"Chenies Street","Latitude":51.521213,"Longitude":-0.131168,"Action":0},{"StopId":181,"StopCode":"29735","PointLetter":"R","StopName":"Great Russell Street","Latitude":51.518395,"Longitude":-0.128098,"Action":0},{"StopId":18068,"StopCode":"BP5172","PointLetter":"B","StopName":"Cambridge Circus","Latitude":51.513653,"Longitude":-0.128509,"Action":0},{"StopId":608,"StopCode":"7824","PointLetter":"J","StopName":"Leicester Square Station","Latitude":51.511618,"Longitude":-0.128304,"Action":0},{"StopId":595,"StopCode":"BP3536","PointLetter":"K","StopName":"St Martin's Place","Latitude":51.509858,"Longitude":-0.127901,"Action":0},{"StopId":588,"StopCode":"143","PointLetter":"D","StopName":"Trafalgar Square / Charing Cross Stn","Latitude":51.508189,"Longitude":-0.127047,"Action":0},{"StopId":3829,"StopCode":"152","PointLetter":"N","StopName":"Whitehall / Trafalgar Square","Latitude":51.506318,"Longitude":-0.127023,"Action":0}], "Routes" : [{"Id":3154,"Route":"N20","From":"Barnet High Street / Barnet Church","Towards":"Whitehall / Trafalgar Square","Run":"1","IsDay":0,"encodedLevels":"P@B@AB?@E@?B@@F@D@AA@G?B@BADBABE@A@AAJ@BCBD?AF@??B?E@?H@A?C@?@E@@B??C?BABEA?DB@J@CAAE@@D?C?@CD?B??DB??B?F?C@B@EA@H@@DAACG?AB?@D@@?BG@?@?@C@?AD@JA@C??DBD@BG@@@C@D@B?D@BAC???FAFA@I@A??AE?A@B@E@@BG?D?@BDAG?CA?G@ACCG?A@@CAAABDB?B@DCCDP","encodedPoints":"wmgzHv~e@Lc@tAmDt@wAvCqEzByExAeD~GcOdE}JrAoGPc@n@cDTsB@g@PaADNZh@Xo@bAuApKoNrHwJvF{G`Ak@|@a@jBo@bB_@rCqApCiBnEoDlAaBfFeFzBmApAg@tAY|J_BlDs@lIwBfEk@v@?`AFtCt@pFbDtEhBr@LdEd@rHXbMXrHF|@BtHH`CCdDIjI_CjAY`AQ?XHVJFVl@AzAGf@I|@BNRXdAz@dApAzA`ChK|OvDdGbAbBxKlSvEvH~ApBxJfQfInLpFlHvAdB~E`FhDbCzAx@^yAl@sD^yJRmOb@qJ|@wCtE_N~B{HJ}B`@}EjCwGv@aBxAeE~D_PDk@f@wLd@wDPeBPgA|EwPJ[JMx@_B`AiEN_AFo@?e@cAsBgAcBWq@C_@PsGNsBn@mGX?tBVlG^`@[nAQ~DkAfAgAfA}Az@}AdCeFlFeMpAqCdEiKdByFxOue@~CcJtDkLtCyGjCmCFCvP{OhGgGdAkAvGmGlAaA~@k@nDeCfEuDNYlA}DTBv@bAnBvBlLlFlGvCvGtClLbB~ExAt@^bPrKxDxApDXX@VEl@Bd@UbDw@tEd@pFx@rAVtH`Bt@D~@GlBc@PSb@@lGf@TDpDVLYnLiJbAdDhBhEHDNAhA_A`HwGr@k@tFgFrGqFF?HH^`CPj@HDRAxJ}KpHcI~KkMlEwDfApDDHJ@TARE|@cAxEjSt@lBlHcIt`@sc@xEgEpGgFp@e@Ff@PPTjAxGpFvDvFLQTKHBp@YlGiBTFNGVHxBCfAUdAu@JMn@_BTU^M~Hk@n@`AlBBhDwA","Color":"993333","hasRunTwo":1,"startPoint":{"Latitude":51.652924,"Longitude":-0.199637},"endPoint":{"Latitude":51.506011,"Longitude":-0.127001}},{"Id":9415,"Route":"20","From":"Walthamstow Bus Station","Towards":"Burton Road","Run":"1","IsDay":1,"encodedLevels":"PBEABF@B?@CB@EAB?AE?@B?A?H@BCDD??BC??@C??B?I?BC?B@D@A?@AD??GAD@BAD?AB@ABAAE?A?BE??B?@BAFCD?BB@C??AHB@?EACAB?D?@A@@G@?BC@A@AG??@@?A@@BC@G??AAAB@E@??I@C?AFD?B@D?C?AF?BAC?IFAF@DAF?DC?BG?A@GB@F@B??CD@F@B?P","encodedPoints":"w~yyHj_CpC?ZQWyCIuEZa@d@OZCVHb@R~@PjAYbIIl@GdA_@xDaCpCqCl@k@~EoDHKLWdBaFNs@TaB^yALUc@oBUi@wEwHcEiSyEqHe@uAiAeE}CsKkFsNKi@C_@yA{HUq@g@sAqAwDgDaJu@yAe@s@a@_@_Aq@_AQ{@A}H_@o@IiA]mCy@iHkCgJqDy@W{IqDmGyBU?SB{EL{@_C{@wAa@WgKgEqBcA}BeBwTkRoGwFa@o@QIU?}@w@{FgFkAwAaEyC}A}@cHiE{HwFaAo@sIoEoEyAsA_@yGyB{CqAcGaCmBaAuFmBeAK]_ByHiI{BqAiJiFaOyJkCmAoDsBcCmBoGwEYWy\\eV_GsEyDqDyD_E}@cA{AkCk@{AoAsE_BsHm@oBsB}F]k@k@w@wBkC_D{Ee@_A_CwDf@y@HY|A}CpCmDXKJUL?h@]lA]m@f@INMJSHSRCHODGEYJwBhBa@h@wClFY_@EKc@g@mGwFuD{D_AsAoE}DqI_Hg@o@_GuKkAmBoFsJkAmDgDgIg@_AkCwDsCsFl@cJ[SWWYk@Ie@]{OI_Cg@gIkBqXU}@KU}@_BiH_HcFyFg@y@eEkHrEeJtBhFhD`HrAsBvFyHbDaBfEeBh@n@zJdKnA|BRdCT|B`@j@VaAj@iCb@kD`AyFfFhEpB~@R?VGXQ`@k@Vg@lCoEj@|@fAqBFEHDzA~CZz@lA~D","Color":"663366","hasRunTwo":1,"startPoint":{"Latitude":51.583964,"Longitude":-0.020533},"endPoint":{"Latitude":51.646972,"Longitude":0.083568}}]}


