{"Stops" : [{"StopId":3946,"StopCode":"FW21","PointLetter":"F","StopName":"South Road / Fulwell","Latitude":51.435714,"Longitude":-0.349511,"Action":0},{"StopId":3828,"StopCode":"14715","PointLetter":"J","StopName":"Fulwell / Sixth Cross Road","Latitude":51.436636,"Longitude":-0.350428,"Action":0},{"StopId":3768,"StopCode":"6390","PointLetter":"SD","StopName":"Trafalgar Road / Prince Of Wales","Latitude":51.440256,"Longitude":-0.346945,"Action":0},{"StopId":3920,"StopCode":"6388","PointLetter":"GA","StopName":"Twickenham / The Prince Albert","Latitude":51.442033,"Longitude":-0.344204,"Action":0},{"StopId":3767,"StopCode":"6387","PointLetter":"GM","StopName":"Twickenham Green","Latitude":51.444310,"Longitude":-0.340510,"Action":0},{"StopId":3914,"StopCode":"6422","PointLetter":"GP","StopName":"Heath Road / Grove Avenue","Latitude":51.445422,"Longitude":-0.335893,"Action":0},{"StopId":3817,"StopCode":"25898","PointLetter":"T","StopName":"Heath Road / Copthall Gardens","Latitude":51.445248,"Longitude":-0.332474,"Action":0},{"StopId":4409,"StopCode":"R0271","PointLetter":"N","StopName":"Twickenham / King Street","Latitude":51.445851,"Longitude":-0.329315,"Action":0},{"StopId":4487,"StopCode":"29987","PointLetter":"H","StopName":"York Street / Twickenham","Latitude":51.447537,"Longitude":-0.327138,"Action":0},{"StopId":8008,"StopCode":"9390","PointLetter":"S","StopName":"Lebanon Court","Latitude":51.449141,"Longitude":-0.323611,"Action":0},{"StopId":8016,"StopCode":"15559","PointLetter":"T","StopName":"Orleans Park School","Latitude":51.450313,"Longitude":-0.321323,"Action":0},{"StopId":13519,"StopCode":"BP5097","PointLetter":"U","StopName":"Marble Hill Park / Crown Road","Latitude":51.451896,"Longitude":-0.316299,"Action":0},{"StopId":8051,"StopCode":"15556","PointLetter":"V","StopName":"St Stephen's Church","Latitude":51.453356,"Longitude":-0.313439,"Action":0},{"StopId":4452,"StopCode":"15211","PointLetter":"W","StopName":"Cresswell Road","Latitude":51.455841,"Longitude":-0.309878,"Action":0},{"StopId":1879,"StopCode":"29982","PointLetter":"B","StopName":"George Street","Latitude":51.460713,"Longitude":-0.304718,"Action":0},{"StopId":1851,"StopCode":"16350","PointLetter":"C","StopName":"The Quadrant","Latitude":51.462742,"Longitude":-0.302656,"Action":0},{"StopId":1787,"StopCode":"14726","PointLetter":"M","StopName":"Richmond Station","Latitude":51.463756,"Longitude":-0.301898,"Action":0},{"StopId":1853,"StopCode":"16239","PointLetter":"RS","StopName":"Richmond Circus","Latitude":51.465387,"Longitude":-0.297130,"Action":0},{"StopId":1907,"StopCode":"16242","PointLetter":"ST","StopName":"Sheendale Road","Latitude":51.465959,"Longitude":-0.294402,"Action":0},{"StopId":1827,"StopCode":"9347","PointLetter":"SA","StopName":"Manor Circus","Latitude":51.467140,"Longitude":-0.290313,"Action":0},{"StopId":8957,"StopCode":"25974","PointLetter":"SL","StopName":"Sandycombe Road","Latitude":51.467955,"Longitude":-0.287014,"Action":0},{"StopId":9043,"StopCode":"16243","PointLetter":"A","StopName":"Marksbury Avenue","Latitude":51.468081,"Longitude":-0.282690,"Action":0},{"StopId":9012,"StopCode":"16245","PointLetter":"B","StopName":"Mortlake Road","Latitude":51.468866,"Longitude":-0.279219,"Action":0},{"StopId":12902,"StopCode":"FW36","PointLetter":"M","StopName":"Clifford Avenue","Latitude":51.468884,"Longitude":-0.274309,"Action":0},{"StopId":12890,"StopCode":"R0651","PointLetter":"N","StopName":"Ship Lane / Stag Brewery","Latitude":51.469276,"Longitude":-0.269197,"Action":0},{"StopId":12882,"StopCode":"FW35","PointLetter":"A","StopName":"Sheen Lane / Mortlake Station","Latitude":51.469904,"Longitude":-0.264220,"Action":0},{"StopId":8981,"StopCode":"15255","PointLetter":"S","StopName":"Avondale Road","Latitude":51.469924,"Longitude":-0.259511,"Action":0},{"StopId":9035,"StopCode":"15253","PointLetter":"T","StopName":"White Hart Lane","Latitude":51.470404,"Longitude":-0.256671,"Action":0},{"StopId":9036,"StopCode":"15252","PointLetter":"BK","StopName":"Barnes Bridge Station","Latitude":51.472559,"Longitude":-0.252859,"Action":0},{"StopId":3853,"StopCode":"15247","PointLetter":"BF","StopName":"Barnes Pond","Latitude":51.473595,"Longitude":-0.246931,"Action":0},{"StopId":6770,"StopCode":"15248","PointLetter":"BE","StopName":"Glebe Road","Latitude":51.474497,"Longitude":-0.242921,"Action":0},{"StopId":3790,"StopCode":"4607","PointLetter":"WS","StopName":"Church Road / Red Lion","Latitude":51.474713,"Longitude":-0.238752,"Action":0},{"StopId":3940,"StopCode":"15240","PointLetter":"WT","StopName":"Ranelagh Avenue","Latitude":51.472815,"Longitude":-0.237486,"Action":0},{"StopId":5719,"StopCode":"11141","PointLetter":"E","StopName":"Commondale","Latitude":51.468433,"Longitude":-0.227777,"Action":0},{"StopId":5956,"StopCode":"11139","PointLetter":"F","StopName":"Festing Road","Latitude":51.468268,"Longitude":-0.223392,"Action":0},{"StopId":5967,"StopCode":"11137","PointLetter":"G","StopName":"Ruvigny Gardens","Latitude":51.467323,"Longitude":-0.219182,"Action":0},{"StopId":5733,"StopCode":"220","PointLetter":"Q","StopName":"Putney Pier","Latitude":51.466366,"Longitude":-0.214785,"Action":0},{"StopId":2065,"StopCode":"29619","PointLetter":"S","StopName":"St Mary's Church / Putney Pier","Latitude":51.466721,"Longitude":-0.213317,"Action":0},{"StopId":2032,"StopCode":"1215","PointLetter":"FH","StopName":"Putney Bridge Station  / Gonville Street","Latitude":51.468038,"Longitude":-0.211811,"Action":0},{"StopId":12881,"StopCode":"1708","PointLetter":"FW","StopName":"Putney Bridge Stn / Fulham High Street","Latitude":51.469370,"Longitude":-0.209513,"Action":0},{"StopId":12889,"StopCode":"11271","PointLetter":"Z","StopName":"Munster Road","Latitude":51.471947,"Longitude":-0.204588,"Action":0},{"StopId":12885,"StopCode":"11269","PointLetter":"X","StopName":"Parsons Green","Latitude":51.472863,"Longitude":-0.199210,"Action":0},{"StopId":12883,"StopCode":"11267","PointLetter":"GA","StopName":"Irene Road","Latitude":51.474059,"Longitude":-0.196298,"Action":0},{"StopId":12880,"StopCode":"11265","PointLetter":"GB","StopName":"Wandsworth Bridge Road","Latitude":51.475486,"Longitude":-0.194326,"Action":0},{"StopId":11881,"StopCode":"11263","PointLetter":"GC","StopName":"Rumbold Road","Latitude":51.478452,"Longitude":-0.188981,"Action":0},{"StopId":11952,"StopCode":"1808","PointLetter":"GD","StopName":"Worlds End Health Centre","Latitude":51.480717,"Longitude":-0.184830,"Action":0},{"StopId":11951,"StopCode":"37444","PointLetter":"","StopName":"Edith Grove / Worlds End","Latitude":51.481603,"Longitude":-0.182217,"Action":0},{"StopId":5183,"StopCode":"11296","PointLetter":"QH","StopName":"Hobury Street / Worlds End","Latitude":51.482463,"Longitude":-0.179129,"Action":0},{"StopId":11885,"StopCode":"1448","PointLetter":"QT","StopName":"Beaufort Street","Latitude":51.484281,"Longitude":-0.176306,"Action":0},{"StopId":1872,"StopCode":"35905","PointLetter":"KE","StopName":"Old Church Street","Latitude":51.485537,"Longitude":-0.173808,"Action":0},{"StopId":1772,"StopCode":"11294","PointLetter":"KF","StopName":"Carlyle Square","Latitude":51.486646,"Longitude":-0.171113,"Action":0},{"StopId":5668,"StopCode":"1573","PointLetter":"KL","StopName":"Chelsea Old Town Hall","Latitude":51.487976,"Longitude":-0.167588,"Action":0},{"StopId":5626,"StopCode":"1824","PointLetter":"KN","StopName":"Markham Street","Latitude":51.488954,"Longitude":-0.165201,"Action":0},{"StopId":5558,"StopCode":"11291","PointLetter":"KP","StopName":"Duke Of York Square","Latitude":51.490880,"Longitude":-0.161277,"Action":0},{"StopId":5562,"StopCode":"20968","PointLetter":"E","StopName":"Cadogan Gardens / Sloane Square","Latitude":51.492058,"Longitude":-0.158925,"Action":0},{"StopId":5654,"StopCode":"899","PointLetter":"A","StopName":"Sloane Street / Sloane Square Station","Latitude":51.493248,"Longitude":-0.157999,"Action":0},{"StopId":5608,"StopCode":"1150","PointLetter":"KM","StopName":"Pont Street","Latitude":51.496626,"Longitude":-0.158914,"Action":0},{"StopId":5674,"StopCode":"210","PointLetter":"KJ","StopName":"Knightsbridge Station","Latitude":51.500816,"Longitude":-0.160085,"Action":0},{"StopId":2235,"StopCode":"96","PointLetter":"T","StopName":"Hyde Park Corner Station","Latitude":51.503024,"Longitude":-0.153483,"Action":0},{"StopId":660,"StopCode":"989","PointLetter":"D","StopName":"Old Park Lane / Hard Rock Cafe","Latitude":51.504277,"Longitude":-0.148000,"Action":0},{"StopId":687,"StopCode":"99","PointLetter":"J","StopName":"Green Park Station","Latitude":51.507014,"Longitude":-0.142529,"Action":0},{"StopId":676,"StopCode":"36947","PointLetter":"L","StopName":"Old Bond Street / Royal Academy","Latitude":51.508400,"Longitude":-0.139172,"Action":0},{"StopId":686,"StopCode":"37122","PointLetter":"B","StopName":"Piccadilly Circus","Latitude":51.509292,"Longitude":-0.136412,"Action":0}], "Routes" : [{"Id":7037,"Route":"22","From":"Putney Common / Spencer Arms","Towards":"Piccadilly Circus","Run":"1","IsDay":1,"encodedLevels":"PE@A?E?@CAD@@G@B@DBAD@CBF@C@BA?H?CA@CBAC??E?AB??ABE?@C@?AD?D?B?A??DAB?B@H@?@?H?AB??BAB?AA@?F@A?@D@B@P","encodedPoints":"ygcyHtqk@sC??gFOgK@}@HiBLkAvAcJ`BuMp@qJB}DTgAtDoLNaAG][k@oHuImGaIi@oAGuCa@qBa@QcCqBaByByAuDmCsMS{Ac@oFwAaMW}GS}AMk@iFkLgBwD_A}@iG{J{CsFsAyC@_A[sAq@kAqFwKcEaIe@sAw@kCkDmNKi@{@cGE_@eBcImCaJQa@e@q@USSGW@m@KQUe@cAuDsJwCcIg@_BeCoI_FqQmEmN]oAcC}HqGkNyDwJsBkDGEKUGu@e[xFa@JoJjBuF~@eHvAI{@KgBk@wDEcA@Kc@kK{@qFe@_FMqCEgCm@wFI}A?mBCq@Om@yFsO{F_Oo@wA{F}N}BuHu@yCaBaIwB_J","Color":"993333","hasRunTwo":1,"startPoint":{"Latitude":51.467658,"Longitude":-0.228261},"endPoint":{"Latitude":51.509415,"Longitude":-0.135873}},{"Id":5014,"Route":"N22","From":"South Road / Fulwell","Towards":"Piccadilly Circus","Run":"1","IsDay":0,"encodedLevels":"P?FAF??@CAC@GAC?BD@A@F?BB@BAD??C?EAB@BGAB@EA@CAE?B?F@B?F?A@E@A@CB@@CA@AG@B@@@@AC?D?@?B?IAAD?ABAD??ABCA?EB@C?E@B?@D@BCACF@?DBABAF@AAC@AAE??C@CABBH?A@F?B@CAG?@A?D?@A?E?@CAD@BAI@@DBAD@CBF@C@BA?F?CA@CBAC??E?AB??ABE?@C@?AD?D?B?A??DAB?B@H@?@?H?AB??BAB?AA@?F@A?@D@B@P","encodedPoints":"}_}xHjecAU~Ay@|EwNgJk@k@[a@eBiCiDwEeC_DaDyGgDmIaEuHcGaK{@{F]_EEsBAkFb@uNGoCe@aHU}Ba@qCy@oBWe@{@aA[Q[CkByB_@s@}@qCiCuISk@iLgXg@aAgAmDk@gDQsB_B{M{B}Mu@AsB\\]A[K[[aBcFWa@IIgABUy@oBeGoAoCiM{Wm@d@{E~BOAMEOKOScB_EqEsJm@i@a@UeFsBo@_@{@s@AKaCkDk@gA[W_@GMJOGM[[sDAm@@WHMCa@D}@Gy@cAuIkCaTqAeGGc@qBqIcA_Fw@qBGKKoKJaDSuKEs@c@yDqBkNo@kG{@eOHID?JORq@^uHTuH@iBI}FSkBm@eBiBmGK_AW{D?ML[FGTIRCM_@o@}FSoFFcMGaMm@_ImAcJGYKYaCqCw@}BkDwHsCeEwAsCFgACi@a@}CIgCDa@n@oCZ}BC_@Ge@oA_Gw@cDBuBIuBq@eDgAsJ{@cDm@cGrByAt@e@zHqEjFmCd@CZ@dB^\\NnAx@bAzAv@aHf@uFxAuMt@kI~@sL@aAAyFMeM@}@HiBLkAvAcJ`BuMp@qJB}DTgAtDoLNaAG][k@oHuImGaIi@oAGuCa@qBa@QcCqBaByByAuDmCsMS{Ac@oFwAaMW}GS}AMk@iFkLgBwD_A}@iG{J{CsFsAyC@_A[sAq@kAqFwKcEaIe@sAw@kCkDmNKi@{@cGE_@eBcImCaJQa@e@q@USSGW@m@KQUe@cAuDsJwCcIg@_BeCoI_FqQmEmN]oAcC}HqGkNyDwJsBkDGEKUGu@e[xFa@JoJjBuF~@eHvAI{@KgBk@wDEcA@Kc@kK{@qFe@_FMqCEgCm@wFI}A?mBCq@Om@yFsO{F_Oo@wA{F}N}BuHu@yCaBaI}DsP","Color":"663366","hasRunTwo":1,"startPoint":{"Latitude":51.435678,"Longitude":-0.349178},"endPoint":{"Latitude":51.509769,"Longitude":-0.134816}}]}


