{"Stops" : [{"StopId":5208,"StopCode":"BP1264","PointLetter":"U","StopName":"Bayham Street","Latitude":51.538186,"Longitude":-0.140437,"Action":0},{"StopId":5194,"StopCode":"36647","PointLetter":"L","StopName":"Plender Street","Latitude":51.535676,"Longitude":-0.138131,"Action":0},{"StopId":343,"StopCode":"1280","PointLetter":"J","StopName":"Camden High Street","Latitude":51.536515,"Longitude":-0.140549,"Action":0},{"StopId":295,"StopCode":"325","PointLetter":"X","StopName":"Camden Town Station","Latitude":51.538432,"Longitude":-0.142316,"Action":0},{"StopId":360,"StopCode":"33533","PointLetter":"CQ","StopName":"Hartland Road / Camden Market","Latitude":51.542507,"Longitude":-0.147558,"Action":0},{"StopId":384,"StopCode":"37171","PointLetter":"CF","StopName":"The Roundhouse","Latitude":51.543302,"Longitude":-0.151189,"Action":0},{"StopId":5170,"StopCode":"12025","PointLetter":"CB","StopName":"Chalk Farm Station","Latitude":51.543880,"Longitude":-0.154180,"Action":0},{"StopId":5162,"StopCode":"12023","PointLetter":"T","StopName":"Eton Road","Latitude":51.543753,"Longitude":-0.159305,"Action":0},{"StopId":5202,"StopCode":"12020","PointLetter":"U","StopName":"Primrose Hill Road","Latitude":51.543471,"Longitude":-0.163109,"Action":0},{"StopId":5132,"StopCode":"12019","PointLetter":"V","StopName":"Elsworthy Rise","Latitude":51.543208,"Longitude":-0.165283,"Action":0},{"StopId":5187,"StopCode":"12017","PointLetter":"W","StopName":"Lower Merton Rise","Latitude":51.542768,"Longitude":-0.168762,"Action":0},{"StopId":5143,"StopCode":"1733","PointLetter":"H","StopName":"Avenue Road","Latitude":51.541887,"Longitude":-0.172201,"Action":0},{"StopId":3543,"StopCode":"12034","PointLetter":"L","StopName":"Swiss Cottage Station  /  Finchley Road","Latitude":51.543174,"Longitude":-0.175221,"Action":0},{"StopId":5181,"StopCode":"33819","PointLetter":"P","StopName":"Fairfax Road","Latitude":51.544962,"Longitude":-0.177961,"Action":0},{"StopId":5059,"StopCode":"12010","PointLetter":"L","StopName":"Loudoun Road","Latitude":51.541271,"Longitude":-0.181209,"Action":0},{"StopId":5180,"StopCode":"1633","PointLetter":"M","StopName":"Abbey Road","Latitude":51.539971,"Longitude":-0.186655,"Action":0},{"StopId":5236,"StopCode":"BP4934","PointLetter":"N","StopName":"Priory Terrace","Latitude":51.539108,"Longitude":-0.188996,"Action":0},{"StopId":5104,"StopCode":"1640","PointLetter":"U","StopName":"Kilburn High Road Station","Latitude":51.537702,"Longitude":-0.191749,"Action":0},{"StopId":5217,"StopCode":"1622","PointLetter":"Y","StopName":"Kilburn High Rd Stn  / Cambridge Avenue","Latitude":51.536533,"Longitude":-0.192343,"Action":0},{"StopId":5188,"StopCode":"10241","PointLetter":"KB","StopName":"Kilburn Park Station","Latitude":51.534692,"Longitude":-0.193670,"Action":0},{"StopId":5150,"StopCode":"34384","PointLetter":"MB","StopName":"Carlton Vale","Latitude":51.532907,"Longitude":-0.192198,"Action":0},{"StopId":5043,"StopCode":"11598","PointLetter":"MC","StopName":"Cambridge Road","Latitude":51.530224,"Longitude":-0.194352,"Action":0},{"StopId":5225,"StopCode":"48","PointLetter":"MD","StopName":"Shirland Road","Latitude":51.527987,"Longitude":-0.196214,"Action":0},{"StopId":5147,"StopCode":"34992","PointLetter":"MM","StopName":"Chippenham Road / Shirland Road","Latitude":51.527443,"Longitude":-0.197129,"Action":0},{"StopId":5081,"StopCode":"35519","PointLetter":"MN","StopName":"Elgin Avenue / Chippenham Road","Latitude":51.524885,"Longitude":-0.198571,"Action":0},{"StopId":5079,"StopCode":"34994","PointLetter":"F","StopName":"Harrow Road","Latitude":51.524499,"Longitude":-0.200374,"Action":0},{"StopId":5056,"StopCode":"334","PointLetter":"K","StopName":"Great Western Road / Harrow Road","Latitude":51.523205,"Longitude":-0.201621,"Action":0},{"StopId":5051,"StopCode":"11701","PointLetter":"B","StopName":"Westbourne Park Station","Latitude":51.520274,"Longitude":-0.199906,"Action":0},{"StopId":5203,"StopCode":"11696","PointLetter":"N","StopName":"Shrewsbury Road / Brunel Estate","Latitude":51.518924,"Longitude":-0.197509,"Action":0},{"StopId":5113,"StopCode":"11693","PointLetter":"","StopName":"St Stephens Gardens","Latitude":51.517983,"Longitude":-0.195917,"Action":0},{"StopId":5158,"StopCode":"37655","PointLetter":"Z","StopName":"Westbourne Grove","Latitude":51.515498,"Longitude":-0.195136,"Action":0},{"StopId":2685,"StopCode":"1259","PointLetter":"PW","StopName":"Pembridge Villas","Latitude":51.514586,"Longitude":-0.195489,"Action":0},{"StopId":2725,"StopCode":"11523","PointLetter":"PX","StopName":"Chepstow Crescent","Latitude":51.512834,"Longitude":-0.197389,"Action":0},{"StopId":2721,"StopCode":"1271","PointLetter":"C","StopName":"Notting Hill Gate Station","Latitude":51.509259,"Longitude":-0.197055,"Action":0},{"StopId":2710,"StopCode":"1266","PointLetter":"K","StopName":"Palace Gardens Terrace / Notting Hill Gt","Latitude":51.509094,"Longitude":-0.193948,"Action":0},{"StopId":2688,"StopCode":"11146","PointLetter":"P","StopName":"Sheffield Terrace","Latitude":51.506873,"Longitude":-0.194498,"Action":0},{"StopId":2713,"StopCode":"84","PointLetter":"K","StopName":"York House Place / Kensington High St","Latitude":51.503676,"Longitude":-0.191843,"Action":0},{"StopId":1848,"StopCode":"82","PointLetter":"E","StopName":"High Street Kensington Station","Latitude":51.501229,"Longitude":-0.192401,"Action":0},{"StopId":1758,"StopCode":"27497","PointLetter":"T","StopName":"Phillimore Gardens","Latitude":51.499692,"Longitude":-0.196554,"Action":0},{"StopId":5227,"StopCode":"1400","PointLetter":"V","StopName":"Earls Court Road / Pembroke Place","Latitude":51.498612,"Longitude":-0.198239,"Action":0},{"StopId":5126,"StopCode":"11166","PointLetter":"L","StopName":"Pembroke Road","Latitude":51.496479,"Longitude":-0.196925,"Action":0},{"StopId":5086,"StopCode":"1566","PointLetter":"H","StopName":"Cromwell Road","Latitude":51.495149,"Longitude":-0.195811,"Action":0},{"StopId":3928,"StopCode":"11476","PointLetter":"K","StopName":"Nevern Place","Latitude":51.493311,"Longitude":-0.194429,"Action":0},{"StopId":3936,"StopCode":"11164","PointLetter":"A","StopName":"Earls Court Station","Latitude":51.492005,"Longitude":-0.192564,"Action":0},{"StopId":5106,"StopCode":"11162","PointLetter":"L","StopName":"Earls Court Road / Old Brompton Road","Latitude":51.490205,"Longitude":-0.190720,"Action":0},{"StopId":5049,"StopCode":"11160","PointLetter":"HU","StopName":"Redcliffe Square","Latitude":51.487332,"Longitude":-0.188082,"Action":0},{"StopId":5061,"StopCode":"1064","PointLetter":"HK","StopName":"Fulham Road / Chelsea & Westminster Hosp","Latitude":51.484455,"Longitude":-0.184639,"Action":0},{"StopId":5134,"StopCode":"11311","PointLetter":"HN","StopName":"Edith Grove / Kings Road","Latitude":51.482357,"Longitude":-0.182144,"Action":0},{"StopId":5183,"StopCode":"11296","PointLetter":"QH","StopName":"Hobury Street / Worlds End","Latitude":51.482463,"Longitude":-0.179129,"Action":0},{"StopId":1785,"StopCode":"1449","PointLetter":"QL","StopName":"Beaufort Street / Kings Road","Latitude":51.483874,"Longitude":-0.175055,"Action":0},{"StopId":1770,"StopCode":"11300","PointLetter":"BA","StopName":"Cheyne Walk","Latitude":51.482741,"Longitude":-0.173905,"Action":0},{"StopId":1829,"StopCode":"12874","PointLetter":"BE","StopName":"Parkgate Road","Latitude":51.478609,"Longitude":-0.170109,"Action":0},{"StopId":1830,"StopCode":"12878","PointLetter":"BF","StopName":"Petworth Street","Latitude":51.475925,"Longitude":-0.167567,"Action":0},{"StopId":1917,"StopCode":"33015","PointLetter":"LB","StopName":"The Latchmere","Latitude":51.472409,"Longitude":-0.164137,"Action":0},{"StopId":1801,"StopCode":"R0280","PointLetter":"LD","StopName":"Bullen Street","Latitude":51.471504,"Longitude":-0.167816,"Action":0},{"StopId":11931,"StopCode":"25524","PointLetter":"LE","StopName":"Battersea High Street","Latitude":51.470433,"Longitude":-0.170566,"Action":0},{"StopId":1867,"StopCode":"8953","PointLetter":"","StopName":"Falcon Grove","Latitude":51.468050,"Longitude":-0.170589,"Action":0},{"StopId":1866,"StopCode":"8957","PointLetter":"G","StopName":"Falcon Road / Grant Road","Latitude":51.465811,"Longitude":-0.168879,"Action":0},{"StopId":5089,"StopCode":"27937","PointLetter":"L","StopName":"Clapham Junction Station","Latitude":51.463100,"Longitude":-0.169779,"Action":0}], "Routes" : [{"Id":4734,"Route":"31","From":"Bayham Street","Towards":"White City Bus Station","Run":"1","IsDay":1,"encodedLevels":"PAE@F@??ADAFAC@?A@AG@AD?C@@C@G@C@EB?C@?I@B@DA@C@F?@?AEAB?A?CGE@AF??AF@A@ADE?G?CI@?CAAEB@F?F??GAD@B@FABIA@AD@@?@C@DB?BAG?@AA@F@D?A?AG?ADA?@ADA?@B@@B@E@D?@B@@P","encodedPoints":"qbqyHloZ`D}CRAFDrAhE_A|@kCtBiBpAcHvF{BxBoB`D}AdDqCbHUfA_@~BwA|KA\\kAtG]nA]nDCn@V`e@R|KRzD~Dbn@RfA^hAtAvHr@vN?rAs@QmFa@yATm@PyA|@oAzAS^c@bAm@rBi@rBvAbAxEbCxBbA`FpBRGJe@LIVDHLfBpLjAjH|ApKv@hGfAfFnEfO~AnEV@H@NJFNlBbG~AqB`@`@~JrGl@NDAVa@dEaEvA{@RH|HlFhB~AjKfIlFjD[`C`@DlMj@fBhLfBjK`Ad@r@HZ@\\EpAg@zC]|As@vEaDxBuBtGyF_@uBaAwHdASzFuAxN_DzBtEdBbCf@d@hBpAr@ZhBf@xAFrBOvMuBXvCV`GCXp@hK~@dFFDhBjKlEbV|AjJ~A`NxBhPx@fDF?h@X`@l@Hd@?\\OhAKtBFhBE^ILoC_@wBOkEdBwBv@iFvAqBf@_C`AA^NzBf@pE`@DFCFKl@WHDRTDf@Lr@JVTPZDLJHNJj@L|CCrAILIFQ@u@AMIe@?","Color":"993333","hasRunTwo":1,"startPoint":{"Latitude":51.538497,"Longitude":-0.140867},"endPoint":{"Latitude":51.508869,"Longitude":-0.224011}},{"Id":9911,"Route":"N31","From":"Bayham Street","Towards":"Clapham Junction Station","Run":"1","IsDay":0,"encodedLevels":"P??BB?G?B?EB@B@@A?EA?C?G?A@A@@AEF@BC@@CG@C?AB?EAC?@I?A?CC??@C@F?@?AEAB?A?CGE@AF??AF@A@ADE?G?CK@?CAAEB@F?G??FAC@AFACAGEF@EBAE@@F@D@BDH@A??B@@@G?@@IAD?B@DBCDBBBCG@B??D?@C@?AC?G?B@@?FAIF?@BD?AGA@@CB@DB@FP","encodedPoints":"qbqyHloZ`D}Cr@k@tFgFrGqFF?HH^`CDb@INQv@m@RwCrCcHrHkErDiBpAsHfGeA~@e@h@oB`DoBzDaArB}@xCUfAa@fCYxBBNIz@KRwAfK_@fB_AnHV`e@R|KHhBhEtp@RfA^hAtAvHr@~NM`@MF[@{BMgENm@P]NsBjBk@|@S`@eAhDa@~AvAbAl@\\jDdBxBbAtFhBDE?KDSLIVDHLfBpLjAjH|ApKv@hGfAfFnEfO~AnEV@H@NJFNlBbG~AqB`@`@~JrGl@NDAVa@dEaEvA{@RH|HlFhB~AjKfIlFjD[`C`@DlMj@fBhLfBjK`Ad@r@HZ@\\EpAg@zC]|As@vEaDxBuBtGyF_@uBaAwHdASzFuAxN_DzBtEdBbCf@d@hBpAr@ZhBf@xAFrBOpHkAnCaA_BsPlB_@~@]n@dCz@~AL@bEaAhBYdD}@`CeA`CsAZk@F]JgDxLiGPp@Fr@Xn@fCfHJ^|AhGJr@vCtKvB`Jt@i@zBoAnHaEvAo@nGkF`H{EnBwBZc@`AoBpEsHbBiBlH_ErMcNfE{EpJ_NMQx@sApL{LSiBsAcHMY{BaI[eAQa@e@q@USSGW@m@KQUe@cA}@cCt@q@|IaJ`Y{VtFqFpGwF|CsCHsA@sPvKoDn@nEn@dF`CdOtBhKnAnDXp@dCzEdCiAhFmB|@OjCiA`@eArEuD`Ao@~DuBl@UzBc@zBvM","Color":"663366","hasRunTwo":1,"startPoint":{"Latitude":51.538497,"Longitude":-0.140867},"endPoint":{"Latitude":51.463044,"Longitude":-0.170222}}]}


