{"Stops" : [{"StopId":14070,"StopCode":"BP4272","PointLetter":"C","StopName":"Walthamstow Bus Station","Latitude":51.583892,"Longitude":-0.020424,"Action":0},{"StopId":841,"StopCode":"11481","PointLetter":"K","StopName":"Grosvenor Park Road","Latitude":51.579571,"Longitude":-0.018028,"Action":0},{"StopId":847,"StopCode":"7962","PointLetter":"SJ","StopName":"Grove Road","Latitude":51.577773,"Longitude":-0.016489,"Action":0},{"StopId":855,"StopCode":"7964","PointLetter":"SK","StopName":"Bakers Avenue","Latitude":51.576207,"Longitude":-0.014768,"Action":0},{"StopId":851,"StopCode":"4759","PointLetter":"WH","StopName":"High Road Leyton / Bakers Arms","Latitude":51.574904,"Longitude":-0.013280,"Action":0},{"StopId":857,"StopCode":"14262","PointLetter":"WJ","StopName":"Shortlands Road","Latitude":51.573084,"Longitude":-0.016260,"Action":0},{"StopId":833,"StopCode":"14258","PointLetter":"LJ","StopName":"Manor Road","Latitude":51.572092,"Longitude":-0.019796,"Action":0},{"StopId":853,"StopCode":"4760","PointLetter":"LK","StopName":"Markhouse Road","Latitude":51.570654,"Longitude":-0.024130,"Action":0},{"StopId":844,"StopCode":"14252","PointLetter":"LL","StopName":"Emmanuel Parish Church","Latitude":51.568829,"Longitude":-0.028942,"Action":0},{"StopId":832,"StopCode":"14245","PointLetter":"LM","StopName":"Perth Road","Latitude":51.567619,"Longitude":-0.032429,"Action":0},{"StopId":848,"StopCode":"3219","PointLetter":"LN","StopName":"Argall Way","Latitude":51.566678,"Longitude":-0.034778,"Action":0},{"StopId":845,"StopCode":"20668","PointLetter":"LP","StopName":"Lea Valley Riding Centre","Latitude":51.564032,"Longitude":-0.041111,"Action":0},{"StopId":859,"StopCode":"14242","PointLetter":"LQ","StopName":"Lee Valley Ice Centre","Latitude":51.562951,"Longitude":-0.043697,"Action":0},{"StopId":850,"StopCode":"3217","PointLetter":"LR","StopName":"Chatsworth Road","Latitude":51.561479,"Longitude":-0.047108,"Action":0},{"StopId":836,"StopCode":"14241","PointLetter":"U","StopName":"Wattisfield Road","Latitude":51.559911,"Longitude":-0.050681,"Action":0},{"StopId":834,"StopCode":"20727","PointLetter":"T","StopName":"Lea Bridge Roundabout","Latitude":51.558615,"Longitude":-0.054386,"Action":0},{"StopId":672,"StopCode":"1011","PointLetter":"E","StopName":"Clapton Pond","Latitude":51.556801,"Longitude":-0.055661,"Action":0},{"StopId":685,"StopCode":"29245","PointLetter":"G","StopName":"Millfields Road","Latitude":51.555138,"Longitude":-0.054563,"Action":0},{"StopId":675,"StopCode":"2269","PointLetter":"M","StopName":"Clapton Girls' Technology College","Latitude":51.553216,"Longitude":-0.053102,"Action":0},{"StopId":653,"StopCode":"BP3203","PointLetter":"Q","StopName":"Hackney Baths","Latitude":51.550738,"Longitude":-0.052270,"Action":0},{"StopId":665,"StopCode":"2271","PointLetter":"S","StopName":"Clapton Square","Latitude":51.549921,"Longitude":-0.054007,"Action":0},{"StopId":21820,"StopCode":"BP5529","PointLetter":"Y","StopName":"Pembury Circus","Latitude":51.549461,"Longitude":-0.056046,"Action":0},{"StopId":20922,"StopCode":"BP4921","PointLetter":"T","StopName":"Hackney Central Station","Latitude":51.547484,"Longitude":-0.055625,"Action":0},{"StopId":669,"StopCode":"308","PointLetter":"E","StopName":"Graham Road / Hackney Central","Latitude":51.546542,"Longitude":-0.056819,"Action":0},{"StopId":20970,"StopCode":"BP5484","PointLetter":"Z","StopName":"Royal Oak Road","Latitude":51.546109,"Longitude":-0.061611,"Action":0},{"StopId":690,"StopCode":"1115","PointLetter":"B","StopName":"Greenwood Road","Latitude":51.545797,"Longitude":-0.064523,"Action":0},{"StopId":697,"StopCode":"782","PointLetter":"C","StopName":"Queensbridge Road / Dalston Lane","Latitude":51.546152,"Longitude":-0.068604,"Action":0},{"StopId":670,"StopCode":"320","PointLetter":"G","StopName":"Dalston Junction","Latitude":51.546179,"Longitude":-0.074603,"Action":0},{"StopId":657,"StopCode":"2640","PointLetter":"F","StopName":"Balls Pond Road / Burder Road","Latitude":51.546133,"Longitude":-0.077850,"Action":0},{"StopId":652,"StopCode":"913","PointLetter":"BH","StopName":"Southgate Road","Latitude":51.546506,"Longitude":-0.083041,"Action":0},{"StopId":682,"StopCode":"905","PointLetter":"CD","StopName":"Essex Road / Newington Green Road","Latitude":51.546504,"Longitude":-0.086214,"Action":0},{"StopId":192,"StopCode":"2636","PointLetter":"CG","StopName":"Essex Road / Marquess Road","Latitude":51.545583,"Longitude":-0.087652,"Action":0},{"StopId":100,"StopCode":"2632","PointLetter":"EH","StopName":"Northchurch Road","Latitude":51.543499,"Longitude":-0.090494,"Action":0},{"StopId":108,"StopCode":"14920","PointLetter":"EJ","StopName":"Essex Road Station","Latitude":51.541079,"Longitude":-0.094907,"Action":0},{"StopId":233,"StopCode":"793","PointLetter":"E","StopName":"Cross Street","Latitude":51.538246,"Longitude":-0.099308,"Action":0},{"StopId":92,"StopCode":"2626","PointLetter":"A","StopName":"Packington Street","Latitude":51.536845,"Longitude":-0.101054,"Action":0},{"StopId":159,"StopCode":"791","PointLetter":"D","StopName":"Islington Green","Latitude":51.535772,"Longitude":-0.103132,"Action":0},{"StopId":128,"StopCode":"36602","PointLetter":"F","StopName":"Angel Station","Latitude":51.533562,"Longitude":-0.105458,"Action":0},{"StopId":603,"StopCode":"297","PointLetter":"M","StopName":"St John Street / Goswell Road","Latitude":51.531006,"Longitude":-0.105911,"Action":0},{"StopId":605,"StopCode":"1045","PointLetter":"UC","StopName":"Sadler's Wells Theatre","Latitude":51.529119,"Longitude":-0.106018,"Action":0},{"StopId":597,"StopCode":"1802","PointLetter":"UD","StopName":"Tysoe Street","Latitude":51.527111,"Longitude":-0.108048,"Action":0},{"StopId":589,"StopCode":"616","PointLetter":"CK","StopName":"Mount Pleasant","Latitude":51.525368,"Longitude":-0.110412,"Action":0},{"StopId":568,"StopCode":"2622","PointLetter":"CN","StopName":"Clerkenwell Road","Latitude":51.522806,"Longitude":-0.111585,"Action":0},{"StopId":505,"StopCode":"R0078","PointLetter":"CP","StopName":"Gray's Inn Road","Latitude":51.521245,"Longitude":-0.114042,"Action":0},{"StopId":501,"StopCode":"14682","PointLetter":"A","StopName":"Red Lion Square","Latitude":51.520127,"Longitude":-0.118341,"Action":0},{"StopId":20997,"StopCode":"BP5485","PointLetter":"B","StopName":"Bloomsbury Way","Latitude":51.518626,"Longitude":-0.121718,"Action":0},{"StopId":20998,"StopCode":"BP5486","PointLetter":"C","StopName":"Museum Street","Latitude":51.517412,"Longitude":-0.124578,"Action":0},{"StopId":18068,"StopCode":"BP5172","PointLetter":"B","StopName":"Cambridge Circus","Latitude":51.513653,"Longitude":-0.128509,"Action":0},{"StopId":693,"StopCode":"1054","PointLetter":"W","StopName":"Dean Street / Chinatown","Latitude":51.512351,"Longitude":-0.130911,"Action":0},{"StopId":673,"StopCode":"37229","PointLetter":"K","StopName":"Trocadero / Haymarket","Latitude":51.511194,"Longitude":-0.133366,"Action":0},{"StopId":688,"StopCode":"34716","PointLetter":"S","StopName":"Piccadilly Circus","Latitude":51.509154,"Longitude":-0.136245,"Action":0},{"StopId":679,"StopCode":"34717","PointLetter":"G","StopName":"Old Bond Street / Royal Academy","Latitude":51.508074,"Longitude":-0.139589,"Action":0},{"StopId":671,"StopCode":"15192","PointLetter":"H","StopName":"Green Park Station","Latitude":51.506677,"Longitude":-0.142816,"Action":0},{"StopId":661,"StopCode":"988","PointLetter":"E","StopName":"Green Park / Constitution Hill","Latitude":51.503995,"Longitude":-0.147767,"Action":0},{"StopId":113,"StopCode":"36857","PointLetter":"F","StopName":"Hyde Park Corner","Latitude":51.502089,"Longitude":-0.150654,"Action":0},{"StopId":114,"StopCode":"27945","PointLetter":"S","StopName":"Wilton Street","Latitude":51.499284,"Longitude":-0.147843,"Action":0},{"StopId":45,"StopCode":"33477","PointLetter":"P","StopName":"Bressenden Place","Latitude":51.497366,"Longitude":-0.144246,"Action":0},{"StopId":12029,"StopCode":"34","PointLetter":"D","StopName":"Victoria Bus Station","Latitude":51.496114,"Longitude":-0.143591,"Action":0}], "Routes" : [{"Id":8939,"Route":"38","From":"Clapton Pond","Towards":"Victoria Bus Station","Run":"1","IsDay":1,"encodedLevels":"PAC?CAAAH?A?@DAE?@?CA??GB?@DBHCAAEA?D@@B@ABC?ACA?I@AD??@D@ABD@CABGAB?FA@AA?CBF@@C@AE@@A@ACAAH@?@DB@?AB@CF@EA@CCA@@F?A?DA?AE?AC?@??A@?@@?@?@D@ABDD?HAB?AC?AEAAAE@F?B?AA@P","encodedPoints":"extyHl|IjBS|@_@LMvHsEvFiEpGgEt@}@`EeCLTFVNdBDn@h@vDpAbB|BfE@JEj@@bCClSDj@HPJJDBZGTu@vDwJ`EkLTWvANb@xWj@nJfArJTlFi@lQm@jKObB?Z\\jA@PKnAGlEBhP`@lNEzAo@rNm@|U?tHD~APnJj@P~Az@j@n@h@p@^p@fGfJdGzJpAvCzBlGnDtIdGvLf@z@jNdRjAlClBzFbBlC|C|C`EvCt@`@vCrAbAFBGL?FF\\KLChGqBxAiAnFxFvBjBxEhF`CvDp@zAtCpDf@LFEJBJLdDtA~HlC~AbAp@z@j@ZNtAxA|Ip@rEtCrP|@pDh@jAJJv@zAvBjF`DfKtCvI`AvHr@o@lCaBD^PPTjAxGpFvDvFJLL@DFH\\jDzKd@tAlCzGrA~AtAbAf@VbBdB`FjTd@zBrCvKTl@FDDL?PBJJHDJANn@bBNLDJBP`@hAnCbHtFxL~@bChDhG`CfHxBPL^dC`GRAX_@lDsG@E~DaGlAuAvAuAlByAPkAGuFP}FPmAtBpAhG|CFKJs@Ii@Ci@BqCEs@IY","Color":"993333","hasRunTwo":1,"startPoint":{"Latitude":51.557317,"Longitude":-0.055909},"endPoint":{"Latitude":51.496198,"Longitude":-0.143222}},{"Id":9146,"Route":"N38","From":"Walthamstow Bus Station","Towards":"Victoria Bus Station","Run":"1","IsDay":0,"encodedLevels":"PBEABF@B?@CB@DAE?AD?B?@D@CI?AE?BAC?A?A@AA?E@A???CAHAC?E@A?@AAH?A?@DAE?@?CA??GB?@DBICAAEA?D@@B@ABC?ACA?I@AD??@D@ABD@CABGAB?FA@AA?CBF@@C@AE@@A@ACAAH@?@DB@?AB@CF@EA@CCA@@F?A?DA?AE?AC?@??A@?@@?@?@D@ABDD?HAB?AC?AEAAAE@F?B?AA@P","encodedPoints":"w~yyHj_CpC?ZQWyCIuEZa@d@OZCVHb@R~@PjAYbIIl@GdA_@xDaCpCqCl@k@hF{DLWdBaFNs@TaB^yA^o@PMn@t@jClEbAzA~ClGx@|Cz@pDnBxMpBnJNRFP~AnGpCzLvAjEtB|H~F~U|CrKJh@hBfFbItWrR|l@pAxD|B`H|IxXf@dDdC|Ix@ZnAJTEvDaAjEsCr@YdEyChBuApGgEt@}@`EeCLTFVNdBDn@h@vDpAbB|BfE@JEj@@bCClSDj@HPJJDBZGTu@vDwJ`EkLTWvANb@xWj@nJfArJTlFi@lQm@jKObB?Z\\jA@PKnAGlEBhP`@lNEzAo@rNm@|U?tHD~APnJj@P~Az@j@n@h@p@^p@fGfJdGzJpAvCzBlGnDtIdGvLf@z@jNdRjAlClBzFbBlC|C|C`EvCt@`@vCrAbAFBGL?FF\\KLChGqBxAiAnFxFvBjBxEhF`CvDp@zAtCpDf@LFEJBJLdDtA~HlC~AbAp@z@j@ZNtAxA|Ip@rEtCrP|@pDh@jAJJv@zAvBjF`DfKtCvI`AvHr@o@lCaBD^PPTjAxGpFvDvFJLL@DFH\\jDzKd@tAlCzGrA~AtAbAf@VbBdB`FjTd@zBrCvKTl@FDDL?PBJJHDJANn@bBNLDJBP`@hAnCbHtFxL~@bChDhG`CfHxBPL^dC`GRAX_@lDsG@E~DaGlAuAvAuAlByAPkAGuFP}FPmAtBpAhG|CFKJs@Ii@Ci@BqCEs@IY","Color":"663366","hasRunTwo":1,"startPoint":{"Latitude":51.583964,"Longitude":-0.020533},"endPoint":{"Latitude":51.496198,"Longitude":-0.143222}}]}


