{"Stops" : [{"StopId":611,"StopCode":"BP3504","PointLetter":"C","StopName":"Trafalgar Square / Charing Cross Stn","Latitude":51.508256,"Longitude":-0.127318,"Action":0},{"StopId":582,"StopCode":"7823","PointLetter":"L","StopName":"Leicester Square Station","Latitude":51.510595,"Longitude":-0.128490,"Action":0},{"StopId":572,"StopCode":"37643","PointLetter":"M","StopName":"Cambridge Circus","Latitude":51.512561,"Longitude":-0.128842,"Action":0},{"StopId":563,"StopCode":"29684","PointLetter":"A","StopName":"Denmark Street","Latitude":51.514112,"Longitude":-0.129672,"Action":0},{"StopId":586,"StopCode":"BP882","PointLetter":"Y","StopName":"Tottenham Court Road Station","Latitude":51.516761,"Longitude":-0.128295,"Action":0},{"StopId":559,"StopCode":"29844","PointLetter":"E","StopName":"Museum Street","Latitude":51.517624,"Longitude":-0.124353,"Action":0},{"StopId":575,"StopCode":"982","PointLetter":"F","StopName":"Bloomsbury Square","Latitude":51.518613,"Longitude":-0.122064,"Action":0},{"StopId":553,"StopCode":"33093","PointLetter":"G","StopName":"Red Lion Square","Latitude":51.520164,"Longitude":-0.118930,"Action":0},{"StopId":508,"StopCode":"200","PointLetter":"CA","StopName":"Gray's Inn Road","Latitude":51.521311,"Longitude":-0.114227,"Action":0},{"StopId":598,"StopCode":"197","PointLetter":"CE","StopName":"Rosebery Avenue","Latitude":51.523041,"Longitude":-0.111661,"Action":0},{"StopId":593,"StopCode":"20684","PointLetter":"CF","StopName":"Mount Pleasant","Latitude":51.524023,"Longitude":-0.111217,"Action":0},{"StopId":577,"StopCode":"1801","PointLetter":"CH","StopName":"Tysoe Street","Latitude":51.526236,"Longitude":-0.109598,"Action":0},{"StopId":561,"StopCode":"14237","PointLetter":"UA","StopName":"Hardwick Street","Latitude":51.527706,"Longitude":-0.107561,"Action":0},{"StopId":560,"StopCode":"1046","PointLetter":"UB","StopName":"Sadler's Wells Theatre","Latitude":51.529202,"Longitude":-0.106144,"Action":0},{"StopId":576,"StopCode":"1017","PointLetter":"P","StopName":"St John Street / Goswell Road","Latitude":51.531416,"Longitude":-0.106254,"Action":0},{"StopId":573,"StopCode":"25146","PointLetter":"Y","StopName":"Angel Station","Latitude":51.534243,"Longitude":-0.105315,"Action":0},{"StopId":599,"StopCode":"9996","PointLetter":"Z","StopName":"Theberton Street","Latitude":51.536998,"Longitude":-0.103326,"Action":0},{"StopId":584,"StopCode":"29792","PointLetter":"P","StopName":"St Mary's Church","Latitude":51.539088,"Longitude":-0.102431,"Action":0},{"StopId":562,"StopCode":"26500","PointLetter":"R","StopName":"Islington Town Hall","Latitude":51.541922,"Longitude":-0.103049,"Action":0},{"StopId":569,"StopCode":"10002","PointLetter":"F","StopName":"Highbury Corner","Latitude":51.544985,"Longitude":-0.103369,"Action":0},{"StopId":565,"StopCode":"29772","PointLetter":"A","StopName":"Highbury & Islington Station","Latitude":51.546532,"Longitude":-0.103939,"Action":0},{"StopId":581,"StopCode":"10005","PointLetter":"S","StopName":"St Mary Magdalene Church","Latitude":51.548700,"Longitude":-0.107339,"Action":0},{"StopId":578,"StopCode":"1084","PointLetter":"SV","StopName":"Liverpool Road","Latitude":51.550728,"Longitude":-0.109894,"Action":0},{"StopId":592,"StopCode":"10011","PointLetter":"SU","StopName":"Holloway Road Station","Latitude":51.552888,"Longitude":-0.112776,"Action":0},{"StopId":566,"StopCode":"796","PointLetter":"T","StopName":"Camden Road","Latitude":51.555323,"Longitude":-0.116008,"Action":0},{"StopId":604,"StopCode":"314","PointLetter":"L","StopName":"Holloway / Nags Head","Latitude":51.556548,"Longitude":-0.117833,"Action":0},{"StopId":606,"StopCode":"9850","PointLetter":"F","StopName":"Tufnell Park Road","Latitude":51.558759,"Longitude":-0.121132,"Action":0},{"StopId":590,"StopCode":"9852","PointLetter":"V","StopName":"Manor Gardens","Latitude":51.560398,"Longitude":-0.123459,"Action":0},{"StopId":596,"StopCode":"11328","PointLetter":"U","StopName":"Wedmore Street","Latitude":51.562331,"Longitude":-0.126251,"Action":0},{"StopId":607,"StopCode":"9858","PointLetter":"T","StopName":"Upper Holloway Station","Latitude":51.563971,"Longitude":-0.129877,"Action":0},{"StopId":601,"StopCode":"BP2307","PointLetter":"P","StopName":"Elthorne Road","Latitude":51.564498,"Longitude":-0.131875,"Action":0},{"StopId":583,"StopCode":"36803","PointLetter":"D","StopName":"Archway Station  / Highgate Hill","Latitude":51.565663,"Longitude":-0.135016,"Action":0},{"StopId":335,"StopCode":"526","PointLetter":"U","StopName":"Archway Station  / Junction Road","Latitude":51.564933,"Longitude":-0.134931,"Action":0},{"StopId":415,"StopCode":"529","PointLetter":"M","StopName":"Archway Road / St John's Way","Latitude":51.566763,"Longitude":-0.132966,"Action":0},{"StopId":400,"StopCode":"17472","PointLetter":"Y","StopName":"Cressida Road","Latitude":51.568533,"Longitude":-0.131205,"Action":0},{"StopId":379,"StopCode":"16076","PointLetter":"H","StopName":"Sunnyside Road","Latitude":51.570531,"Longitude":-0.127919,"Action":0},{"StopId":457,"StopCode":"16078","PointLetter":"J","StopName":"Hornsey Road","Latitude":51.569753,"Longitude":-0.124228,"Action":0},{"StopId":435,"StopCode":"1546","PointLetter":"K","StopName":"Hornsey Rise","Latitude":51.571578,"Longitude":-0.124774,"Action":0},{"StopId":328,"StopCode":"16080","PointLetter":"L","StopName":"Hornsey Lane","Latitude":51.575251,"Longitude":-0.126715,"Action":0},{"StopId":419,"StopCode":"14356","PointLetter":"CE","StopName":"Edison Road","Latitude":51.577861,"Longitude":-0.124602,"Action":0},{"StopId":439,"StopCode":"14358","PointLetter":"CA","StopName":"Crouch End Broadway","Latitude":51.580380,"Longitude":-0.122983,"Action":0},{"StopId":302,"StopCode":"25478","PointLetter":"S","StopName":"Tottenham Lane Y M C A","Latitude":51.582321,"Longitude":-0.119540,"Action":0},{"StopId":277,"StopCode":"16084","PointLetter":"T","StopName":"Hornsey Police Station","Latitude":51.583961,"Longitude":-0.116383,"Action":0},{"StopId":363,"StopCode":"BP4337","PointLetter":"D","StopName":"Tottenham Lane","Latitude":51.588049,"Longitude":-0.113890,"Action":0},{"StopId":350,"StopCode":"14802","PointLetter":"E","StopName":"Wightman Road","Latitude":51.588834,"Longitude":-0.111317,"Action":0},{"StopId":340,"StopCode":"1662","PointLetter":"N","StopName":"Wood Green High Road","Latitude":51.589872,"Longitude":-0.105369,"Action":0},{"StopId":258,"StopCode":"3617","PointLetter":"Y","StopName":"Turnpike Lane Station","Latitude":51.589627,"Longitude":-0.102449,"Action":0},{"StopId":252,"StopCode":"26973","PointLetter":"W","StopName":"Willow Walk","Latitude":51.587984,"Longitude":-0.099876,"Action":0},{"StopId":12,"StopCode":"16088","PointLetter":"A","StopName":"Stanley Road","Latitude":51.587063,"Longitude":-0.097388,"Action":0},{"StopId":397,"StopCode":"16090","PointLetter":"B","StopName":"West Green Primary School","Latitude":51.586134,"Longitude":-0.092288,"Action":0},{"StopId":428,"StopCode":"26445","PointLetter":"D","StopName":"Philip Lane","Latitude":51.586358,"Longitude":-0.087241,"Action":0},{"StopId":398,"StopCode":"16094","PointLetter":"J","StopName":"West Green Baptist Church","Latitude":51.585462,"Longitude":-0.083020,"Action":0},{"StopId":278,"StopCode":"16096","PointLetter":"K","StopName":"Bedford Road","Latitude":51.585238,"Longitude":-0.079262,"Action":0},{"StopId":382,"StopCode":"16098","PointLetter":"D","StopName":"Seven Sisters Station","Latitude":51.583984,"Longitude":-0.072993,"Action":0},{"StopId":183,"StopCode":"34039","PointLetter":"F","StopName":"Tottenham Town Hall","Latitude":51.585092,"Longitude":-0.071979,"Action":0},{"StopId":126,"StopCode":"70340","PointLetter":"W","StopName":"Philip Lane","Latitude":51.587532,"Longitude":-0.071081,"Action":0},{"StopId":214,"StopCode":"34287","PointLetter":"R","StopName":"Tottenham High Road","Latitude":51.588812,"Longitude":-0.069093,"Action":0},{"StopId":74,"StopCode":"36850","PointLetter":"S","StopName":"Park View Road","Latitude":51.589358,"Longitude":-0.065634,"Action":0},{"StopId":21041,"StopCode":"BP5526","PointLetter":"API","StopName":"Tottenham Hale Bus Station","Latitude":51.588686,"Longitude":-0.060379,"Action":0}], "Routes" : [{"Id":3268,"Route":"41","From":"Archway Station  / Junction Road","Towards":"Tottenham Hale Bus Station","Run":"1","IsDay":1,"encodedLevels":"PBDB@DF@AAE?C@@BD?A@F@D?@AGACD@@DC@G?CD?ABFAD?@D?AF?ADA@I@@B?B?@AC@@?GA@A?D?E?B@@F@ACAEBAD?A@C@DAGB?ABG?A??@B?@D@AAE@A@@?P","encodedPoints":"mevyHfkYgCkAgAKy@bCSFWAgAoAIQCc@`@sEIs@mF}Gg@s@K?ON[FWY{AeCmC}EkD_H{AiDv@qAxCmGDYDw@A{BUcDiBH}Ab@aFvC_AdAe@t@qFbHqBh@s@MeAa@aAe@cGiDuLwKu@IkAIaBa@_Aw@}GmJg@kAqDkMYmAcBmFo@cA_@e@wEkEOMgB{@{J{Dg@HuAv@GPIe@UkEUeBa@cBgCcNIeA{A_L[kEeBwNOk@QO]aAYg@ZI^c@xC_CzAu@RMBSfBeEh@wBhDqLz@yDb@oCnCeMLiA?g@G}KeAiR?cBfAaNzB}NRcCPeD@s@HyMHiDnBwIpAcH`@iHHqFUYa@G{IoBiIgC_G{BCUAe@Fg@J[PsADg@DwA?kAE{@Ew@WkBmBwJc@{EJ{@hB{I`AkH@a@Ha@DG","Color":"993333","hasRunTwo":1,"startPoint":{"Latitude":51.564555,"Longitude":-0.135071},"endPoint":{"Latitude":51.588593,"Longitude":-0.060233}},{"Id":3472,"Route":"N41","From":"Trafalgar Square / Charing Cross Stn","Towards":"Tottenham Hale Bus Station","Run":"1","IsDay":0,"encodedLevels":"PD@B?B?D@?D@C?E?AC??HBDB?AD@?BA@G?AC?AA@@E@@?CA?@H@CAD@@F@?@D?@AF@DB?@AJ@A?A?CAAC???@C@B?BG@@@C@AC@@@E@K@B@CF@DDBF@AAE?C@@BD?A@F@D?@AHACD@@DC@G?CD?ABFAD?@D?AF?ADA@I@@B?B?@AC@@?GA@A?D?E?B@@F@ACAEBAD?A@C@DAGB?ABG?A??@B?@D@AAE@A@@?P","encodedPoints":"ubkyHpyWcHd@_@LUTo@~AKLSNwAt@a@DiABaGVyBfA{GrCs@PeEr@M]S]{@}@IC]@sACaB{Tk@}C_JoXmAsBc@}@_A}BcBiJsCiQe@aDkAgF_@s@CQq@{@a@]}@e@aDgAkI}CGDKMk@OcAi@QW_AoBsDsGUYyCmDi@a@{EuEkCoCyBdBcAl@aBb@eCZCGkBOuCq@qB}AgB{AgAiAgEmDqAe@}DcBeAk@yFqByMfBqKjA}G\\[?cDWUIuAFQLU\\{AhDaA`CsBnDqCpEyGtIkP|UeFvG_AxAuE~HwF~IiEfHuHvMwFnIy@xAsBxB{AhBoB~Ck@rBiCdHW`@sChIw@vD{@vFqA|FwCbKy@bCCZi@vAlDrE\\VJBLErAuAHOt@aGaAa@oEwAy@bCq@@aAkAIQCc@`@sEIs@mF}Gg@s@K?ON[FWY{AeCmC}EkD_H{AiDv@qAxCmGDYDw@A{BUcDiBH}Ab@aFvC_AdAe@t@qFbHqBh@s@MeAa@aAe@cGiDuLwKu@IkAIaBa@_Aw@}GmJg@kAqDkMYmAcBmFo@cA_@e@wEkEOMgB{@{J{Dg@HuAv@GPIe@UkEUeBa@cBgCcNIeA{A_L[kEeBwNOk@QO]aAYg@ZI^c@xC_CzAu@RMBSfBeEh@wBhDqLz@yDb@oCnCeMLiA?g@G}KeAiR?cBfAaNzB}NRcCPeD@s@HyMHiDnBwIpAcH`@iHHqFUYa@G{IoBiIgC_G{BCUAe@Fg@J[PsADg@DwA?kAE{@Ew@WkBmBwJc@{EJ{@hB{I`AkH@a@Ha@DG","Color":"663366","hasRunTwo":1,"startPoint":{"Latitude":51.507794,"Longitude":-0.127130},"endPoint":{"Latitude":51.588593,"Longitude":-0.060233}}]}


