{"Stops" : [{"StopId":6812,"StopCode":"148","PointLetter":"G","StopName":"Trafalgar Square / Charing Cross Stn","Latitude":51.508643,"Longitude":-0.126207,"Action":0},{"StopId":2233,"StopCode":"7853","PointLetter":"A","StopName":"Southampton Street / Covent Garden","Latitude":51.510366,"Longitude":-0.122043,"Action":0},{"StopId":11,"StopCode":"14628","PointLetter":"D","StopName":"Aldwych","Latitude":51.512368,"Longitude":-0.118978,"Action":0},{"StopId":10067,"StopCode":"20438","PointLetter":"L","StopName":"The Royal Courts Of Justice","Latitude":51.513196,"Longitude":-0.114577,"Action":0},{"StopId":201,"StopCode":"3177","PointLetter":"","StopName":"Fetter Lane","Latitude":51.514253,"Longitude":-0.108725,"Action":0},{"StopId":165,"StopCode":"969","PointLetter":"E","StopName":"Ludgate Circus","Latitude":51.514251,"Longitude":-0.105280,"Action":0},{"StopId":259,"StopCode":"14501","PointLetter":"G","StopName":"Ludgate Hill / Old Bailey","Latitude":51.513953,"Longitude":-0.101862,"Action":0},{"StopId":172,"StopCode":"8601","PointLetter":"SK","StopName":"St Paul's Cathedral","Latitude":51.513192,"Longitude":-0.097599,"Action":0},{"StopId":207,"StopCode":"8551","PointLetter":"ME","StopName":"Mansion House Station","Latitude":51.512671,"Longitude":-0.094854,"Action":0},{"StopId":9546,"StopCode":"8553","PointLetter":"MB","StopName":"Cannon Street Station","Latitude":51.511845,"Longitude":-0.091098,"Action":0},{"StopId":630,"StopCode":"BP140","PointLetter":"P","StopName":"Monument Station","Latitude":51.509485,"Longitude":-0.087003,"Action":0},{"StopId":10247,"StopCode":"BP892","PointLetter":"Y","StopName":"London Bridge","Latitude":51.506741,"Longitude":-0.087983,"Action":0},{"StopId":14534,"StopCode":"2198","PointLetter":"R","StopName":"London Bridge Station","Latitude":51.505978,"Longitude":-0.087006,"Action":0},{"StopId":14430,"StopCode":"33599","PointLetter":"H","StopName":"Hay's Galleria","Latitude":51.505067,"Longitude":-0.084090,"Action":0},{"StopId":14330,"StopCode":"R0049","PointLetter":"J","StopName":"Abbots Lane","Latitude":51.504100,"Longitude":-0.081594,"Action":0},{"StopId":13759,"StopCode":"25936","PointLetter":"K","StopName":"Tower Bridge Road / City Hall","Latitude":51.502819,"Longitude":-0.078075,"Action":0},{"StopId":14638,"StopCode":"654","PointLetter":"S","StopName":"Tower Bridge Police Station","Latitude":51.501703,"Longitude":-0.076349,"Action":0},{"StopId":13831,"StopCode":"33841","PointLetter":"H","StopName":"Dockhead","Latitude":51.499723,"Longitude":-0.071894,"Action":0},{"StopId":10215,"StopCode":"25932","PointLetter":"J","StopName":"Jamaica Road / Abbey Street","Latitude":51.498574,"Longitude":-0.069292,"Action":0},{"StopId":10296,"StopCode":"1204","PointLetter":"D","StopName":"Bermondsey Station","Latitude":51.498089,"Longitude":-0.065494,"Action":0},{"StopId":10268,"StopCode":"25928","PointLetter":"E","StopName":"Drummond Road","Latitude":51.498426,"Longitude":-0.062483,"Action":0},{"StopId":10227,"StopCode":"25926","PointLetter":"F","StopName":"Southwark Park","Latitude":51.499074,"Longitude":-0.057096,"Action":0},{"StopId":11437,"StopCode":"R0741","PointLetter":"S","StopName":"Neptune Street / St Olaves Estate","Latitude":51.497966,"Longitude":-0.054247,"Action":0},{"StopId":11840,"StopCode":"25924","PointLetter":"Y","StopName":"Surrey Quays Road","Latitude":51.496901,"Longitude":-0.052938,"Action":0},{"StopId":11410,"StopCode":"25923","PointLetter":"E","StopName":"Rotherhithe Police Station","Latitude":51.494953,"Longitude":-0.050457,"Action":0},{"StopId":14300,"StopCode":"40071","PointLetter":"J","StopName":"Surrey Quays Shopping Centre","Latitude":51.494020,"Longitude":-0.046233,"Action":0},{"StopId":12223,"StopCode":"13668","PointLetter":"L","StopName":"Surrey Quays Station","Latitude":51.493422,"Longitude":-0.045984,"Action":0},{"StopId":12185,"StopCode":"25994","PointLetter":"M","StopName":"Lower Road / Surrey Quays Station","Latitude":51.492344,"Longitude":-0.045526,"Action":0},{"StopId":12175,"StopCode":"25922","PointLetter":"T","StopName":"Lower Road / Plough Way","Latitude":51.491273,"Longitude":-0.043843,"Action":0},{"StopId":14088,"StopCode":"25921","PointLetter":"","StopName":"Bestwood Street","Latitude":51.489548,"Longitude":-0.041252,"Action":0},{"StopId":14527,"StopCode":"2225","PointLetter":"T","StopName":"Deptford Park School","Latitude":51.488304,"Longitude":-0.038886,"Action":0},{"StopId":14532,"StopCode":"2227","PointLetter":"U","StopName":"Evelyn Street / Grinstead Road","Latitude":51.486984,"Longitude":-0.036321,"Action":0},{"StopId":14189,"StopCode":"915","PointLetter":"V","StopName":"Deptford Fire Station","Latitude":51.485104,"Longitude":-0.033622,"Action":0},{"StopId":13925,"StopCode":"25916","PointLetter":"W","StopName":"Abinger Grove","Latitude":51.483596,"Longitude":-0.031137,"Action":0},{"StopId":20866,"StopCode":"BP5455","PointLetter":"","StopName":"Sayes Court Estate","Latitude":51.482134,"Longitude":-0.028133,"Action":0},{"StopId":14421,"StopCode":"25913","PointLetter":"C","StopName":"Deptford High Street","Latitude":51.481269,"Longitude":-0.024858,"Action":0},{"StopId":13990,"StopCode":"35184","PointLetter":"J","StopName":"Creek Road","Latitude":51.480067,"Longitude":-0.022922,"Action":0},{"StopId":13961,"StopCode":"35186","PointLetter":"L","StopName":"Wavelengths","Latitude":51.478275,"Longitude":-0.022726,"Action":0},{"StopId":14594,"StopCode":"35188","PointLetter":"N","StopName":"Deptford Bridge","Latitude":51.475229,"Longitude":-0.023405,"Action":0},{"StopId":12272,"StopCode":"490","PointLetter":"R","StopName":"Friendly Street","Latitude":51.473083,"Longitude":-0.023656,"Action":0},{"StopId":12283,"StopCode":"13721","PointLetter":"SV","StopName":"Cranbrook Road","Latitude":51.470645,"Longitude":-0.021429,"Action":0},{"StopId":12280,"StopCode":"13811","PointLetter":"EB","StopName":"Elverson Road","Latitude":51.468140,"Longitude":-0.018471,"Action":0},{"StopId":12192,"StopCode":"R0086","PointLetter":"ST","StopName":"Jerrard Street","Latitude":51.466314,"Longitude":-0.016865,"Action":0},{"StopId":12263,"StopCode":"R0463","PointLetter":"","StopName":"Loampit Vale","Latitude":51.465321,"Longitude":-0.014533,"Action":0},{"StopId":12166,"StopCode":"BP190","PointLetter":"D","StopName":"Lewisham Station","Latitude":51.464542,"Longitude":-0.012062,"Action":0},{"StopId":12939,"StopCode":"BP1117","PointLetter":"J","StopName":"Lewisham Police Station","Latitude":51.463391,"Longitude":-0.010456,"Action":0},{"StopId":12949,"StopCode":"BP1116","PointLetter":"W","StopName":"Lewisham Centre","Latitude":51.460902,"Longitude":-0.010593,"Action":0},{"StopId":12936,"StopCode":"26285","PointLetter":"Z","StopName":"Morley Road","Latitude":51.458659,"Longitude":-0.012461,"Action":0},{"StopId":12950,"StopCode":"34265","PointLetter":"HN","StopName":"Ladywell Leisure Centre","Latitude":51.456721,"Longitude":-0.013841,"Action":0},{"StopId":12959,"StopCode":"26283","PointLetter":"HP","StopName":"Lewisham Park","Latitude":51.454311,"Longitude":-0.015918,"Action":0},{"StopId":12935,"StopCode":"26281","PointLetter":"HR","StopName":"Lewisham Hospital","Latitude":51.453040,"Longitude":-0.016304,"Action":0},{"StopId":12946,"StopCode":"925","PointLetter":"HS","StopName":"George Lane","Latitude":51.450764,"Longitude":-0.016791,"Action":0},{"StopId":12958,"StopCode":"26279","PointLetter":"HT","StopName":"Rosenthal Road","Latitude":51.448134,"Longitude":-0.017596,"Action":0},{"StopId":12910,"StopCode":"1992","PointLetter":"D","StopName":"The Catford Centre","Latitude":51.444764,"Longitude":-0.019842,"Action":0},{"StopId":12911,"StopCode":"23410","PointLetter":"Y","StopName":"Bromley Road / Lewisham Town Hall","Latitude":51.443708,"Longitude":-0.020205,"Action":0},{"StopId":10297,"StopCode":"26274","PointLetter":"","StopName":"Inchmery Road","Latitude":51.439266,"Longitude":-0.019663,"Action":0},{"StopId":10333,"StopCode":"1998","PointLetter":"BM","StopName":"Newquay Road","Latitude":51.437088,"Longitude":-0.018520,"Action":0},{"StopId":12948,"StopCode":"29810","PointLetter":"BN","StopName":"Catford Bus Garage","Latitude":51.434665,"Longitude":-0.017761,"Action":0},{"StopId":12917,"StopCode":"26273","PointLetter":"BQ","StopName":"Bellingham Road","Latitude":51.433781,"Longitude":-0.017584,"Action":0},{"StopId":12938,"StopCode":"2000","PointLetter":"BS","StopName":"Catford Police Station","Latitude":51.431239,"Longitude":-0.015651,"Action":0},{"StopId":12954,"StopCode":"BP660","PointLetter":"ST","StopName":"Southend Lane","Latitude":51.429608,"Longitude":-0.014369,"Action":0},{"StopId":12945,"StopCode":"2004","PointLetter":"SX","StopName":"Bromley Road / The Pond","Latitude":51.427900,"Longitude":-0.011739,"Action":0},{"StopId":12934,"StopCode":"26269","PointLetter":"DL","StopName":"Old Bromley Road","Latitude":51.425798,"Longitude":-0.005515,"Action":0},{"StopId":13585,"StopCode":"26267","PointLetter":"DA","StopName":"Bromley Road / Downham Way","Latitude":51.423937,"Longitude":-0.003467,"Action":0},{"StopId":13623,"StopCode":"4747","PointLetter":"DB","StopName":"Ashgrove Road","Latitude":51.422136,"Longitude":-0.002237,"Action":0},{"StopId":13620,"StopCode":"18189","PointLetter":"DC","StopName":"Bromley Hill Cemetery","Latitude":51.419084,"Longitude":0.001125,"Action":0},{"StopId":13646,"StopCode":"27962","PointLetter":"DG","StopName":"Bromley Court Hotel","Latitude":51.417173,"Longitude":0.004019,"Action":0},{"StopId":13612,"StopCode":"3922","PointLetter":"","StopName":"Park Avenue","Latitude":51.415014,"Longitude":0.006657,"Action":0},{"StopId":13619,"StopCode":"18191","PointLetter":"","StopName":"Warner Road","Latitude":51.412818,"Longitude":0.008358,"Action":0},{"StopId":13618,"StopCode":"18193","PointLetter":"","StopName":"Farwig Lane","Latitude":51.410457,"Longitude":0.010210,"Action":0},{"StopId":13571,"StopCode":"BP056","PointLetter":"A","StopName":"Bromley / Magistrates Court","Latitude":51.407946,"Longitude":0.011379,"Action":0},{"StopId":13576,"StopCode":"BP051","PointLetter":"J","StopName":"Bromley / The Greyhound","Latitude":51.406293,"Longitude":0.013334,"Action":0},{"StopId":13647,"StopCode":"BP050","PointLetter":"I","StopName":"Bromley / Market Square","Latitude":51.405752,"Longitude":0.014978,"Action":0},{"StopId":13574,"StopCode":"BP053","PointLetter":"K","StopName":"Bromley Town Hall","Latitude":51.406279,"Longitude":0.017820,"Action":0},{"StopId":13572,"StopCode":"BP055","PointLetter":"T","StopName":"Bromley Civic Centre","Latitude":51.405318,"Longitude":0.018841,"Action":0},{"StopId":13610,"StopCode":"40234","PointLetter":"X","StopName":"Bromley High Street / The Mall","Latitude":51.401794,"Longitude":0.016141,"Action":0},{"StopId":13635,"StopCode":"40104","PointLetter":"Z","StopName":"Bromley South Station","Latitude":51.400437,"Longitude":0.017131,"Action":0},{"StopId":13599,"StopCode":"14457","PointLetter":"G","StopName":"Cromwell Avenue","Latitude":51.398805,"Longitude":0.018957,"Action":0},{"StopId":13641,"StopCode":"19276","PointLetter":"","StopName":"Bertha James Day Centre","Latitude":51.396801,"Longitude":0.023556,"Action":0},{"StopId":13613,"StopCode":"3912","PointLetter":"","StopName":"Homesdale Road","Latitude":51.396039,"Longitude":0.024959,"Action":0},{"StopId":13615,"StopCode":"18196","PointLetter":"BA","StopName":"Southlands Road","Latitude":51.392614,"Longitude":0.031148,"Action":0},{"StopId":13643,"StopCode":"1242","PointLetter":"BB","StopName":"Bromley Common / The Crown","Latitude":51.390181,"Longitude":0.034533,"Action":0},{"StopId":13640,"StopCode":"36645","PointLetter":"BC","StopName":"Crown Lane Spur","Latitude":51.388818,"Longitude":0.036930,"Action":0},{"StopId":13636,"StopCode":"11752","PointLetter":"","StopName":"Southborough Library","Latitude":51.389685,"Longitude":0.043451,"Action":0},{"StopId":13527,"StopCode":"19696","PointLetter":"","StopName":"The Fairway","Latitude":51.389792,"Longitude":0.050197,"Action":0},{"StopId":13524,"StopCode":"25472","PointLetter":"","StopName":"Southborough Lane / Blackbrook Lane","Latitude":51.390690,"Longitude":0.054348,"Action":0},{"StopId":13568,"StopCode":"27602","PointLetter":"","StopName":"Oxhawth Crescent / West Arm","Latitude":51.389311,"Longitude":0.060194,"Action":0},{"StopId":7361,"StopCode":"27604","PointLetter":"","StopName":"Southborough Lane / Baptist Church","Latitude":51.388589,"Longitude":0.064947,"Action":0},{"StopId":7777,"StopCode":"R0557","PointLetter":"","StopName":"Crescent Drive","Latitude":51.388982,"Longitude":0.068156,"Action":0},{"StopId":7677,"StopCode":"33222","PointLetter":"B","StopName":"Queensway / Petts Wood Station","Latitude":51.388924,"Longitude":0.072911,"Action":0},{"StopId":13593,"StopCode":"33224","PointLetter":"","StopName":"Jersey Drive","Latitude":51.385184,"Longitude":0.076939,"Action":0},{"StopId":7676,"StopCode":"33225","PointLetter":"","StopName":"Crofton School","Latitude":51.381922,"Longitude":0.079881,"Action":0},{"StopId":7846,"StopCode":"33228","PointLetter":"CJ","StopName":"Place Farm Avenue","Latitude":51.379354,"Longitude":0.079132,"Action":0},{"StopId":7675,"StopCode":"33230","PointLetter":"CK","StopName":"St Thomas Drive","Latitude":51.374909,"Longitude":0.076258,"Action":0},{"StopId":13650,"StopCode":"33231","PointLetter":"CP","StopName":"Crofton Lane / Crofton Road","Latitude":51.373309,"Longitude":0.076718,"Action":0},{"StopId":13567,"StopCode":"18948","PointLetter":"CR","StopName":"Pound Court Drive","Latitude":51.372987,"Longitude":0.080640,"Action":0},{"StopId":13652,"StopCode":"18950","PointLetter":"B","StopName":"Orpington Station","Latitude":51.372781,"Longitude":0.088691,"Action":0},{"StopId":7534,"StopCode":"18952","PointLetter":"H","StopName":"Tubbenden Lane","Latitude":51.371870,"Longitude":0.091379,"Action":0},{"StopId":7779,"StopCode":"12239","PointLetter":"R","StopName":"High Street / Orpington War Memorial","Latitude":51.373886,"Longitude":0.097837,"Action":0},{"StopId":7751,"StopCode":"R0520","PointLetter":"T","StopName":"Walnuts Centre","Latitude":51.376452,"Longitude":0.099621,"Action":0},{"StopId":7470,"StopCode":"R0514","PointLetter":"V","StopName":"High Street / Broomhill Road","Latitude":51.378240,"Longitude":0.101240,"Action":0},{"StopId":7699,"StopCode":"34274","PointLetter":"D","StopName":"Goodmead Road","Latitude":51.381849,"Longitude":0.102555,"Action":0},{"StopId":7543,"StopCode":"12445","PointLetter":"L","StopName":"Carlton Parade","Latitude":51.382047,"Longitude":0.107091,"Action":0},{"StopId":7443,"StopCode":"19000","PointLetter":"SV","StopName":"Kent Road","Latitude":51.387107,"Longitude":0.108747,"Action":0},{"StopId":7608,"StopCode":"18998","PointLetter":"SJ","StopName":"Nugent Retail Park","Latitude":51.391639,"Longitude":0.110723,"Action":0},{"StopId":7844,"StopCode":"26143","PointLetter":"SD","StopName":"St Mary Cray/ Station Approach","Latitude":51.395037,"Longitude":0.111311,"Action":0},{"StopId":7530,"StopCode":"26141","PointLetter":"SA","StopName":"St Mary Cray Station","Latitude":51.395732,"Longitude":0.107188,"Action":0}], "Routes" : [{"Id":984,"Route":"N47","From":"Trafalgar Square / Charing Cross Stn","Towards":"St Mary Cray Station","Run":"1","IsDay":0,"encodedLevels":"PAD@C@?EBAD@AF@B??D??@?A?G@C??EBB@AAI?D@??AB?G??C@@B@@AD?AA@DA?CBC@G@B???@@D@B??H?BA@B?AD?AAA?EAE?B?BCB?FCA@C@F?B?CAAC?F??BDAJ@ABAE?B?EABH?@ABDB?@ADAC@?CF?AAD?E@@BBEAABC@IB@@C@B??AB@??BFC@E@BAA@B@DHBBAEB?@AB@DAAC@JA?CAD???@FAC@C?B@GA?C?E?ABAAF?AD?BA@GB?E@BAB?A?HA?ABAF@AB?AB?F?AC@CA?GA@E@B?B@@?B?@E@ACAAAJC?@?BDAA?BE@?@E?B@AF@ABD@BAE@B@@I?BB?E@CA?E@?HB@B?@C@BEC@?D?C@B?HBABCA?DBA@C@J??ADB@FABA?D@BE?AE?GC@AA@D@B@HAC?EA?BDC?G?AA@DCA?P","encodedPoints":"sgkyHbzWAaC[uFgCeGeC}G}@uCiCoJ{@oDwBUsAe@u@o@_@k@g@qAe@uBOoBAmBJ{AFa@RcDMgAI]WsBA[}AmNQyBy@uKCgENeV\\kFLuAn@mJb@w@r@iK`@{B`BeO|Em_@bBaPJUNo@tAd@hDv@xFxAvFtA|CbALELMH_@RsBpAcKb@iBHCdDsKXuAvCkKRwAbC_JdByC|DqHDa@PMn@eBlBgGl@yCl@eC`B{ClDeKfAeFVmBTeCJaC?u@CEBe@@A?cAKwDgBmXw@mNOaDe@cN?CJWNOXCNDLPZAPCTQPWnDeF`@YpFoHd@w@xFkIhBmFhBcHESEGWDGFMs@_@aDF_CDSP[d@r@b@xAz@vBVFNEpCiGnAaChDsF|FuJzCsGjIsStDwHbBcChIcMj@sA|B}FdFaNbB_Gh@uCxBkSPG`CQlHSnGmArAErA^PHVTjJjGzAFh@IdBu@ROv@y@`EeDx@]rDyDtDqE`@w@\\cAdAoBj@o@jBuAvAg@ZI`A?f@GlBeBPUNg@bDaMfAkC~AM~@ABcDK_A@e@j@qI^iAh@k@TAxBmA~B{Bb@mADe@zC|A\\XZp@bBnBx@f@hGpFz@l@zEzCRH~DbDh@p@f@v@?DHLfHtFvOfDfFb@bKn@pAb@h@\\nClBt@r@JZn@h@bFhD|@b@nLhCbDE`Ir@NIhA?bCk@d@]hBgAX_@zDqBvGyBlBy@jB_@pBIbIy@PMlEqAj@e@fCmDnAiBfC_CnGqE~@sB^q@@G|E{J^m@lAkDl@eDJaB|@oI|A}Fz@oCn@oAZ_@~@}@fJqFzGeEl@k@nB{BfBwBdCiDdHyKlF{JdFwIf@i@fEmCnBuAtT}OfAc@fGsBlGqCj@]j@g@zA_CpA{CvBoFAi@SaBMc@[KMcDu@_MSa@?If@Ir@Bx@?nFc@hBLnE?@dANnBLZGHCL@|CDd@t@dFpBsAlBwArE}BlBPTEhAg@XUPUXsANcBvAeLj@c@LWvBuFbC_H|CyGjAoBzEqJ|@oB`DeIHY~BqF|AgD|BiEhBgCfFkGdD_D^OPa@f@mBAs@UqEu@kNUqC?kGKmAk@yBeAuGMg@WsD@i@PiAR}@rAcKGaAcB}NgByKIW[{D?q@JcAhFoZ~@iIt@sHn@iJLgC@_EMkCOmAy@{EaDmPg@uChHoHrKsKxDmFfEqETQhBkARElF@JALMTe@Py@fCeKfAVfAzA`@`@tAp@xDbBpG`D~CtD~@~@fAl@fEr@bD~Av@h@VL`AFVATOn@y@HAT?PwMt@sLp@iPRyL[gEGiCAiCNeDx@{BzAqGTsAFiBEgDKc@Ue@iDkJe@mBq@iD?u@ScFaCsAiDwCmImEs@e@mCoBcI}IS[kDiCg@h@WPuDjBKGgEqCPeMPo@d@kAb@m@HY@USqAc@cBe@iAQMqAZuFn@Y?_BO{Ac@mCmAwMsG{KqDiUuGuDe@kAGGXI`AFp@K|QKhCi@|@]Oe@A[B","Color":"993333","hasRunTwo":1,"startPoint":{"Latitude":51.508587,"Longitude":-0.127213},"endPoint":{"Latitude":51.395912,"Longitude":0.107215}},{"Id":5997,"Route":"47","From":"Newquay Road","Towards":"Shoreditch","Run":"1","IsDay":1,"encodedLevels":"P@AC?@BF@BAAGB?C?B@ABE@DAF@?A?ADAABD??DBBD@BCJ?DB?E@@A@AAB?BAFFAE?C?@AC?D@@BG@CBFCBEA?B?H?@?B?E@CA?@?DA@?EC@E@?AEA?HB@BAFAA@C?B?C?@CA?E?BF?@C?AE@C@@D?AI?@B@D?A?C@A@DA@A@E@?BB?BE@A?AFAB?CB@FA?CB@G?ACA?AB@D@ABBD@BACA@J@BC@E?A@D?ABC@A@DC?G@@CA@AFA?D@F@AG@C?F????C@P","encodedPoints":"ib}xH`qBaBn@iIzBuClAe@b@c@h@aDdCs@Nk@FoA?QKaIs@yIk@_FiAYMkCuAo@a@mDgCo@q@IUwAoAcD_BiCUsLo@iK{BaHsBYa@sBmBs@k@_DaEIMs@g@e@GyCiBmB}AuAe@GFWv@IL[k@`@oAOa@uAuAgFaEuAuB{C}AEd@i@nCaGzCSZITOnABPAZERMP[lBU~CEjG@~@U`FSpAgFyCsApFiA~CmBdBIDK@m@AaAJ}@VYNkBtAgAxA[n@cGbJoC`Dc@VsDvAu@rAmF`DyBGoIuFsC{@{@@gAVyF`AoADaHZATAPs@|DkBxLKl@}AlGuF`OqD`Jo@rAk@|@iB~BgFtHWb@}CrGkFrM{DdJm@nAmA|D?x@_@bJ]\\kAl@q@VsClBG`@Dx@FpEcCj@c@VmAhAiClAIEKOXy@Dk@A[ESEGWDGFMs@YqBEo@F_CDSP[OWmAsAcCwAGf@El@_@lBGLUZaAv@]Ns@Lc@Aa@KoG_@a@Pg@`@s@dAWj@Ur@Mn@SbBElBDv@F^J`@Vd@P\\VRXNZDIlAER_@ZITBPHJF@HAdBmALWJ]NLVn@h@jCx@|Bl@zA~@dDo@`@uAbBmCpEm@z@yC|Fg@~AEf@r@zPb@zHfB`XNfHUfFMhAe@fDYzA}@pDe@bBsAdDo@rAcCnHm@fD?VIAOPuEjKmFnJaApCaAlESvAkI|YoBpIo@jHMp@IHKLY@oR_F{@YwEwB?UGk@[cAa@s@WMyKiGo@S}DqCS]wFyFyEuEcBwAeF{DyAi@{Aa@UGUFuBUKQqFeB_@UiEmAYZQ`@cCvEHfDJl@yAEqIAyFP_@}@Km@Cw@F{Ht@@\\Cz@Br@@JAZKbCcB","Color":"663366","hasRunTwo":1,"startPoint":{"Latitude":51.436050,"Longitude":-0.018243},"endPoint":{"Latitude":51.525372,"Longitude":-0.077510}}]}


