{"Stops" : [{"StopId":8998,"StopCode":"R0790","PointLetter":"D","StopName":"Edgware Bus Station","Latitude":51.612948,"Longitude":-0.274613,"Action":0},{"StopId":2363,"StopCode":"29833","PointLetter":"J","StopName":"Manor Park Crescent","Latitude":51.612205,"Longitude":-0.277299,"Action":0},{"StopId":2364,"StopCode":"6071","PointLetter":"N","StopName":"Whitchurch Lane","Latitude":51.610162,"Longitude":-0.278431,"Action":0},{"StopId":2344,"StopCode":"2990","PointLetter":"HD","StopName":"Deansbrook Road","Latitude":51.607719,"Longitude":-0.275577,"Action":0},{"StopId":8919,"StopCode":"24335","PointLetter":"HA","StopName":"Edgware Community Hospital","Latitude":51.605174,"Longitude":-0.273088,"Action":0},{"StopId":8982,"StopCode":"2988","PointLetter":"A","StopName":"North Road","Latitude":51.603680,"Longitude":-0.271152,"Action":0},{"StopId":9310,"StopCode":"9011","PointLetter":"L","StopName":"Watling Avenue","Latitude":51.601280,"Longitude":-0.266333,"Action":0},{"StopId":9279,"StopCode":"25027","PointLetter":"N","StopName":"Burnt Oak Station","Latitude":51.602577,"Longitude":-0.264017,"Action":0},{"StopId":7880,"StopCode":"34719","PointLetter":"U","StopName":"Gunter Grove","Latitude":51.604341,"Longitude":-0.259891,"Action":0},{"StopId":9491,"StopCode":"34758","PointLetter":"QX","StopName":"Cressingham Road","Latitude":51.605072,"Longitude":-0.256455,"Action":0},{"StopId":9551,"StopCode":"34720","PointLetter":"QB","StopName":"Pageant Avenue","Latitude":51.602129,"Longitude":-0.254416,"Action":0},{"StopId":9492,"StopCode":"34722","PointLetter":"QC","StopName":"North Acre","Latitude":51.601212,"Longitude":-0.251419,"Action":0},{"StopId":9543,"StopCode":"R0485","PointLetter":"QD","StopName":"Quakers Course","Latitude":51.601613,"Longitude":-0.245714,"Action":0},{"StopId":9464,"StopCode":"34609","PointLetter":"QH","StopName":"Cherry Close","Latitude":51.597954,"Longitude":-0.245783,"Action":0},{"StopId":9356,"StopCode":"17037","PointLetter":"CA","StopName":"Colindale Station","Latitude":51.595652,"Longitude":-0.248802,"Action":0},{"StopId":9325,"StopCode":"17039","PointLetter":"CC","StopName":"Ajax Avenue","Latitude":51.593806,"Longitude":-0.252887,"Action":0},{"StopId":9509,"StopCode":"34229","PointLetter":"CE","StopName":"Colindale Avenue","Latitude":51.591623,"Longitude":-0.256666,"Action":0},{"StopId":9530,"StopCode":"2984","PointLetter":"CF","StopName":"Colindeep Lane","Latitude":51.590192,"Longitude":-0.254743,"Action":0},{"StopId":10614,"StopCode":"2982","PointLetter":"CG","StopName":"Sheaveshill Avenue","Latitude":51.587818,"Longitude":-0.251688,"Action":0},{"StopId":10625,"StopCode":"1329","PointLetter":"HA","StopName":"Kingsbury Road","Latitude":51.584731,"Longitude":-0.248486,"Action":0},{"StopId":5354,"StopCode":"25102","PointLetter":"HB","StopName":"Hendon Magistrates Court","Latitude":51.581494,"Longitude":-0.244352,"Action":0},{"StopId":5306,"StopCode":"6051","PointLetter":"HC","StopName":"West Hendon Broadway / Herbert Road","Latitude":51.579192,"Longitude":-0.241309,"Action":0},{"StopId":2379,"StopCode":"1516","PointLetter":"HD","StopName":"Hendon Station","Latitude":51.579327,"Longitude":-0.238922,"Action":0},{"StopId":5526,"StopCode":"17169","PointLetter":"","StopName":"Audley Road","Latitude":51.582343,"Longitude":-0.233176,"Action":0},{"StopId":5400,"StopCode":"17168","PointLetter":"D","StopName":"Hendon Way","Latitude":51.582743,"Longitude":-0.228051,"Action":0},{"StopId":5410,"StopCode":"13507","PointLetter":"A","StopName":"Hendon Central Station","Latitude":51.582844,"Longitude":-0.225868,"Action":0},{"StopId":5367,"StopCode":"17166","PointLetter":"Y","StopName":"Brent Green","Latitude":51.584333,"Longitude":-0.219632,"Action":0},{"StopId":5455,"StopCode":"15922","PointLetter":"L","StopName":"Brent Street / Green Lane","Latitude":51.583164,"Longitude":-0.215535,"Action":0},{"StopId":5515,"StopCode":"4692","PointLetter":"M","StopName":"North Circular Road","Latitude":51.581477,"Longitude":-0.212787,"Action":0},{"StopId":5307,"StopCode":"36793","PointLetter":"N","StopName":"Golders Manor Drive","Latitude":51.580466,"Longitude":-0.210229,"Action":0},{"StopId":5429,"StopCode":"15919","PointLetter":"P","StopName":"Highfield Avenue","Latitude":51.578513,"Longitude":-0.207766,"Action":0},{"StopId":5363,"StopCode":"15916","PointLetter":"R","StopName":"Woodstock Avenue","Latitude":51.575989,"Longitude":-0.204387,"Action":0},{"StopId":5456,"StopCode":"15915","PointLetter":"S","StopName":"Hoop Lane","Latitude":51.573651,"Longitude":-0.200323,"Action":0},{"StopId":5480,"StopCode":"14461","PointLetter":"GT","StopName":"Finchley Road","Latitude":51.572283,"Longitude":-0.197318,"Action":0},{"StopId":11163,"StopCode":"BP2776","PointLetter":"GJ","StopName":"Golders Green Station","Latitude":51.571497,"Longitude":-0.193539,"Action":0},{"StopId":11155,"StopCode":"17256","PointLetter":"","StopName":"Wellgarth Road","Latitude":51.569860,"Longitude":-0.186562,"Action":0},{"StopId":11156,"StopCode":"14130","PointLetter":"","StopName":"Hampstead Way","Latitude":51.568265,"Longitude":-0.183999,"Action":0},{"StopId":11157,"StopCode":"29698","PointLetter":"L","StopName":"Inverforth House","Latitude":51.564314,"Longitude":-0.180319,"Action":0},{"StopId":10114,"StopCode":"33808","PointLetter":"P","StopName":"Whitestone Pond / Jack Straw's Castle","Latitude":51.562019,"Longitude":-0.179603,"Action":0},{"StopId":10049,"StopCode":"BP4172","PointLetter":"Q","StopName":"Hampstead Station","Latitude":51.557340,"Longitude":-0.178231,"Action":0},{"StopId":10161,"StopCode":"33806","PointLetter":"R","StopName":"Hampstead Station / Hampstead High St","Latitude":51.555925,"Longitude":-0.176918,"Action":0},{"StopId":10116,"StopCode":"33804","PointLetter":"S","StopName":"Pilgrim's Lane","Latitude":51.554946,"Longitude":-0.172918,"Action":0},{"StopId":320,"StopCode":"12058","PointLetter":"F","StopName":"Rosslyn Hill / Pond Street","Latitude":51.552268,"Longitude":-0.167269,"Action":0},{"StopId":368,"StopCode":"12060","PointLetter":"L","StopName":"Belsize Park Station","Latitude":51.550751,"Longitude":-0.165167,"Action":0},{"StopId":306,"StopCode":"BP2006","PointLetter":"","StopName":"Downside Crescent","Latitude":51.549867,"Longitude":-0.163789,"Action":0},{"StopId":280,"StopCode":"34953","PointLetter":"","StopName":"Upper Park Road","Latitude":51.548599,"Longitude":-0.161503,"Action":0},{"StopId":333,"StopCode":"37435","PointLetter":"","StopName":"Haverstock Hill / Steele's Village","Latitude":51.546445,"Longitude":-0.157177,"Action":0},{"StopId":314,"StopCode":"37436","PointLetter":"CD","StopName":"Chalk Farm Station","Latitude":51.544606,"Longitude":-0.154064,"Action":0},{"StopId":442,"StopCode":"11994","PointLetter":"CE","StopName":"Chalk Farm Road / Morrisons","Latitude":51.542855,"Longitude":-0.148496,"Action":0},{"StopId":358,"StopCode":"33259","PointLetter":"M","StopName":"Hawley Road","Latitude":51.542927,"Longitude":-0.143416,"Action":0},{"StopId":9439,"StopCode":"33096","PointLetter":"D","StopName":"Camden Gardens","Latitude":51.541963,"Longitude":-0.141019,"Action":0},{"StopId":935,"StopCode":"324","PointLetter":"S","StopName":"Camden Town Station","Latitude":51.539801,"Longitude":-0.141323,"Action":0},{"StopId":357,"StopCode":"36859","PointLetter":"W","StopName":"Pratt Street","Latitude":51.536963,"Longitude":-0.139304,"Action":0},{"StopId":267,"StopCode":"666","PointLetter":"G","StopName":"Mornington Crescent Station","Latitude":51.534037,"Longitude":-0.137982,"Action":0},{"StopId":373,"StopCode":"8343","PointLetter":"S","StopName":"Aldenham Street","Latitude":51.531009,"Longitude":-0.134732,"Action":0},{"StopId":315,"StopCode":"8341","PointLetter":"B","StopName":"Euston Station","Latitude":51.528501,"Longitude":-0.131966,"Action":0},{"StopId":923,"StopCode":"BP4524","PointLetter":"F","StopName":"Euston Bus Station","Latitude":51.527113,"Longitude":-0.132296,"Action":0},{"StopId":22,"StopCode":"672","PointLetter":"P","StopName":"Euston Square Station","Latitude":51.525813,"Longitude":-0.134858,"Action":0},{"StopId":254,"StopCode":"29674","PointLetter":"N","StopName":"University College Hospital","Latitude":51.524105,"Longitude":-0.134308,"Action":0},{"StopId":150,"StopCode":"BP2167","PointLetter":"C","StopName":"Torrington Place","Latitude":51.522916,"Longitude":-0.133016,"Action":0},{"StopId":76,"StopCode":"29676","PointLetter":"D","StopName":"Chenies Street","Latitude":51.521213,"Longitude":-0.131168,"Action":0},{"StopId":181,"StopCode":"29735","PointLetter":"R","StopName":"Great Russell Street","Latitude":51.518395,"Longitude":-0.128098,"Action":0},{"StopId":18068,"StopCode":"BP5172","PointLetter":"B","StopName":"Cambridge Circus","Latitude":51.513653,"Longitude":-0.128509,"Action":0},{"StopId":608,"StopCode":"7824","PointLetter":"J","StopName":"Leicester Square Station","Latitude":51.511618,"Longitude":-0.128304,"Action":0},{"StopId":595,"StopCode":"BP3536","PointLetter":"K","StopName":"St Martin's Place","Latitude":51.509858,"Longitude":-0.127901,"Action":0},{"StopId":588,"StopCode":"143","PointLetter":"D","StopName":"Trafalgar Square / Charing Cross Stn","Latitude":51.508189,"Longitude":-0.127047,"Action":0},{"StopId":3829,"StopCode":"152","PointLetter":"N","StopName":"Whitehall / Trafalgar Square","Latitude":51.506318,"Longitude":-0.127023,"Action":0}], "Routes" : [{"Id":1925,"Route":"N5","From":"Edgware Bus Station","Towards":"Whitehall / Trafalgar Square","Run":"1","IsDay":0,"encodedLevels":"PABFA?AC?H??ABA@D?@H@DB@AC?GB@E?@C?A@G?BEA@C@AB@I?AA@EB@BAE?@?G@B?@C@@CC@?@CIBAD@BA?D???BB@AID?CE?@C?BBAF@AA?B?E?CAI?@CB@ACA?E@AC?DB??@FAC?@A@BEAC?AH@C@C@?BAFB?C@AC??D?B?C@C@DH@C?AC@E?C?C?ADBAAC?@B@GB???@@ACA@F@@E?AJFAB@E???AE?A@B@F@@BG?D?@BDAG?CA?G@ACCG?A@@CAAABDB?B@DCCDP","encodedPoints":"er_zHtnt@_BpE?j@_BpE`BjBpAbA~AdAbD~CXd@bBjD`@i@xCcD|BkCjGaIbFqFvAkAjFiFfGqIrL}PbEqFwF}LmJqTsAgF[kBq@_GiAiFe@_AeAmBlLaDfAEZB@WLi@h@iBLSx@eAtCiFFSHa@XwDVua@c@AUKIMOe@k@gA]UB[HMD?HJj@zB^v@NFb@@B{@Jq@Pa@j@_@zGL|JT`@?dBBLnAPn@BFZNN\\Bd@K\\?dA|Mz^Jv@Ax@FrAFXdIjV~J}NbF_JzBsCr@w@zEgEhDeEfCgCtFaGfA}A~C}Ed@m@bEeGr@i@zLgRl@w@~A_DaBmF?A`Bi@Ge@UOqDaD_@c@eAgBkBkD_C}FeAcBeA}@C_E[_Ok@oNW{K?oAi@cIIsBo@yC_DcNo@_FQaEHUtCmK`@gAtCuHJKdDcGhDmHdBcHVu@Te@Xe@vDsEhFuFf@s@hFuI~D{GlAeC`E{IxE{Jj@cArA{DrAsGPsAr@oHxAsLd@eG|A_OhAiFfAcEhBkEvBqDTW|CyG~A{BPMrCy@TOb@e@j@aAt@uAvBeCXMjJ{BxBmA@E^HrA?v@KrBw@tDcBrCiA`AKX?RFtEZ\\ObCk@d@Np@`@`A{AZ{@jBmHV_CvAaKn@mDh@kBrD{KtFkNN[rB{CvGoK`DyG|DqIjCqEdEeJdAiDr@iDrAmDZs@~BuDbC_Fl@uAhAuDxBwIRyA@]FS`@gDASH{@zAyI|@yC`AsBPUI_@qAoBcC}EJwDT_GLYnLiJbAdDhBhEHDNAhA_A`HwGr@k@tFgFrGqFF?HH^`CPj@HDRAxJ}KpHcI~KkMlEwDfApDDHJ@TARE|@cAxEjSt@lBlHcIt`@sc@xEgEpGgFp@e@Ff@PPTjAxGpFvDvFLQTKHBp@YlGiBTFNGVHxBCfAUdAu@JMn@_BTU^M~Hk@n@`AlBBhDwA","Color":"993333","hasRunTwo":1,"startPoint":{"Latitude":51.612674,"Longitude":-0.273865},"endPoint":{"Latitude":51.506011,"Longitude":-0.127001}},{"Id":6174,"Route":"5","From":"Romford Market","Towards":"Canning Town Station","Run":"1","IsDay":1,"encodedLevels":"P@BA?F?B@?@B?@DB@??GAB@B??AAGB@@CB?EBE@C@B??F@B?C?FBA@?E@B?D@IC@??F?@B@BA?AE?ADA?C@F@?B@BA?AD?@H@DAAAA@@A@D@BAE@@G?AA@GBAC@?B?@B?E@B@A@H?AAB??E@@AD@?B@B@@@EAB@AF@C@FA?CABG??BBA?B?E@A@D@BF@@A@AC@D@??@@??AAAG??AC@@EC??B???EC@BD?B?@?BAEAP","encodedPoints":"ejyyH}mb@PwDL}FUoABa@BGLSFEPBXNLNPDPBTAXIxFyF\\c@Zm@?EV]RDLV?f@EHFRl@jA\\~@B^bDpJn@u@HEXB^IlAoANu@FG\\Cp@hC^YjC_AZ?lFy@T?R@tD?\\Sf@k@Zs@|EeJVMf@KfEa@nCTdDBj@C|A?LDP^BpADZz@BxBZUdg@PbJh@|NFfCd@nNLjA`E`YjBnNj@tHhAjL`@`BdA`LP`CfA|HLd@fB|If@vANFxACDBPRLh@?XCXIRMNQBQ|Be@vCWbAg@lFAXBzATdERl@NhAr@E`@Nr@@DGV?DHbBJDGT@l@T~Cl@lGxBh@\\BN`DlEnHxKPf@VnAbDzUlBvJlBnLPxF~AjO`@pHJhDBrGJnDJ`DZvEn@dNFhDFpIaAxOQ`F]hNuAdb@?^Hr@JX|@`BFAtF|HTb@bAbCTn@^zAL|@dDpPdAfEhAdD~B|Fn@jBrCrJzBlItEvN`BrEhFrP~BvGzCzEjEzI\\\\fHrJr@xAk@zAkBrGFh@Nd@NPHBNCZe@jDwBDTBl@l@jHv@~LLpHSj@CNAj@D`@\\nBTj@fD~MHJtCxJXXr@~@fHrPB\\Ed@TvFAlCI`APnGn@vMpApRdAhKH`A?f@Dj@HTb@bFnC`XfFzi@dAvMBtBx@|GnB|DtEpIxEbJtElH|EfKhGzLzDtIbAlF^`Az@rBrEjL`GvPTt@zNvb@tDpKd@`@PWh@c@VBXj@J^BL?b@Ad@ENTNFl@VAhBgB","Color":"663366","hasRunTwo":1,"startPoint":{"Latitude":51.580677,"Longitude":0.181600},"endPoint":{"Latitude":51.514468,"Longitude":0.008118}}]}


