{"Stops" : [{"StopId":2150,"StopCode":"BP3509","PointLetter":"B","StopName":"Trafalgar Square","Latitude":51.507593,"Longitude":-0.129132,"Action":0},{"StopId":3089,"StopCode":"BP3506","PointLetter":"F","StopName":"Trafalgar Square / Charing Cross Stn","Latitude":51.508292,"Longitude":-0.126178,"Action":0},{"StopId":2233,"StopCode":"7853","PointLetter":"A","StopName":"Southampton Street / Covent Garden","Latitude":51.510366,"Longitude":-0.122043,"Action":0},{"StopId":11,"StopCode":"14628","PointLetter":"D","StopName":"Aldwych","Latitude":51.512368,"Longitude":-0.118978,"Action":0},{"StopId":10067,"StopCode":"20438","PointLetter":"L","StopName":"The Royal Courts Of Justice","Latitude":51.513196,"Longitude":-0.114577,"Action":0},{"StopId":201,"StopCode":"3177","PointLetter":"","StopName":"Fetter Lane","Latitude":51.514253,"Longitude":-0.108725,"Action":0},{"StopId":165,"StopCode":"969","PointLetter":"E","StopName":"Ludgate Circus","Latitude":51.514251,"Longitude":-0.105280,"Action":0},{"StopId":259,"StopCode":"14501","PointLetter":"G","StopName":"Ludgate Hill / Old Bailey","Latitude":51.513953,"Longitude":-0.101862,"Action":0},{"StopId":172,"StopCode":"8601","PointLetter":"SK","StopName":"St Paul's Cathedral","Latitude":51.513192,"Longitude":-0.097599,"Action":0},{"StopId":207,"StopCode":"8551","PointLetter":"ME","StopName":"Mansion House Station","Latitude":51.512671,"Longitude":-0.094854,"Action":0},{"StopId":122,"StopCode":"4770","PointLetter":"MD","StopName":"Bank Station  / Queen Victoria Street","Latitude":51.512925,"Longitude":-0.091716,"Action":0},{"StopId":18753,"StopCode":"8558","PointLetter":"D","StopName":"Bank Station  / Cornhill","Latitude":51.513379,"Longitude":-0.087560,"Action":0},{"StopId":18747,"StopCode":"8560","PointLetter":"R","StopName":"Bishopsgate","Latitude":51.513454,"Longitude":-0.084948,"Action":0},{"StopId":18721,"StopCode":"8578","PointLetter":"LR","StopName":"St Mary Axe","Latitude":51.513525,"Longitude":-0.082711,"Action":0},{"StopId":18765,"StopCode":"35484","PointLetter":"X","StopName":"St Katharine Cree","Latitude":51.513325,"Longitude":-0.078728,"Action":0},{"StopId":781,"StopCode":"34190","PointLetter":"B","StopName":"St Botolph Street","Latitude":51.514947,"Longitude":-0.075128,"Action":0},{"StopId":790,"StopCode":"8583","PointLetter":"H","StopName":"Aldgate Bus Station","Latitude":51.513284,"Longitude":-0.075703,"Action":0},{"StopId":3146,"StopCode":"8585","PointLetter":"K","StopName":"Crosswall","Latitude":51.512083,"Longitude":-0.075379,"Action":0},{"StopId":3230,"StopCode":"4829","PointLetter":"TE","StopName":"Tower Hill / Tower Gateway Station","Latitude":51.509823,"Longitude":-0.073038,"Action":0},{"StopId":19226,"StopCode":"37139","PointLetter":"TS","StopName":"St Katharine Docks","Latitude":51.508480,"Longitude":-0.071769,"Action":0},{"StopId":19532,"StopCode":"BP5191","PointLetter":"","StopName":"Wellclose Street","Latitude":51.509377,"Longitude":-0.064540,"Action":0},{"StopId":19598,"StopCode":"LE140","PointLetter":"N","StopName":"Tobacco Dock","Latitude":51.509628,"Longitude":-0.059543,"Action":0},{"StopId":19222,"StopCode":"33583","PointLetter":"","StopName":"St Paul's Church","Latitude":51.509756,"Longitude":-0.052649,"Action":0},{"StopId":16934,"StopCode":"LE225","PointLetter":"LP","StopName":"Free Trade Wharf","Latitude":51.510215,"Longitude":-0.046202,"Action":0},{"StopId":16821,"StopCode":"BP2354","PointLetter":"LR","StopName":"Cable Street","Latitude":51.511382,"Longitude":-0.042290,"Action":0},{"StopId":15679,"StopCode":"886","PointLetter":"LB","StopName":"Limehouse Station","Latitude":51.512865,"Longitude":-0.040108,"Action":0},{"StopId":15426,"StopCode":"1868","PointLetter":"LC","StopName":"Lowell Street","Latitude":51.512595,"Longitude":-0.034686,"Action":0},{"StopId":15425,"StopCode":"1869","PointLetter":"LD","StopName":"Salmon Lane","Latitude":51.512507,"Longitude":-0.032701,"Action":0},{"StopId":15493,"StopCode":"887","PointLetter":"LE","StopName":"Burdett Road","Latitude":51.512451,"Longitude":-0.029878,"Action":0},{"StopId":15202,"StopCode":"BP755","PointLetter":"WS","StopName":"Urban Learning Foundation","Latitude":51.511450,"Longitude":-0.024906,"Action":0},{"StopId":15306,"StopCode":"R0382","PointLetter":"C","StopName":"Upper North Street","Latitude":51.510973,"Longitude":-0.021655,"Action":0},{"StopId":15190,"StopCode":"1872","PointLetter":"D","StopName":"Poplar Recreation Ground / Poplar Stn","Latitude":51.511034,"Longitude":-0.017834,"Action":0},{"StopId":15307,"StopCode":"869","PointLetter":"B","StopName":"Chrisp Street Market","Latitude":51.511200,"Longitude":-0.014872,"Action":0},{"StopId":15376,"StopCode":"BP1234","PointLetter":"C","StopName":"Bazely Street","Latitude":51.511358,"Longitude":-0.011478,"Action":0},{"StopId":15564,"StopCode":"13517","PointLetter":"E","StopName":"Brunswick Road","Latitude":51.511856,"Longitude":-0.005865,"Action":0},{"StopId":15338,"StopCode":"27683","PointLetter":"F","StopName":"Nutmeg Lane","Latitude":51.512235,"Longitude":-0.003802,"Action":0},{"StopId":15593,"StopCode":"876","PointLetter":"","StopName":"Abbott Road","Latitude":51.512763,"Longitude":-0.001011,"Action":0},{"StopId":14031,"StopCode":"BP4281","PointLetter":"H","StopName":"Stephenson Street","Latitude":51.515167,"Longitude":0.005666,"Action":0},{"StopId":16097,"StopCode":"BP2278","PointLetter":"B","StopName":"Canning Town Bus Station","Latitude":51.513916,"Longitude":0.008868,"Action":0},{"StopId":16314,"StopCode":"35910","PointLetter":"","StopName":"Shirley Street","Latitude":51.513521,"Longitude":0.011993,"Action":0},{"StopId":16313,"StopCode":"35911","PointLetter":"","StopName":"Rogers Road","Latitude":51.513698,"Longitude":0.015258,"Action":0},{"StopId":16483,"StopCode":"35274","PointLetter":"","StopName":"Keir Hardie Estate","Latitude":51.512520,"Longitude":0.014744,"Action":0},{"StopId":16352,"StopCode":"35328","PointLetter":"","StopName":"Tarling Road","Latitude":51.511262,"Longitude":0.014689,"Action":0},{"StopId":16495,"StopCode":"R0708","PointLetter":"N","StopName":"The Appleby Centre","Latitude":51.510942,"Longitude":0.017586,"Action":0},{"StopId":16411,"StopCode":"FC29","PointLetter":"D","StopName":"Custom House Station","Latitude":51.509982,"Longitude":0.025282,"Action":0},{"StopId":16558,"StopCode":"BP728","PointLetter":"B","StopName":"Custom House Station","Latitude":51.510011,"Longitude":0.028281,"Action":0},{"StopId":16319,"StopCode":"8186","PointLetter":"K","StopName":"Prince Regent Station","Latitude":51.509975,"Longitude":0.032992,"Action":0},{"StopId":16451,"StopCode":"8123","PointLetter":"L","StopName":"Victoria Dock Road","Latitude":51.510229,"Longitude":0.033883,"Action":0},{"StopId":16192,"StopCode":"35038","PointLetter":"P","StopName":"Tree Road","Latitude":51.512372,"Longitude":0.032177,"Action":0},{"StopId":15945,"StopCode":"BP4485","PointLetter":"S","StopName":"Newham Way","Latitude":51.515177,"Longitude":0.031696,"Action":0},{"StopId":15647,"StopCode":"36819","PointLetter":"H","StopName":"Colman Road","Latitude":51.516982,"Longitude":0.035481,"Action":0},{"StopId":15551,"StopCode":"36818","PointLetter":"J","StopName":"Beckton School","Latitude":51.516827,"Longitude":0.039207,"Action":0},{"StopId":15646,"StopCode":"36830","PointLetter":"CA","StopName":"Beckton District Park","Latitude":51.516599,"Longitude":0.044068,"Action":0},{"StopId":15645,"StopCode":"36831","PointLetter":"BA","StopName":"Dove Approach","Latitude":51.516493,"Longitude":0.046543,"Action":0},{"StopId":15721,"StopCode":"36833","PointLetter":"BB","StopName":"Swallow Street","Latitude":51.516187,"Longitude":0.053231,"Action":0},{"StopId":15460,"StopCode":"LE215","PointLetter":"BC","StopName":"Kingsford Way","Latitude":51.516015,"Longitude":0.056394,"Action":0},{"StopId":19491,"StopCode":"BP5195","PointLetter":"B","StopName":"Beckton Bus Station","Latitude":51.513892,"Longitude":0.058979,"Action":0},{"StopId":3462,"StopCode":"37125","PointLetter":"H","StopName":"Beckton Station","Latitude":51.513695,"Longitude":0.060988,"Action":0},{"StopId":21389,"StopCode":"91521","PointLetter":"G","StopName":"Covelees Wall","Latitude":51.512091,"Longitude":0.064764,"Action":0},{"StopId":15377,"StopCode":"BP093","PointLetter":"A","StopName":"Horse Leaze","Latitude":51.511833,"Longitude":0.067130,"Action":0},{"StopId":14258,"StopCode":"BP770","PointLetter":"B","StopName":"Gallions Reach Roundabout","Latitude":51.509703,"Longitude":0.069628,"Action":0},{"StopId":16735,"StopCode":"BP5108","PointLetter":"C","StopName":"Gallions Reach Station","Latitude":51.508461,"Longitude":0.073232,"Action":0},{"StopId":20258,"StopCode":"BP5354","PointLetter":"G","StopName":"Armada Point","Latitude":51.509870,"Longitude":0.074910,"Action":0},{"StopId":20737,"StopCode":"BP5372","PointLetter":"","StopName":"Beckton Dlr Depot","Latitude":51.512749,"Longitude":0.080936,"Action":0},{"StopId":15708,"StopCode":"BP4624","PointLetter":"AP","StopName":"Gallions Reach Shopping Park","Latitude":51.516506,"Longitude":0.079521,"Action":0}], "Routes" : [{"Id":8158,"Route":"N551","From":"Trafalgar Square","Towards":"Gallions Reach Shopping Park","Run":"1","IsDay":0,"encodedLevels":"P@?@CA??EAA@@C@?EBAD@AF@B??D??@?A?H@D??BBB@AF@?AE@A?C@AE?@D@@B@BD?@HCA@E@EB@FBAF@C??AFAB@HAA@EAC@AB?AB@?D@A@FEC?B@@GAA??@?D?CF??B?A@B@G?E?AAD???CBB?@H@?CBE@B@BABEACAC?FA?@DB?F?AAAD?B?GC?@CF@A?CGA?C?BA@H@B@B?FABF@@??HAAC?B@D?BACA@?AAAA?BA?@?A??G@AAEAG@AB@CAE@BD@B?@C@B?B?E@BDA@B@F@BABBBE@@B??AC?@H@DABE@B?DAAB@@G@BF?@BF@P","encodedPoints":"uakyHrkXTeEC_@@o@JqBSWEYAMc@yB_C{Fg@u@Ss@gCeGeC}G}@uCiCoJ{@oDwBUsAe@u@o@_@k@g@qAe@uBOoBAmBJ{AFa@RcDMgAI]WsBA[}AmNQyBy@uKCgENeV\\kFLuAn@mJb@w@r@iK`@{B`BeOZaGu@cGuA_Ii@eDGgADsHDMGaJYiZLmGPeCFeKG_@i@}BIOKISCWBQPk@JMQGQm@sCkAuGl@gAVMR@RFNZlBjIzBeAtAQpG{ARq@A_DRgGn@IbBAHB^VdEzBPG\\UZgAbB_I@WEgAcBaNe@wBeA_JJkHMoTo@kNGKMuI?a@RmG?cF[_VEeJ?oCWcFOy@aA_NA}@cAwI_Eg@wAy@oCyAGI@KESVqNJUZ}SDyBPqODg@NwLv@yEbAyGnDod@EsCk@kXW}Oa@_NAgAk@kLGWCcGDa@wCoXiByOQq@c@eA}DqI{@kCSkAYcCiAkHe@sDyAuGq@UIOISA_@@g@BQJUjAoAVBXj@Nl@AhAENTNFl@VAhBgBxCcEK_@Ho@TO~D_DgAiCKQaAgAQ_@o@mQ@k@TaDRHrAhAzAdBx@tAfAx@r@PL?XCfAWe@uG\\wBb@wBXaCa@mGFE\\@\\PjA^vC{@YkH_@sQOoKKsV?}GDaJP_HNwBuAn@aF|Cq@p@}G|Ec@N{@PmD?mDUuJuACo@DMKuCIkACsAHUVEL]n@ua@LkELmAVmAKq@MkBn@}`@IYJIF}CBaFCABa@F?LqHKQ?GLI?mALqHf@cS\\_P?[GgA?k@BGNGxA@jEYEl@~@`KI@KEIQ]sBYeDR]HaB~@GZM`DyBTi@R{@GSASDYFMNAF@JNZo@To@\\kBPoBd@aQZcBpAaE\\s@E[Ha@NERHXWnFgCnAEzAw@H_@FWCe@BeAHa@Ti@V}@Fs@@{@GiFDqHsBC}AOeAk@q@o@g@cAa@uAOkA_AgTG[EOMFk@[AQi@sAOOe@OaHiAcFeBGBQXMX}BnMgEuA}Aa@","Color":"993333","hasRunTwo":1,"startPoint":{"Latitude":51.507633,"Longitude":-0.130019},"endPoint":{"Latitude":51.516559,"Longitude":0.079585}}]}


