{"Stops" : [{"StopId":8371,"StopCode":"BP2417","PointLetter":"B","StopName":"Crystal Palace Parade","Latitude":51.421787,"Longitude":-0.077650,"Action":0},{"StopId":10858,"StopCode":"17839","PointLetter":"V","StopName":"Crystal Palace Parade / College Road","Latitude":51.424608,"Longitude":-0.075834,"Action":0},{"StopId":10713,"StopCode":"27731","PointLetter":"F","StopName":"Westwood Hill","Latitude":51.427046,"Longitude":-0.074236,"Action":0},{"StopId":10868,"StopCode":"27729","PointLetter":"G","StopName":"Dome Hill Park","Latitude":51.429783,"Longitude":-0.074970,"Action":0},{"StopId":10836,"StopCode":"27727","PointLetter":"H","StopName":"Wells Park Road","Latitude":51.431858,"Longitude":-0.073214,"Action":0},{"StopId":10959,"StopCode":"27725","PointLetter":"","StopName":"Droitwich Close","Latitude":51.432794,"Longitude":-0.069405,"Action":0},{"StopId":10958,"StopCode":"27723","PointLetter":"MU","StopName":"Crescent Wood Road","Latitude":51.434035,"Longitude":-0.066705,"Action":0},{"StopId":10717,"StopCode":"27721","PointLetter":"MV","StopName":"Sydenham Hill / Kirkdale","Latitude":51.437117,"Longitude":-0.064403,"Action":0},{"StopId":10718,"StopCode":"27719","PointLetter":"MQ","StopName":"Horniman Park","Latitude":51.440331,"Longitude":-0.064022,"Action":0},{"StopId":6856,"StopCode":"2016","PointLetter":"MJ","StopName":"Lordship Lane / Wood Vale","Latitude":51.441790,"Longitude":-0.065817,"Action":0},{"StopId":10834,"StopCode":"27717","PointLetter":"MB","StopName":"Underhill Road / Melford Road","Latitude":51.444069,"Longitude":-0.066022,"Action":0},{"StopId":10867,"StopCode":"27715","PointLetter":"E","StopName":"Melford Road","Latitude":51.445107,"Longitude":-0.063576,"Action":0},{"StopId":10721,"StopCode":"27713","PointLetter":"F","StopName":"Langton Rise","Latitude":51.447751,"Longitude":-0.061924,"Action":0},{"StopId":10722,"StopCode":"27712","PointLetter":"G","StopName":"Wood Vale / Forest Hill Road","Latitude":51.449981,"Longitude":-0.058116,"Action":0},{"StopId":10723,"StopCode":"27711","PointLetter":"H","StopName":"Forest Hill Tavern","Latitude":51.451346,"Longitude":-0.059080,"Action":0},{"StopId":10978,"StopCode":"13742","PointLetter":"WA","StopName":"Dunstans Road","Latitude":51.454214,"Longitude":-0.062830,"Action":0},{"StopId":10854,"StopCode":"13740","PointLetter":"WB","StopName":"Friern Road","Latitude":51.456494,"Longitude":-0.064231,"Action":0},{"StopId":7296,"StopCode":"13736","PointLetter":"WE","StopName":"Peckham Rye / Barry Road","Latitude":51.459485,"Longitude":-0.066163,"Action":0},{"StopId":7202,"StopCode":"9473","PointLetter":"WF","StopName":"The Gardens","Latitude":51.460819,"Longitude":-0.066366,"Action":0},{"StopId":3014,"StopCode":"1492","PointLetter":"WK","StopName":"Peckham Rye / East Dulwich Road","Latitude":51.462875,"Longitude":-0.066696,"Action":0},{"StopId":3262,"StopCode":"1727","PointLetter":"WM","StopName":"Nigel Road","Latitude":51.465902,"Longitude":-0.066467,"Action":0},{"StopId":3127,"StopCode":"13782","PointLetter":"X","StopName":"Heaton Road","Latitude":51.467956,"Longitude":-0.067216,"Action":0},{"StopId":3140,"StopCode":"13780","PointLetter":"U","StopName":"Peckham Rye Station","Latitude":51.470403,"Longitude":-0.068926,"Action":0},{"StopId":3106,"StopCode":"33440","PointLetter":"M","StopName":"The Aylesham Centre","Latitude":51.472221,"Longitude":-0.067914,"Action":0},{"StopId":3151,"StopCode":"445","PointLetter":"C","StopName":"Peckham Library","Latitude":51.474910,"Longitude":-0.069039,"Action":0},{"StopId":3244,"StopCode":"13772","PointLetter":"H","StopName":"Bonar Road","Latitude":51.475932,"Longitude":-0.069399,"Action":0},{"StopId":10857,"StopCode":"13770","PointLetter":"J","StopName":"Commercial Way","Latitude":51.477312,"Longitude":-0.070161,"Action":0},{"StopId":10856,"StopCode":"13768","PointLetter":"K","StopName":"Bird In Bush Road","Latitude":51.479027,"Longitude":-0.071083,"Action":0},{"StopId":10963,"StopCode":"13766","PointLetter":"U","StopName":"St George's Way","Latitude":51.481972,"Longitude":-0.074098,"Action":0},{"StopId":10964,"StopCode":"13764","PointLetter":"V","StopName":"Waite Street","Latitude":51.484788,"Longitude":-0.074167,"Action":0},{"StopId":10936,"StopCode":"R0467","PointLetter":"NL","StopName":"Nile Terrace","Latitude":51.486459,"Longitude":-0.074082,"Action":0},{"StopId":364,"StopCode":"23105","PointLetter":"WN","StopName":"Dunton Road","Latitude":51.488585,"Longitude":-0.077564,"Action":0},{"StopId":341,"StopCode":"2554","PointLetter":"F","StopName":"Old Kent Road / East Street","Latitude":51.491458,"Longitude":-0.082269,"Action":0},{"StopId":330,"StopCode":"26743","PointLetter":"BQ","StopName":"Bricklayer's Arms","Latitude":51.493610,"Longitude":-0.085161,"Action":0},{"StopId":413,"StopCode":"34288","PointLetter":"BS","StopName":"Bricklayer's Arms / New Kent Road","Latitude":51.494034,"Longitude":-0.090214,"Action":0},{"StopId":414,"StopCode":"2573","PointLetter":"BT","StopName":"Rodney Place","Latitude":51.494170,"Longitude":-0.094675,"Action":0},{"StopId":14294,"StopCode":"33627","PointLetter":"N","StopName":"Elephant & Castle / New Kent Road","Latitude":51.494919,"Longitude":-0.098721,"Action":0},{"StopId":10889,"StopCode":"BP3719","PointLetter":"B","StopName":"Elephant & Castle / London Road","Latitude":51.495888,"Longitude":-0.101374,"Action":0},{"StopId":10782,"StopCode":"2589","PointLetter":"U","StopName":"St George's Circus","Latitude":51.499937,"Longitude":-0.104837,"Action":0},{"StopId":10817,"StopCode":"2588","PointLetter":"V","StopName":"Pocock Street","Latitude":51.502031,"Longitude":-0.104750,"Action":0},{"StopId":10816,"StopCode":"2585","PointLetter":"SA","StopName":"Southwark Station","Latitude":51.504304,"Longitude":-0.104641,"Action":0},{"StopId":10822,"StopCode":"26755","PointLetter":"SD","StopName":"Stamford Street","Latitude":51.506578,"Longitude":-0.104590,"Action":0},{"StopId":10838,"StopCode":"37637","PointLetter":"C","StopName":"Blackfriars Station / South  Entrance","Latitude":51.508800,"Longitude":-0.104598,"Action":0},{"StopId":10906,"StopCode":"538","PointLetter":"J","StopName":"Blackfriars Station / North Entrance","Latitude":51.512743,"Longitude":-0.104319,"Action":0},{"StopId":9362,"StopCode":"205","PointLetter":"M","StopName":"Fleet Street / City Thameslink","Latitude":51.515088,"Longitude":-0.104726,"Action":0},{"StopId":9332,"StopCode":"34453","PointLetter":"HN","StopName":"Stonecutter Street","Latitude":51.516270,"Longitude":-0.104994,"Action":0},{"StopId":9395,"StopCode":"8561","PointLetter":"HS","StopName":"Snow Hill","Latitude":51.518022,"Longitude":-0.105412,"Action":0},{"StopId":10802,"StopCode":"9930","PointLetter":"A","StopName":"Farringdon Station","Latitude":51.520523,"Longitude":-0.106043,"Action":0},{"StopId":10938,"StopCode":"8415","PointLetter":"C","StopName":"Clerkenwell Road","Latitude":51.521749,"Longitude":-0.106771,"Action":0},{"StopId":10844,"StopCode":"617","PointLetter":"CM","StopName":"Rosebery Avenue / Mount Pleasant","Latitude":51.524288,"Longitude":-0.109750,"Action":0},{"StopId":10869,"StopCode":"8380","PointLetter":"PS","StopName":"Calthorpe Street","Latitude":51.526085,"Longitude":-0.112487,"Action":0},{"StopId":10931,"StopCode":"BP3403","PointLetter":"PT","StopName":"Gwynne Place","Latitude":51.527358,"Longitude":-0.115029,"Action":0},{"StopId":10901,"StopCode":"29902","PointLetter":"PU","StopName":"Acton Street","Latitude":51.528653,"Longitude":-0.116677,"Action":0},{"StopId":9544,"StopCode":"12332","PointLetter":"N","StopName":"Swinton Street","Latitude":51.529247,"Longitude":-0.120098,"Action":0},{"StopId":3264,"StopCode":"18866","PointLetter":"G","StopName":"King's Cross Stn   / York Way","Latitude":51.531284,"Longitude":-0.122653,"Action":0}], "Routes" : [{"Id":10661,"Route":"63","From":"Forest Hill Tavern","Towards":"King's Cross Stn   / York Way","Run":"1","IsDay":1,"encodedLevels":"P?@@E@?A?@GA?E?AAC?@FABC@?@BGBF?G@?A@BF@@C?@EA?@BG?@@?B?I?B@@D@B?AG??C?A?AC?@@ACA@C@I?@BAE?BAA?G@?C?CB?A@C@@DAACF??A?AAACB@H@BADACBAB?D@EAF??DADP","encodedPoints":"ya`yHxoJqFvH}AbC_FzGa@^{BvAgG~CeAl@_F`D{@l@_FvCaBHkLpA}B\\[AaCSuGCqG]OEYSqC{@YPaCjDoBtAgDjBgG|Da@ZuEpCy@BQCsAkXgBB_E??nFCr@GjELb@@TUh@ULoB^wGlBoEpByIvDoBbAm@l@_@r@Yv@mCdFsCjDODY@}HAqFJwC@uEKiCKi@bBmCrHa@v@mElKeEtImAzBcEzG_GdIgCdDiAxB@LQbA_AhIAjBAjXAh@I`@MxPMjAGbAIPiBpO_@tEHx@v@|B@TCd@i@xAKDK?a@I}@k@CUmGxIyCxDoCnEOp@[ZGDSGSQu@W{S[yOSKNwHIe@CuHBcMQ]Ho@\\WBs@WSc@YEuFUoCXaANsI~@EJGFe@FUIyHdAuKfBwAZyDtAu@^iD`CeDjD}@pA{CfFuE|GaEjIw@tCqBdFyAdCa@j@YRoEpA|@bHx@fJSLmJnHGJa@p@gBfH_DC","Color":"993333","hasRunTwo":1,"startPoint":{"Latitude":51.451337,"Longitude":-0.059004},"endPoint":{"Latitude":51.531740,"Longitude":-0.122557}},{"Id":4382,"Route":"N63","From":"Crystal Palace Parade","Towards":"King's Cross Stn   / York Way","Run":"1","IsDay":0,"encodedLevels":"P?AAAA?D?@AF@ABEBAG@@E?B?AD@AE?B@DA?H@?@A@E@AA@@C@?E@CGA@F@B@CAE@B@BI@B?@AE@A??HA?E?AAC?@FABC@?@BGBF?J@?A@BF@@C?@EA?@BG?@@?B?H?B@@D@B?AF??C?A?AD?@@ADAB@GAD?BAD?BA@I@A@C?CB?A@C@@DAACF??A?AAACB@H@BADACBAB?D@EAF??DADP","encodedPoints":"_gzxHdeN_DcBqI}EKDUKASa@ScIqECKSWBQ}@eCiAVaErAy@p@_EhAaBQ{Bs@e@]iKcJE@U[WoAOaA?qAUgIWqBc@{AcAuCoDkIo@aASQyBuAmJ}E}AaCOm@IOQCg@HeF^}@BgHv@YLUz@DL]vAG@OXANk@p@CA_EnEQe@OMaJi@PwBHeE?_Cq@CuCk@eBi@qB{@eBcA_E}CcAwAeAsByA}DaCyFuCuEQf@_BnCOPkE`GmKbO{A|A}A`AoFnCgGtDu@h@{GdEaBHkLpA}B\\[AaCSuGCqG]OEYSqC{@YPaCjDoBtAgDjBgG|Da@ZuEpCy@BQCsAkXgBB_E??nFCr@GjELb@@TUh@ULoB^wGlBoEpByIvDoBbAm@l@_@r@Yv@mCdFsCjDODY@}HAqFJwC@uEKiCKi@bBmCrHa@v@mElKeEtImAzBcEzG_GdIgCdDiAxB@LQbA_AhIAjBAjXAh@I`@MxPMjAGbAIPiBpO_@tEHx@v@|B@ZC^i@xAKDK?a@I}@k@CUmGxIyCxDoCnEOp@[ZGDSGSQu@W{S[yOSKNwHIe@CuHBcMQ]Ho@\\WBs@WSc@YEuFUoCXaANsI~@EJGFe@FUIyHdAuKfBwAZyDtAu@^iD`CeDjD}@pA{CfFuE|GaEjIw@tCqBdFyAdCa@j@YRoEpA|@bHx@fJSLmJnHGJa@p@gBfH_DC","Color":"663366","hasRunTwo":1,"startPoint":{"Latitude":51.421446,"Longitude":-0.077784},"endPoint":{"Latitude":51.531740,"Longitude":-0.122557}}]}


