{"Stops" : [{"StopId":5329,"StopCode":"18221","PointLetter":"B","StopName":"Northolt Station","Latitude":51.548477,"Longitude":-0.367385,"Action":0},{"StopId":5523,"StopCode":"16142","PointLetter":"D","StopName":"Moat Farm Road","Latitude":51.546467,"Longitude":-0.370212,"Action":0},{"StopId":5427,"StopCode":"16144","PointLetter":"TA","StopName":"Kingston Close","Latitude":51.544043,"Longitude":-0.374438,"Action":0},{"StopId":5301,"StopCode":"16146","PointLetter":"TB","StopName":"Sycamore Close","Latitude":51.540661,"Longitude":-0.382129,"Action":0},{"StopId":5443,"StopCode":"16148","PointLetter":"TC","StopName":"Bengarth Road / Northolt Library","Latitude":51.539612,"Longitude":-0.384315,"Action":0},{"StopId":5497,"StopCode":"37263","PointLetter":"X","StopName":"Yeading / White Hart","Latitude":51.536823,"Longitude":-0.389446,"Action":0},{"StopId":5430,"StopCode":"15785","PointLetter":"Y","StopName":"Church Road","Latitude":51.535018,"Longitude":-0.389019,"Action":0},{"StopId":5513,"StopCode":"14889","PointLetter":"","StopName":"Wayfarer Road","Latitude":51.533243,"Longitude":-0.384814,"Action":0},{"StopId":5349,"StopCode":"20494","PointLetter":"WE","StopName":"Broadmead Road","Latitude":51.532937,"Longitude":-0.378279,"Action":0},{"StopId":5458,"StopCode":"15787","PointLetter":"WF","StopName":"Adrienne Avenue","Latitude":51.532754,"Longitude":-0.372864,"Action":0},{"StopId":5403,"StopCode":"15789","PointLetter":"EG","StopName":"Greenford High School","Latitude":51.532382,"Longitude":-0.368062,"Action":0},{"StopId":4611,"StopCode":"15791","PointLetter":"EH","StopName":"Eastmead Avenue","Latitude":51.529937,"Longitude":-0.363594,"Action":0},{"StopId":4865,"StopCode":"15300","PointLetter":"H","StopName":"Pembroke Road","Latitude":51.528717,"Longitude":-0.359327,"Action":0},{"StopId":4721,"StopCode":"2031","PointLetter":"J","StopName":"Greenford Broadway","Latitude":51.528032,"Longitude":-0.354046,"Action":0},{"StopId":7753,"StopCode":"33862","PointLetter":"L","StopName":"Clifton Road","Latitude":51.527481,"Longitude":-0.350721,"Action":0},{"StopId":7458,"StopCode":"17025","PointLetter":"RS","StopName":"Greenford Avenue","Latitude":51.527393,"Longitude":-0.341916,"Action":0},{"StopId":7422,"StopCode":"17026","PointLetter":"RT","StopName":"Cuckoo Avenue","Latitude":51.527751,"Longitude":-0.338601,"Action":0},{"StopId":7362,"StopCode":"25078","PointLetter":"RW","StopName":"Gurnell Leisure Centre","Latitude":51.528649,"Longitude":-0.331519,"Action":0},{"StopId":7828,"StopCode":"15678","PointLetter":"AA","StopName":"Ruislip Road East","Latitude":51.527999,"Longitude":-0.326353,"Action":0},{"StopId":7827,"StopCode":"15681","PointLetter":"AB","StopName":"Scotch Common","Latitude":51.524937,"Longitude":-0.324101,"Action":0},{"StopId":7462,"StopCode":"20387","PointLetter":"SC","StopName":"Kent Gardens","Latitude":51.525091,"Longitude":-0.319136,"Action":0},{"StopId":7420,"StopCode":"20385","PointLetter":"SM","StopName":"Pitshanger Library","Latitude":51.526130,"Longitude":-0.313836,"Action":0},{"StopId":7625,"StopCode":"20383","PointLetter":"SN","StopName":"St Barnabas Church","Latitude":51.526946,"Longitude":-0.309337,"Action":0},{"StopId":7832,"StopCode":"20380","PointLetter":"SP","StopName":"Fairlea Place","Latitude":51.523873,"Longitude":-0.308254,"Action":0},{"StopId":3568,"StopCode":"10580","PointLetter":"SQ","StopName":"Montpelier Road","Latitude":51.521547,"Longitude":-0.306582,"Action":0},{"StopId":3572,"StopCode":"15689","PointLetter":"SR","StopName":"Marchwood Crescent","Latitude":51.520272,"Longitude":-0.306082,"Action":0},{"StopId":3446,"StopCode":"15691","PointLetter":"ST","StopName":"Castlebar Road","Latitude":51.516768,"Longitude":-0.306327,"Action":0},{"StopId":8206,"StopCode":"BP1008","PointLetter":"A","StopName":"Ealing Broadway Station   / Haven Green","Latitude":51.515548,"Longitude":-0.302164,"Action":0},{"StopId":8203,"StopCode":"34028","PointLetter":"G","StopName":"Ealing Broadway Station","Latitude":51.514340,"Longitude":-0.301921,"Action":0},{"StopId":5469,"StopCode":"20519","PointLetter":"EM","StopName":"North Common Road","Latitude":51.513208,"Longitude":-0.297019,"Action":0},{"StopId":6334,"StopCode":"3053","PointLetter":"EN","StopName":"Hanger Lane","Latitude":51.511912,"Longitude":-0.293263,"Action":0},{"StopId":5121,"StopCode":"688","PointLetter":"ET","StopName":"Ealing Common Station","Latitude":51.510671,"Longitude":-0.288929,"Action":0},{"StopId":6498,"StopCode":"3051","PointLetter":"EU","StopName":"Birch Grove","Latitude":51.509211,"Longitude":-0.284372,"Action":0},{"StopId":6520,"StopCode":"3049","PointLetter":"EV","StopName":"Twyford Avenue","Latitude":51.508647,"Longitude":-0.281482,"Action":0},{"StopId":6386,"StopCode":"2036","PointLetter":"B","StopName":"Denehurst Gardens","Latitude":51.508433,"Longitude":-0.277326,"Action":0},{"StopId":6452,"StopCode":"R0742","PointLetter":"D","StopName":"King Street","Latitude":51.507568,"Longitude":-0.272314,"Action":0},{"StopId":5129,"StopCode":"3043","PointLetter":"F","StopName":"Acton Old Town Hall","Latitude":51.506816,"Longitude":-0.268899,"Action":0},{"StopId":6441,"StopCode":"3041","PointLetter":"H","StopName":"Acton Central Station","Latitude":51.506556,"Longitude":-0.262842,"Action":0},{"StopId":6518,"StopCode":"3039","PointLetter":"VP","StopName":"Acton Park","Latitude":51.506495,"Longitude":-0.260539,"Action":0},{"StopId":8200,"StopCode":"11514","PointLetter":"EW","StopName":"Acton Park / Greenview Close","Latitude":51.507154,"Longitude":-0.257113,"Action":0},{"StopId":8209,"StopCode":"BP1808","PointLetter":"EZ","StopName":"Goldsmith Close","Latitude":51.510079,"Longitude":-0.257866,"Action":0},{"StopId":8205,"StopCode":"11510","PointLetter":"EU","StopName":"Shaa Road","Latitude":51.510809,"Longitude":-0.257391,"Action":0},{"StopId":8204,"StopCode":"11506","PointLetter":"S","StopName":"Glendun Road","Latitude":51.512435,"Longitude":-0.253626,"Action":0},{"StopId":8208,"StopCode":"2721","PointLetter":"K","StopName":"Old Oak Common Lane / Savoy Circus","Latitude":51.513332,"Longitude":-0.249282,"Action":0},{"StopId":3757,"StopCode":"11576","PointLetter":"C","StopName":"East Acton Station / Fitzneal Street","Latitude":51.515324,"Longitude":-0.247736,"Action":0},{"StopId":3759,"StopCode":"11572","PointLetter":"A","StopName":"Wulfstan Street","Latitude":51.515678,"Longitude":-0.241928,"Action":0},{"StopId":3929,"StopCode":"11568","PointLetter":"B","StopName":"Hammersmith Hospital","Latitude":51.516261,"Longitude":-0.234684,"Action":0},{"StopId":3760,"StopCode":"11566","PointLetter":"C","StopName":"Latymer Upper School / Playing Fields","Latitude":51.516873,"Longitude":-0.228117,"Action":0},{"StopId":2073,"StopCode":"8910","PointLetter":"Q","StopName":"North Pole Road","Latitude":51.518073,"Longitude":-0.227782,"Action":0},{"StopId":8147,"StopCode":"11564","PointLetter":"T","StopName":"North Pole Road / Scrubs Lane","Latitude":51.519229,"Longitude":-0.227550,"Action":0},{"StopId":8131,"StopCode":"36798","PointLetter":"U","StopName":"Highlever Road","Latitude":51.520974,"Longitude":-0.224037,"Action":0},{"StopId":8102,"StopCode":"15278","PointLetter":"V","StopName":"Dalgarno Gardens","Latitude":51.522442,"Longitude":-0.221746,"Action":0},{"StopId":8161,"StopCode":"26493","PointLetter":"A","StopName":"St Charles Health & Wellbeing Centre","Latitude":51.522376,"Longitude":-0.219197,"Action":0},{"StopId":8196,"StopCode":"11553","PointLetter":"B","StopName":"St Charles Square","Latitude":51.519527,"Longitude":-0.217549,"Action":0},{"StopId":8101,"StopCode":"11551","PointLetter":"C","StopName":"Oxford Gardens","Latitude":51.517627,"Longitude":-0.214972,"Action":0},{"StopId":6314,"StopCode":"25448","PointLetter":"K","StopName":"Cambridge Gardens / Ladbroke Grove","Latitude":51.518129,"Longitude":-0.211320,"Action":0},{"StopId":3205,"StopCode":"9481","PointLetter":"B","StopName":"Ladbroke Grove Station","Latitude":51.517124,"Longitude":-0.209702,"Action":0},{"StopId":8172,"StopCode":"11539","PointLetter":"PA","StopName":"Portobello Road","Latitude":51.516618,"Longitude":-0.206594,"Action":0},{"StopId":8170,"StopCode":"11537","PointLetter":"PB","StopName":"Powis Gardens","Latitude":51.517514,"Longitude":-0.202869,"Action":0},{"StopId":5203,"StopCode":"11696","PointLetter":"N","StopName":"Shrewsbury Road / Brunel Estate","Latitude":51.518924,"Longitude":-0.197509,"Action":0},{"StopId":5113,"StopCode":"11693","PointLetter":"","StopName":"St Stephens Gardens","Latitude":51.517983,"Longitude":-0.195917,"Action":0},{"StopId":2727,"StopCode":"1261","PointLetter":"PL","StopName":"Chepstow Road / Westbourne Grove","Latitude":51.515155,"Longitude":-0.194487,"Action":0},{"StopId":2700,"StopCode":"11671","PointLetter":"F","StopName":"Queensway","Latitude":51.515627,"Longitude":-0.190116,"Action":0},{"StopId":2689,"StopCode":"16972","PointLetter":"L","StopName":"Porchester Terrace North","Latitude":51.516382,"Longitude":-0.186612,"Action":0},{"StopId":2701,"StopCode":"35232","PointLetter":"M","StopName":"Westbourne Terrace","Latitude":51.517726,"Longitude":-0.181600,"Action":0},{"StopId":2697,"StopCode":"14020","PointLetter":"H","StopName":"Paddington Station","Latitude":51.516371,"Longitude":-0.174304,"Action":0},{"StopId":2693,"StopCode":"11663","PointLetter":"P","StopName":"St Mary's Hospital","Latitude":51.517404,"Longitude":-0.172461,"Action":0},{"StopId":3027,"StopCode":"58","PointLetter":"EE","StopName":"Sussex Gardens","Latitude":51.518528,"Longitude":-0.167861,"Action":0},{"StopId":3085,"StopCode":"1590","PointLetter":"EH","StopName":"George Street","Latitude":51.516310,"Longitude":-0.164620,"Action":0},{"StopId":3208,"StopCode":"621","PointLetter":"H","StopName":"Marble Arch / Edgware Road","Latitude":51.513591,"Longitude":-0.160392,"Action":0},{"StopId":261,"StopCode":"177","PointLetter":"K","StopName":"Marble Arch Station","Latitude":51.513626,"Longitude":-0.157450,"Action":0},{"StopId":21609,"StopCode":"91529","PointLetter":"BD","StopName":"Selfridges","Latitude":51.514161,"Longitude":-0.152067,"Action":0},{"StopId":25,"StopCode":"34554","PointLetter":"OF","StopName":"Oxford Circus","Latitude":51.514990,"Longitude":-0.144726,"Action":0},{"StopId":210,"StopCode":"15783","PointLetter":"OJ","StopName":"Gt Titchfield St / Photographers Gallery","Latitude":51.515673,"Longitude":-0.139005,"Action":0},{"StopId":161,"StopCode":"830","PointLetter":"OK","StopName":"Wardour Street","Latitude":51.515963,"Longitude":-0.136313,"Action":0},{"StopId":219,"StopCode":"37317","PointLetter":"V","StopName":"Tottenham Court Road Station","Latitude":51.516415,"Longitude":-0.131379,"Action":0},{"StopId":8117,"StopCode":"37671","PointLetter":"U","StopName":"British Museum","Latitude":51.518621,"Longitude":-0.125350,"Action":0},{"StopId":8175,"StopCode":"BP1780","PointLetter":"L","StopName":"Montague Street","Latitude":51.520125,"Longitude":-0.126053,"Action":0},{"StopId":8162,"StopCode":"33925","PointLetter":"E","StopName":"Russell Square Station","Latitude":51.522241,"Longitude":-0.127335,"Action":0}], "Routes" : [{"Id":7308,"Route":"N7","From":"Northolt Station","Towards":"Russell Square Station","Run":"1","IsDay":0,"encodedLevels":"P@D@@@ABDB@D@B?A?C@E?@A@DA?CA@AE?@D?@BAJ@ABDB@FB@?DA?@C?BB@?D???@C?FAD?@@F?@@C@AAD@B@G?B?AB?EABAAC??C?G???ADBAF?CABIA?CEAAD?BE?@??HA@D??EA@BD?@BFB@D@BAA@B@?@F@AAAE@?C?@J??CAG@BAGE@BA@BF?@BG?@CA?@B?G@F@@@C@?C?@IBFA?FFAH?A@G??G??D?@??GE@AEA@AAG?H@@B?H?A@??B@@A@@@B?@@A?AG?E?C@G?E?ACP","encodedPoints":"qisyHddfAz@jDtCxJTd@LDj@|@vChF`M`RrBnEfClH~AhJp@vCXXXNFILGNCZAVJRXHZBXBpAf@vFJ`@lDhHxArDvBzF~AjEtBlHJl@rBtF`@v@`DrFbF`IJF\\LHJRQ`@AJSbAm@nCiDpBkDhByE`@oB`@mCpAwKL}AZqG@}@BgJMqDIcEGeHBmB^gNEqF[aAAI?Y@KHWFC`@iAD_@`@sHv@mMzA{FtAgD^k@h@o@x@s@jFiGHa@vAeMV}Af@}EP{DHkEEqBV}E~@sDvAeHPgAZaDBuA?uDJgBd@eFPiG?oFGqGWcKsAcVMgGDwBe@eLw@mHIg@wAmNOoJMmMLATMXItF}BtE}B|AwBtC}BbA}A_@kIiAiUoEu_@gBkLs@uL~DQdHw@dFo@lBXBY\\UfFeIr@a@RKzDo@b@AtAFtIXtCPlCHZyDt@_D@[?QK{@e@}KRINP`@PvFFPGRMj@q@f@kAC}Bn@_KLw@|FcU~A}G~BaMRWxC_QnBwJh@eCvAsF`AkDl@yCVaI^{PVmNEaBb@_IZs@|@aD^}Af@eDDs@lBqLF_Fv@{a@@cC@eMWoPsHvAsEr@oFb@WIiHsHM}C_@uEk@eDu@sJU{E{@mGs@D_@CgEJcCh@_Ay_@o@cYa@qM{AiZSeICsB[cISsCs@mHYNgJzCCU{EcNQU_@kAcAuByDwGiGaLIQCSm@kE|VyLhAgAPi@RYbHyLuDsX~BiAbIeF}CwScEeXeDuRaBmLdASzFuAdNwCUeDkB}]UoD]}AiCkNoBiLgA}FwAsI`BkCRRp@zA~AxBdE_HBSP[LCnEiHcIkQyRgb@|LwSbF}HhGoKdAkB`EaIOiDkAyPi@wNu@gNI_Co@}LeBaYaAwNIUB[OeCCBGg@AWBOsB{a@EKi@wMSyGYqCcAp@k@d@GQiDuVu@}CkCmIwHpJsFxGQASEc@[o@oB","Color":"993333","hasRunTwo":1,"startPoint":{"Latitude":51.549856,"Longitude":-0.364341},"endPoint":{"Latitude":51.522333,"Longitude":-0.127009}},{"Id":2064,"Route":"7","From":"Brunel Road","Towards":"Russell Square Station","Run":"1","IsDay":1,"encodedLevels":"P?C@F?ABBG?BAA?@H?F@E@@@C@?C?@HBFA?FFAH?A@G??G??D?@??GE@AEA@AAG?H@@B?H?A@??A@@BAA?GAAECG?E?ACP","encodedPoints":"gnmyH|hp@AcALiEPc@h@q@LDXDl@ExE}@rPaE_Ay_@o@cYa@qM{AiZSeICsB[cISsCs@mHYNgJzCCU{EcNQU_@kAcAuByDwGiGaLIQCSm@kE|VyLhAgAPi@RYbHyLuDsX~BiAbIeF}CwScEeXeDuRaBmLdASzFuAdNwCUeDkB}]UoD]}AiCkNoBiLgA}FwAsI`BkCRRp@zA~AxBdE_HBSP[LCnEiHcIkQyRgb@|LwSbF}HhGoKdAkB`EaIOiDkAyPi@wNu@gNI_Co@}LeDoi@G[{@uOsBib@i@eNBC?uAU@cAp@s@R{DyXoDgLwHpJsFxGQASEc@[o@oB","Color":"663366","hasRunTwo":1,"startPoint":{"Latitude":51.519890,"Longitude":-0.252468},"endPoint":{"Latitude":51.522333,"Longitude":-0.127009}}]}


