{"Stops" : [{"StopId":2178,"StopCode":"34323","PointLetter":"R","StopName":"Aldwych / Somerset House","Latitude":51.512129,"Longitude":-0.116422,"Action":0},{"StopId":2147,"StopCode":"14627","PointLetter":"U","StopName":"Savoy Street","Latitude":51.510773,"Longitude":-0.120456,"Action":0},{"StopId":2257,"StopCode":"7852","PointLetter":"J","StopName":"Bedford Street","Latitude":51.509648,"Longitude":-0.123197,"Action":0},{"StopId":2256,"StopCode":"35730","PointLetter":"H","StopName":"Charing Cross Station","Latitude":51.508461,"Longitude":-0.125479,"Action":0},{"StopId":2276,"StopCode":"BP3507","PointLetter":"S","StopName":"Trafalgar Square","Latitude":51.507479,"Longitude":-0.129353,"Action":0},{"StopId":1792,"StopCode":"BP4565","PointLetter":"","StopName":"Pall Mall / St James's Palace","Latitude":51.505558,"Longitude":-0.136838,"Action":0},{"StopId":671,"StopCode":"15192","PointLetter":"H","StopName":"Green Park Station","Latitude":51.506677,"Longitude":-0.142816,"Action":0},{"StopId":661,"StopCode":"988","PointLetter":"E","StopName":"Green Park / Constitution Hill","Latitude":51.503995,"Longitude":-0.147767,"Action":0},{"StopId":2243,"StopCode":"107","PointLetter":"M","StopName":"Hyde Park Corner Station","Latitude":51.502750,"Longitude":-0.153249,"Action":0},{"StopId":2211,"StopCode":"BP3406","PointLetter":"KE","StopName":"Knightsbridge Station  / Harrods","Latitude":51.501627,"Longitude":-0.161854,"Action":0},{"StopId":2225,"StopCode":"11221","PointLetter":"KF","StopName":"Knightsbridge Barracks","Latitude":51.501701,"Longitude":-0.166014,"Action":0},{"StopId":2226,"StopCode":"11223","PointLetter":"RA","StopName":"Prince Of Wales Gate","Latitude":51.501799,"Longitude":-0.169411,"Action":0},{"StopId":2172,"StopCode":"115","PointLetter":"RB","StopName":"Exhibition Road","Latitude":51.501760,"Longitude":-0.173274,"Action":0},{"StopId":2218,"StopCode":"3352","PointLetter":"RC","StopName":"Royal Albert Hall","Latitude":51.501494,"Longitude":-0.178731,"Action":0},{"StopId":2279,"StopCode":"118","PointLetter":"RE","StopName":"Palace Gate","Latitude":51.501469,"Longitude":-0.182925,"Action":0},{"StopId":1766,"StopCode":"120","PointLetter":"N","StopName":"Kensington Palace","Latitude":51.502245,"Longitude":-0.187736,"Action":0},{"StopId":2173,"StopCode":"14640","PointLetter":"F","StopName":"High Street Kensington Station","Latitude":51.501351,"Longitude":-0.192151,"Action":0},{"StopId":1758,"StopCode":"27497","PointLetter":"T","StopName":"Phillimore Gardens","Latitude":51.499692,"Longitude":-0.196554,"Action":0},{"StopId":1789,"StopCode":"126","PointLetter":"X","StopName":"Kensington High Street / Earls Court Rd","Latitude":51.498772,"Longitude":-0.199255,"Action":0},{"StopId":1791,"StopCode":"11195","PointLetter":"Z","StopName":"Warwick Gardens","Latitude":51.497536,"Longitude":-0.203151,"Action":0},{"StopId":2238,"StopCode":"27791","PointLetter":"C","StopName":"Kensington Olympia Station","Latitude":51.496362,"Longitude":-0.206323,"Action":0},{"StopId":2146,"StopCode":"14641","PointLetter":"E","StopName":"North End Road","Latitude":51.495226,"Longitude":-0.210877,"Action":0},{"StopId":1817,"StopCode":"3015","PointLetter":"F","StopName":"Brook Green","Latitude":51.493514,"Longitude":-0.215929,"Action":0},{"StopId":1885,"StopCode":"4682","PointLetter":"X","StopName":"Latymer Court","Latitude":51.493209,"Longitude":-0.218361,"Action":0},{"StopId":17854,"StopCode":"BP503","PointLetter":"Z4","StopName":"Hammersmith Broadway","Latitude":51.492982,"Longitude":-0.221769,"Action":0},{"StopId":3804,"StopCode":"R0876","PointLetter":"B","StopName":"Hammersmith Bus Station","Latitude":51.491989,"Longitude":-0.223882,"Action":0},{"StopId":1864,"StopCode":"51781","PointLetter":"U","StopName":"Kings Mall Shopping Centre","Latitude":51.492706,"Longitude":-0.227254,"Action":0},{"StopId":1901,"StopCode":"24779","PointLetter":"WA","StopName":"Hammersmith Town Hall","Latitude":51.492601,"Longitude":-0.232876,"Action":0},{"StopId":1784,"StopCode":"BP1501","PointLetter":"D","StopName":"Ravenscourt Park Station","Latitude":51.492897,"Longitude":-0.235804,"Action":0},{"StopId":1843,"StopCode":"6149","PointLetter":"G","StopName":"Ravenscourt Park","Latitude":51.493452,"Longitude":-0.240407,"Action":0},{"StopId":1881,"StopCode":"174","PointLetter":"H","StopName":"Goldhawk Road","Latitude":51.493381,"Longitude":-0.244068,"Action":0},{"StopId":1910,"StopCode":"1038","PointLetter":"PP","StopName":"Stamford Brook Bus Garage","Latitude":51.492986,"Longitude":-0.249500,"Action":0},{"StopId":1842,"StopCode":"6153","PointLetter":"RR","StopName":"Chiswick Lane","Latitude":51.492739,"Longitude":-0.253457,"Action":0},{"StopId":1835,"StopCode":"1039","PointLetter":"SS","StopName":"Chiswick Police Station","Latitude":51.492411,"Longitude":-0.259822,"Action":0},{"StopId":1919,"StopCode":"133","PointLetter":"CV","StopName":"Turnham Green Church","Latitude":51.492564,"Longitude":-0.265939,"Action":0},{"StopId":1841,"StopCode":"6157","PointLetter":"T","StopName":"Chiswick Road","Latitude":51.492876,"Longitude":-0.270609,"Action":0},{"StopId":1900,"StopCode":"27303","PointLetter":"A","StopName":"Gunnersbury Station","Latitude":51.492337,"Longitude":-0.274936,"Action":0},{"StopId":1840,"StopCode":"6159","PointLetter":"J","StopName":"Power Road","Latitude":51.491993,"Longitude":-0.279645,"Action":0},{"StopId":1889,"StopCode":"3164","PointLetter":"K","StopName":"Brentford Fountain Leisure Centre","Latitude":51.490456,"Longitude":-0.284601,"Action":0},{"StopId":2877,"StopCode":"1625","PointLetter":"S","StopName":"Kew Bridge Station","Latitude":51.488689,"Longitude":-0.288614,"Action":0},{"StopId":2920,"StopCode":"6164","PointLetter":"U","StopName":"The Musical Museum","Latitude":51.487591,"Longitude":-0.292890,"Action":0},{"StopId":2834,"StopCode":"6168","PointLetter":"BH","StopName":"Watermans Centre","Latitude":51.486264,"Longitude":-0.297534,"Action":0},{"StopId":5816,"StopCode":"6170","PointLetter":"BJ","StopName":"Goat Wharf","Latitude":51.485246,"Longitude":-0.300438,"Action":0},{"StopId":5920,"StopCode":"6174","PointLetter":"BK","StopName":"Brentford County Court","Latitude":51.483835,"Longitude":-0.304264,"Action":0},{"StopId":2916,"StopCode":"6176","PointLetter":"BL","StopName":"Brentford Magistrates Court","Latitude":51.483142,"Longitude":-0.307977,"Action":0},{"StopId":5918,"StopCode":"6180","PointLetter":"","StopName":"Brent Lea","Latitude":51.481634,"Longitude":-0.314427,"Action":0},{"StopId":5927,"StopCode":"6184","PointLetter":"W","StopName":"Syon Lane","Latitude":51.480116,"Longitude":-0.318256,"Action":0},{"StopId":2914,"StopCode":"6188","PointLetter":"V","StopName":"Busch Corner","Latitude":51.478758,"Longitude":-0.322641,"Action":0},{"StopId":6743,"StopCode":"6190","PointLetter":"S","StopName":"The Green School","Latitude":51.478226,"Longitude":-0.324446,"Action":0},{"StopId":6717,"StopCode":"6192","PointLetter":"M","StopName":"Turnpike Way","Latitude":51.476871,"Longitude":-0.329104,"Action":0},{"StopId":6742,"StopCode":"6194","PointLetter":"D","StopName":"Wood Lane","Latitude":51.476253,"Longitude":-0.331099,"Action":0},{"StopId":6741,"StopCode":"6196","PointLetter":"E","StopName":"Linkfield Road","Latitude":51.475310,"Longitude":-0.334402,"Action":0},{"StopId":6660,"StopCode":"2778","PointLetter":"F","StopName":"Isleworth Station","Latitude":51.475111,"Longitude":-0.337477,"Action":0},{"StopId":4506,"StopCode":"6201","PointLetter":"G","StopName":"West Thames College","Latitude":51.474814,"Longitude":-0.342528,"Action":0},{"StopId":4485,"StopCode":"2792","PointLetter":"H","StopName":"Star Road","Latitude":51.472631,"Longitude":-0.347143,"Action":0},{"StopId":4504,"StopCode":"6206","PointLetter":"","StopName":"Bridge Road","Latitude":51.471494,"Longitude":-0.350711,"Action":0},{"StopId":2851,"StopCode":"1778","PointLetter":"G","StopName":"Hounslow Bus Station","Latitude":51.470825,"Longitude":-0.353629,"Action":0},{"StopId":5893,"StopCode":"BP2173","PointLetter":"L","StopName":"Fairfields Road","Latitude":51.468973,"Longitude":-0.358808,"Action":0},{"StopId":5930,"StopCode":"BP1364","PointLetter":"T","StopName":"Treaty Centre","Latitude":51.467036,"Longitude":-0.363671,"Action":0},{"StopId":2910,"StopCode":"BP1993","PointLetter":"X","StopName":"Bell Road / Bell Corner","Latitude":51.468177,"Longitude":-0.366870,"Action":0},{"StopId":6119,"StopCode":"16336","PointLetter":"H","StopName":"St Michael & St Martin Church","Latitude":51.468847,"Longitude":-0.372979,"Action":0},{"StopId":6208,"StopCode":"16337","PointLetter":"J","StopName":"Wellington Road North","Latitude":51.469917,"Longitude":-0.377549,"Action":0},{"StopId":6207,"StopCode":"16388","PointLetter":"K","StopName":"St Paul's Church","Latitude":51.471406,"Longitude":-0.381815,"Action":0},{"StopId":2908,"StopCode":"9114","PointLetter":"C","StopName":"Hounslow West Station","Latitude":51.472578,"Longitude":-0.385302,"Action":0},{"StopId":6118,"StopCode":"16333","PointLetter":"L","StopName":"Great West Road","Latitude":51.474633,"Longitude":-0.392155,"Action":0},{"StopId":2867,"StopCode":"4558","PointLetter":"CP","StopName":"Henlys Roundabout","Latitude":51.476067,"Longitude":-0.398398,"Action":0},{"StopId":6301,"StopCode":"20705","PointLetter":"CQ","StopName":"Rectory Road","Latitude":51.476844,"Longitude":-0.401308,"Action":0},{"StopId":6268,"StopCode":"3189","PointLetter":"CR","StopName":"Cranford Library / The Parkway","Latitude":51.478318,"Longitude":-0.406527,"Action":0},{"StopId":2822,"StopCode":"3333","PointLetter":"CS","StopName":"The Avenue","Latitude":51.479111,"Longitude":-0.409294,"Action":0},{"StopId":5325,"StopCode":"16331","PointLetter":"CT","StopName":"Waye Avenue","Latitude":51.480474,"Longitude":-0.414316,"Action":0},{"StopId":5357,"StopCode":"16329","PointLetter":"CU","StopName":"Craneswater","Latitude":51.480984,"Longitude":-0.420836,"Action":0},{"StopId":2984,"StopCode":"13551","PointLetter":"H","StopName":"Oxford Avenue","Latitude":51.480664,"Longitude":-0.425125,"Action":0},{"StopId":2903,"StopCode":"3419","PointLetter":"J","StopName":"Harlington Corner","Latitude":51.480600,"Longitude":-0.435712,"Action":0},{"StopId":5289,"StopCode":"17145","PointLetter":"BL","StopName":"Mondial Way","Latitude":51.480933,"Longitude":-0.444486,"Action":0},{"StopId":2890,"StopCode":"18208","PointLetter":"BM","StopName":"Nene Road","Latitude":51.481056,"Longitude":-0.447693,"Action":0},{"StopId":15147,"StopCode":"BP5116","PointLetter":"18","StopName":"Heathrow Central Bus Station","Latitude":51.471354,"Longitude":-0.453177,"Action":0},{"StopId":16683,"StopCode":"BP1109","PointLetter":"BZ","StopName":"Nelson Road","Latitude":51.479905,"Longitude":-0.466137,"Action":0},{"StopId":15833,"StopCode":"BP5134","PointLetter":"","StopName":"Heathrow Terminal 5","Latitude":51.473142,"Longitude":-0.489647,"Action":0}], "Routes" : [{"Id":6768,"Route":"N9","From":"Aldwych / Somerset House","Towards":"Heathrow Terminal 5","Run":"1","IsDay":0,"encodedLevels":"PB?DB?BA?@F?A?ABA?E@?@G?B@CAFBABBCD?H?C?B@C@E@B@@B?@E@A?@?D@A?AE?B?@AB@GC?B@@CBBCC@AC??C??E?AAF?@BBAHEBA@DE@?A?C@A?CE@AE?BAAF?CD?A??B@??AC?F?B@AB?@EB?A?AD?A?B@?@H@B@AD?AB?@BD@@BBE@B?D??B@A?@?C@@E?B@@B@E??@@@D@@AF?C@B@?FAABE?@?AD?B??C@@@@@@A?DB@I@E???CAE@A?@E?C@B@@C?@@AB@??C@DA@C?@?CAI?A@A@D@?ADBAB@AD?@AA?C?H@ACBC@?F@BB?@BHBBC@ADEBE?A?HB@ADAAAE@@?BA?B@A?A@E?BAC?@C@?BA?HB@D?B@FA@C@@BAF@B?AD@B@?EBP","encodedPoints":"y_lyHtrUhCvLzEbQhCxIdF~Mh@bA~DzIn@`APFFFHT@L?`@MZWjAU`CW~EGtCBd@|AbGjCfL~@rDvD|NALWf@_Ax@yGxGwBjD@TfFdN~EpKxDnJpCbF`CfHxBPL^|AjG?r@EXQT_@`@mB~@GAOz@?Zl@pEl@fH\\jH?t@p@fMD`@^bBf@rEEt@?nUGvBSbNSrQ?`ATzLl@fRD|HAbCZ|KGlGCr@_@hE{A`OEBm@vJCvCDp@pB~MXn@fCfHhBhHJr@vCtKdCzJzB~MnI`\\bCvKCPFdAr@tHn@|B`CfHz@vCp@|C\\nBtCzNDd@RjOd@|OJf@BJHFNFzAYjEEBJBjFiAIEa@MIIB_DlDBJHHJ@N@XEJC`BsBHQ@OhAH?r@MlCKXEJSL{@?sEf@ALnAvSD~@MnSk@pME\\Ab@DTAVIFCt@{@zJS`Ba@vIClBIhLPlIZ~T\\|H\\xE^rLZpS`@nRPfNAzJa@zPGxD_@|IOnCEpG@z@PhDXhDz@fMJpCDvDTnGr@vPJ^PPn@^HApA|@DXDr@?tCKXEZC~@d@|BlApD~AxD~CrIl@b@x@|C?bAZfELpAjAzHJh@jAvDPt@~@|FvBrKn@jC`DzNvBhKZhBnAfDfCfIVjATlBdAbMjAnIPt@nAzJ@`BZzEl@pBD@hCfJb@nAnCpJl@bClCtMhDnOvKnj@bEbRJr@l@fFPxL~@b`@FzANlALp@\\lAtCbFzBjFvDdLrAhHvBfMRxAhB~KtC~Nn@rAfAtCp@hC~CzKNd@l@`ADCJN?JV`@DCLPDPJVz@dE@l@fAzJk@^}EtE?Ry@lN]dH}@|OmAdL{@vFo@zCwMfi@{D|Py@fD}A~HwChPYlBaAxI]vBInBDj@CTCJMTKHS\\UfAoCvPuBrLqA~G[nBJtBCRM`@URo@~@yAbImClNwErWoC`PaAlIKrD@|@NdGj@rKVnIf@`QXrO@tFEzGOnNgB`wA\\BDx@f@dBj@VVXHZAXARSz@CpBm@zEEN@ZZdC\\^XPp@L|c@ItHRd@G`@OvCe@NRF\\CxDDNHHZLDp@EZ[KsB{Aa@y@{@cA_@MgIi@g`@FiDR]h@O`@UbAO~@b@fDD`B?xGLtAZf@P@h@f@JZA~[Fn]E~K@fEBlKNlA@\\I^GbGFfOBFKnIBrENvCD^x@pDt@dG@t@?|JP`Nf@hKl@fKd@rGRzARp@JV|@tAp@b@bAb@nB\\r@Fp@Ah@Md@Y\\i@Lc@JeABoDL{CPcAXi@\\]\\QLCdAI|Ac@d@e@n@aAz@sBFYDGjAU~FB","Color":"993333","hasRunTwo":1,"startPoint":{"Latitude":51.512459,"Longitude":-0.115784},"endPoint":{"Latitude":51.471686,"Longitude":-0.489712}},{"Id":2500,"Route":"9","From":"Aldwych / Somerset House","Towards":"Hammersmith Bus Station","Run":"1","IsDay":1,"encodedLevels":"PB?DB?BA?@F?A?ABA?E@?@G?B@CAFBABBCD?G?C?B@C@E@B@@B?@E@A?@?D@A?AE?B?@BAH@C?B@@?DBAC@AC??C??E?AAF?@BBAFEBA@DP","encodedPoints":"y_lyHtrUhCvLzEbQhCxIdF~Mh@bA~DzIn@`APFFFHT@L?`@MZWjAU`CW~EGtCBd@|AbGjCfL~@rDvD|NALWf@_Ax@yGxGwBjD@TfFdN~EpKxDnJpCbF`CfHxBPL^|AjG?r@EXQT_@`@mB~@GAOz@?Zl@pEl@fH\\jH?t@p@fMD`@^bBf@rEEt@?nUGvBSbNSrQ?`ATzLl@fRD|HAbCZ|KGlGCr@_@hE{A`OEBm@vJCvCPjBdBdLXn@fCfHhBhHJr@vCtKdCzJzB~MnI`\\bCvKCPFdAr@tHn@|B`CfHz@vCp@|C\\nBtCzNDd@RjOd@|OJf@BJHFNFzAYjEEBJBjFiAIEa@MIIB_DlD","Color":"663366","hasRunTwo":1,"startPoint":{"Latitude":51.512459,"Longitude":-0.115784},"endPoint":{"Latitude":51.492659,"Longitude":-0.224238}}]}


