{"Stops" : [{"StopId":2040,"StopCode":"R0877","PointLetter":"C","StopName":"Hammersmith Bus Station","Latitude":51.491906,"Longitude":-0.223756,"Action":0},{"StopId":2061,"StopCode":"33000","PointLetter":"M","StopName":"Hammersmith Broadway","Latitude":51.490597,"Longitude":-0.223432,"Action":0},{"StopId":2081,"StopCode":"8886","PointLetter":"HA","StopName":"Charing Cross Hospital","Latitude":51.486601,"Longitude":-0.220822,"Action":0},{"StopId":2110,"StopCode":"401","PointLetter":"HB","StopName":"Greyhound Road","Latitude":51.485394,"Longitude":-0.220091,"Action":0},{"StopId":3874,"StopCode":"4655","PointLetter":"HC","StopName":"Bothwell Street","Latitude":51.483488,"Longitude":-0.217775,"Action":0},{"StopId":3762,"StopCode":"11240","PointLetter":"HD","StopName":"Fulham Cross","Latitude":51.482727,"Longitude":-0.213224,"Action":0},{"StopId":3872,"StopCode":"10244","PointLetter":"BL","StopName":"Fulham Pools","Latitude":51.483850,"Longitude":-0.207866,"Action":0},{"StopId":3926,"StopCode":"11234","PointLetter":"BM","StopName":"Mulgrave Road","Latitude":51.484746,"Longitude":-0.204158,"Action":0},{"StopId":3805,"StopCode":"BP1227","PointLetter":"BN","StopName":"North End Road","Latitude":51.485860,"Longitude":-0.201132,"Action":0},{"StopId":3836,"StopCode":"2538","PointLetter":"BA","StopName":"Empress State Building / West Brompton","Latitude":51.486545,"Longitude":-0.198283,"Action":0},{"StopId":3919,"StopCode":"9414","PointLetter":"P","StopName":"West Brompton Station","Latitude":51.487607,"Longitude":-0.195432,"Action":0},{"StopId":3893,"StopCode":"29940","PointLetter":"B","StopName":"Earls Court Square","Latitude":51.489240,"Longitude":-0.194013,"Action":0},{"StopId":3921,"StopCode":"29941","PointLetter":"C","StopName":"Earls Court Station","Latitude":51.490592,"Longitude":-0.196553,"Action":0},{"StopId":3883,"StopCode":"34755","PointLetter":"D","StopName":"West Cromwell Road / Tesco","Latitude":51.493256,"Longitude":-0.199660,"Action":0},{"StopId":3966,"StopCode":"1565","PointLetter":"G","StopName":"Earls Court Road","Latitude":51.494774,"Longitude":-0.194832,"Action":0},{"StopId":3958,"StopCode":"11184","PointLetter":"GJ","StopName":"Collingham Road / Sainsbury's","Latitude":51.494775,"Longitude":-0.187340,"Action":0},{"StopId":3970,"StopCode":"1560","PointLetter":"GK","StopName":"Gloucester Road Station","Latitude":51.495007,"Longitude":-0.184306,"Action":0},{"StopId":3753,"StopCode":"BP1527","PointLetter":"GL","StopName":"Natural History Museum / Queens Gate","Latitude":51.495342,"Longitude":-0.179826,"Action":0},{"StopId":3776,"StopCode":"16870","PointLetter":"E","StopName":"South Kensington Station","Latitude":51.494464,"Longitude":-0.174791,"Action":0},{"StopId":3935,"StopCode":"11178","PointLetter":"M","StopName":"Victoria and Albert Museum","Latitude":51.496237,"Longitude":-0.170873,"Action":0},{"StopId":3882,"StopCode":"37304","PointLetter":"KW","StopName":"Brompton Square","Latitude":51.497616,"Longitude":-0.167634,"Action":0},{"StopId":3907,"StopCode":"36598","PointLetter":"KB","StopName":"Harrods","Latitude":51.499442,"Longitude":-0.164189,"Action":0},{"StopId":3979,"StopCode":"213","PointLetter":"KD","StopName":"Knightsbridge Station","Latitude":51.500734,"Longitude":-0.162307,"Action":0},{"StopId":2235,"StopCode":"96","PointLetter":"T","StopName":"Hyde Park Corner Station","Latitude":51.503024,"Longitude":-0.153483,"Action":0},{"StopId":2137,"StopCode":"25145","PointLetter":"C","StopName":"Old Park Lane / Hard Rock Cafe","Latitude":51.504086,"Longitude":-0.148383,"Action":0},{"StopId":687,"StopCode":"99","PointLetter":"J","StopName":"Green Park Station","Latitude":51.507014,"Longitude":-0.142529,"Action":0},{"StopId":676,"StopCode":"36947","PointLetter":"L","StopName":"Old Bond Street / Royal Academy","Latitude":51.508400,"Longitude":-0.139172,"Action":0},{"StopId":686,"StopCode":"37122","PointLetter":"B","StopName":"Piccadilly Circus","Latitude":51.509292,"Longitude":-0.136412,"Action":0},{"StopId":3860,"StopCode":"157","PointLetter":"P","StopName":"Haymarket","Latitude":51.509061,"Longitude":-0.132084,"Action":0},{"StopId":3764,"StopCode":"BP3508","PointLetter":"A","StopName":"Trafalgar Square / Charing Cross Stn","Latitude":51.507693,"Longitude":-0.129791,"Action":0},{"StopId":3829,"StopCode":"152","PointLetter":"N","StopName":"Whitehall / Trafalgar Square","Latitude":51.506318,"Longitude":-0.127023,"Action":0}], "Routes" : [{"Id":11267,"Route":"N97","From":"Hammersmith Bus Station","Towards":"Whitehall / Trafalgar Square","Run":"1","IsDay":0,"encodedLevels":"PA?DAC@@?D?BD?BB?G?ACB?A?IAAACABD@B@@CCA?HBAH?A?H?A@C@DA@@?@EE?HAF@@AC?A@F@ABCA@BF?AB@B@AAFA@@AD?@?CA@HA?EABAE@?B@B@E@A?A@@CP","encodedPoints":"qahyH~xj@`BsBHQ@OnAHnE]t@]lFuAVK~Bu@fC}CrCaDzAeAbAi@p@W~EgAvBaA~@i@Is@@a@b@uI|@_Ip@yCh@mCDc@?i@o@qG_@qBWcGa@wDmAmF{@eF}AeMe@aCeAqDYw@kAuBI[oCqSaBsH{DuNiDaMaBdCyRdd@yBjESa@Uo@kGgVw@aDIw@Em@Bw@U{MF}IV}NiAo_@QyBm@qRBe@IOKmFbH_AIwBq@sKiC^oCJCe@Dg@I}Co@uJI]_AmHa@uBq@iC_BkDQEyBmEwF_OmCcFo@cAkE{FgCwEQ{@I{@cAqQoAoJs@uHGeB}@_N?mBS_BoEaMuEiLmAoCaEsKmEiM[eAmAgFe@{BkDkOiAqCOE_@u@F}A?w@KwAnAaBbIgHt@k@^CBoDVoIJqBSWEY@m@HSDINATHFFNIZARF|D_B","Color":"993333","hasRunTwo":1,"startPoint":{"Latitude":51.492256,"Longitude":-0.224311},"endPoint":{"Latitude":51.506011,"Longitude":-0.127001}},{"Id":1490,"Route":"97","From":"Chingford Station","Towards":"Stratford City Bus Station","Run":"1","IsDay":1,"encodedLevels":"P?ACB?BBAFAB@F@BA?CBE@ACAF@B??D?AJ@A@C@B?D?AB?CB@@CBF@CDCAADA@B@D@BA@DA@@A??BGBE?AF?@BBAF?@@D@AGABC?C?AC?A?AFBC?CC?E@A?CB@E?ACHBABF@B?@CB@EAB?AF?B?@CA@BB@C?HAA@C?FBAD?@G?C?BE?B?EAFB?B@CAEF?A?BGBAFCBAP","encodedPoints":"ctczH__A?NG^S`@|EhP|CdM~@hETpC`B`HbAdCgAvA_CdEUv@Il@l@v@|DxGvEzITl@fD`HfAr@zDvGZnAHr@DrBu@~NQb@NTrHjQLh@Ln@nArEf@X^JnAPjBHtDDt@Ip@?lJpAhJfA|@J`G\\RMPGzAGxGAzABvDb@h@R\\T|Aj@tEOpAXz@ExEo@hI_DnXkBrDDRGxIV^SFa@b@w@n@q@HAV?PHVd@bAXP@j@KDKNCDDVKdFeA\\MzE]hLfBlDxALPFLtB~Il@Gd@IxFiA~FeBv@IRHXh@~BvFTv@tB~E~@~@`@V|@Xl@FlASnB}@RQhAaBv@QpI{AdBi@ZSXU^i@h@m@d@OVXCx@{@PKFKjBFl@JnCM@IEEKUYmC@IDITBVDHJBnD@ZQWyCIuEZa@d@OZCVHb@R~@PjAYbIIl@GdA_@xDaCpCqCl@k@hF{DLWdBaFNs@TaB^yA^o@l@e@Rc@~CmJ~@_C~CaH\\U^O|AOhEDnDMvFC`AL|Dr@lAp@d@|@|FpFr@Lp@PxFlBpHiAhAUzD}A`Bi@`E}Bl@sAvDoHRUfAeAlBgA|KaFrA[r@?fFQdBQdFy@d@_@bF_Bn@zCtF}EpBkBxC_DnGqGfAg@r@dG\\zG?rApBe@xEB|Cb@fA@","Color":"663366","hasRunTwo":1,"startPoint":{"Latitude":51.633467,"Longitude":0.010248},"endPoint":{"Latitude":51.543283,"Longitude":-0.004156}}]}


