{"Stops" : [{"StopId":10928,"StopCode":"BP2432","PointLetter":"G","StopName":"Lewisham Station","Latitude":51.464710,"Longitude":-0.012961,"Action":0},{"StopId":10799,"StopCode":"BP1118","PointLetter":"H","StopName":"Lewisham Police Station","Latitude":51.463700,"Longitude":-0.010644,"Action":0},{"StopId":10800,"StopCode":"BP1115","PointLetter":"X","StopName":"Lewisham Centre","Latitude":51.460644,"Longitude":-0.010791,"Action":0},{"StopId":10795,"StopCode":"26286","PointLetter":"Y","StopName":"Morley Road","Latitude":51.458863,"Longitude":-0.012294,"Action":0},{"StopId":12959,"StopCode":"26283","PointLetter":"HP","StopName":"Lewisham Park","Latitude":51.454311,"Longitude":-0.015918,"Action":0},{"StopId":12935,"StopCode":"26281","PointLetter":"HR","StopName":"Lewisham Hospital","Latitude":51.453040,"Longitude":-0.016304,"Action":0},{"StopId":12946,"StopCode":"925","PointLetter":"HS","StopName":"George Lane","Latitude":51.450764,"Longitude":-0.016791,"Action":0},{"StopId":12958,"StopCode":"26279","PointLetter":"HT","StopName":"Rosenthal Road","Latitude":51.448134,"Longitude":-0.017596,"Action":0},{"StopId":16910,"StopCode":"20518","PointLetter":"C","StopName":"The Catford Centre","Latitude":51.445550,"Longitude":-0.019564,"Action":0},{"StopId":10235,"StopCode":"26296","PointLetter":"V","StopName":"Catford Road / Lewisham Town Hall","Latitude":51.444752,"Longitude":-0.020749,"Action":0},{"StopId":10269,"StopCode":"26022","PointLetter":"S","StopName":"Catford & Catford Bridge Stations","Latitude":51.444478,"Longitude":-0.023697,"Action":0},{"StopId":10389,"StopCode":"26355","PointLetter":"J","StopName":"St Dunstans College","Latitude":51.442362,"Longitude":-0.030494,"Action":0},{"StopId":11607,"StopCode":"36954","PointLetter":"HD","StopName":"Brockley Rise","Latitude":51.449107,"Longitude":-0.042883,"Action":0},{"StopId":11665,"StopCode":"BP483","PointLetter":"HA","StopName":"Honor Oak Park Station","Latitude":51.449643,"Longitude":-0.045897,"Action":0},{"StopId":11847,"StopCode":"BP1221","PointLetter":"X","StopName":"Hengrave Road","Latitude":51.448987,"Longitude":-0.052402,"Action":0},{"StopId":17707,"StopCode":"BP1222","PointLetter":"Y","StopName":"Fairlawn School","Latitude":51.447049,"Longitude":-0.054254,"Action":0},{"StopId":17946,"StopCode":"BP1219","PointLetter":"Z","StopName":"Horniman Drive","Latitude":51.445278,"Longitude":-0.054848,"Action":0},{"StopId":17709,"StopCode":"BP1217","PointLetter":"","StopName":"Ewelme Road","Latitude":51.443287,"Longitude":-0.056285,"Action":0},{"StopId":17711,"StopCode":"BP1215","PointLetter":"S","StopName":"South View Court","Latitude":51.441028,"Longitude":-0.058338,"Action":0},{"StopId":7010,"StopCode":"13156","PointLetter":"MH","StopName":"Horniman Museum","Latitude":51.440586,"Longitude":-0.062630,"Action":0},{"StopId":6856,"StopCode":"2016","PointLetter":"MJ","StopName":"Lordship Lane / Wood Vale","Latitude":51.441790,"Longitude":-0.065817,"Action":0},{"StopId":17734,"StopCode":"BP1049","PointLetter":"","StopName":"Lordship Lane Estate","Latitude":51.443333,"Longitude":-0.071032,"Action":0},{"StopId":17654,"StopCode":"BP1048","PointLetter":"","StopName":"Southwark Sports Ground","Latitude":51.442801,"Longitude":-0.075890,"Action":0},{"StopId":17803,"StopCode":"BP1047","PointLetter":"VN","StopName":"Allison Grove","Latitude":51.442012,"Longitude":-0.082010,"Action":0},{"StopId":17642,"StopCode":"BP3867","PointLetter":"VP","StopName":"Dulwich College","Latitude":51.442993,"Longitude":-0.084833,"Action":0},{"StopId":17753,"StopCode":"BP3866","PointLetter":"VR","StopName":"Dulwich Picture Gallery","Latitude":51.445792,"Longitude":-0.085536,"Action":0},{"StopId":17646,"StopCode":"BP3865","PointLetter":"VT","StopName":"Dulwich Village","Latitude":51.448535,"Longitude":-0.085522,"Action":0},{"StopId":17645,"StopCode":"BP3864","PointLetter":"VU","StopName":"Dulwich Village School","Latitude":51.451894,"Longitude":-0.086907,"Action":0},{"StopId":11752,"StopCode":"646","PointLetter":"VA","StopName":"North Dulwich Station","Latitude":51.453719,"Longitude":-0.087996,"Action":0},{"StopId":17914,"StopCode":"BP1964","PointLetter":"","StopName":"Elmwood Road / The Charter School","Latitude":51.455829,"Longitude":-0.090571,"Action":0},{"StopId":17775,"StopCode":"BP1965","PointLetter":"","StopName":"Casino Avenue","Latitude":51.457611,"Longitude":-0.091202,"Action":0},{"StopId":17623,"StopCode":"BP1966","PointLetter":"","StopName":"Herne Hill","Latitude":51.459112,"Longitude":-0.093342,"Action":0},{"StopId":17913,"StopCode":"BP1967","PointLetter":"","StopName":"Haredale Road / Carnegie Library","Latitude":51.460455,"Longitude":-0.095719,"Action":0},{"StopId":17776,"StopCode":"BP1968","PointLetter":"","StopName":"Deerdale Road / St Savior's School","Latitude":51.462834,"Longitude":-0.098269,"Action":0},{"StopId":17992,"StopCode":"BP1969","PointLetter":"E","StopName":"Loughborough Junction Station","Latitude":51.465731,"Longitude":-0.101114,"Action":0},{"StopId":10317,"StopCode":"13290","PointLetter":"K","StopName":"Shakespeare Road","Latitude":51.464296,"Longitude":-0.104154,"Action":0},{"StopId":10303,"StopCode":"13288","PointLetter":"N","StopName":"Moorland Road","Latitude":51.463321,"Longitude":-0.106671,"Action":0},{"StopId":10203,"StopCode":"14360","PointLetter":"R","StopName":"Brixton Station Road","Latitude":51.464209,"Longitude":-0.109859,"Action":0},{"StopId":10236,"StopCode":"26203","PointLetter":"K","StopName":"Gresham Road / Brixton Police Station","Latitude":51.464946,"Longitude":-0.113226,"Action":0},{"StopId":10329,"StopCode":"35200","PointLetter":"N","StopName":"Brixton Station","Latitude":51.462377,"Longitude":-0.115031,"Action":0}], "Routes" : [{"Id":1355,"Route":"P4","From":"Lewisham Station","Towards":"Brixton Station","Run":"1","IsDay":1,"encodedLevels":"PAC@@ADCABC@GB@@C@B??BAH@A@C@BBC@AG@B?CE@A?BEAC?B?C?AGBAC?@GA?@BAF?AHB@BC@EBJ@DAEAE?@C@F@@B@D?AI@B@D@C?BC?G@CBD?CBEAB?@EA@@AB?C@@E?B@@D?H@D?BAD??A@F@@AAE@B@F?B@P","encodedPoints":"oxbyHbsAj@i@~AeCDiBEY?a@L_@xA}BTAtBiAbC_Cb@mADe@zC|A\\XZp@bBnBx@f@hGpFz@l@zEzCRH~DbDx@fA?^[zC[bACh@ThERzGK`FVjLAfHSxEKjMd@bAHd@JxA~@dLnCdKv@hBv@pApBnCjB|BV|@NfACr@K`@_B`FSvAMhA@l@Hx@Tp@vAfBrCxBdF~C|G`D`Bx@fEfBuA|JiAvKAT_ApHc@tFGhD@r@FXpHr\\bBr@`ANfDRhFdAbDfA~CtAtEdFhNvL@zFMzMg@dE}ArIeFpFaDpE@`AHlAFzFk@|Hm@fMJr@z@vCf@lCZpBz@dIHtB`A~NdA~W_FjAcF`AoC`@qGl@o@CkHNcAKmDi@iEG_A`@a@VmArAsGdG_APaFvCiAhCy@zAqB`CeE~C]J_@EQEGMwAs@Ib@OLGAa@`@eBzBiCzDqAzByClFw@jBgFxJmApAoBlB}DxCy@d@gG|EgFfHiAfBh@fBfB~DTDnAHh@TTXJVNj@pAvFpDjLd@jBg@x@i@tAaCjFm@v@}ChHC`CJnDNxBb@`Cb@R`InCbAJlAV","Color":"993333","hasRunTwo":1,"startPoint":{"Latitude":51.465205,"Longitude":-0.013453},"endPoint":{"Latitude":51.462262,"Longitude":-0.115174}}]}


