{"Stops" : [{"StopId":18048,"StopCode":"H1153","PointLetter":"","StopName":"Hail & Ride Chalk Pit Avenue","Latitude":51.399346,"Longitude":0.121645,"Action":0},{"StopId":20432,"StopCode":"HC7","PointLetter":"","StopName":"Hail & Ride Section","Latitude":51.396017,"Longitude":0.115309,"Action":0},{"StopId":7472,"StopCode":"R0394","PointLetter":"SF","StopName":"Mill Brook Road","Latitude":51.394973,"Longitude":0.114327,"Action":0},{"StopId":7678,"StopCode":"37359","PointLetter":"SU","StopName":"Blacksmiths Lane","Latitude":51.392576,"Longitude":0.114648,"Action":0},{"StopId":7657,"StopCode":"40212","PointLetter":"SL","StopName":"The Temple","Latitude":51.389535,"Longitude":0.114191,"Action":0},{"StopId":7659,"StopCode":"40210","PointLetter":"SP","StopName":"Reynolds Cross / Red Lion","Latitude":51.387322,"Longitude":0.113773,"Action":0},{"StopId":21430,"StopCode":"H0470","PointLetter":"","StopName":"Hail & Ride Chelsfield Road","Latitude":51.385391,"Longitude":0.114115,"Action":0},{"StopId":20431,"StopCode":"HC8","PointLetter":"","StopName":"Hail & Ride Section","Latitude":51.377414,"Longitude":0.122599,"Action":0},{"StopId":7384,"StopCode":"BP3243","PointLetter":"P","StopName":"Brow Crescent","Latitude":51.377114,"Longitude":0.119812,"Action":0},{"StopId":7385,"StopCode":"BP3244","PointLetter":"Q","StopName":"Ramsden Road","Latitude":51.377611,"Longitude":0.116674,"Action":0},{"StopId":7482,"StopCode":"BP1250","PointLetter":"R","StopName":"Tintagel Road","Latitude":51.377286,"Longitude":0.114791,"Action":0},{"StopId":7481,"StopCode":"BP1253","PointLetter":"S","StopName":"Dyke Drive","Latitude":51.377573,"Longitude":0.112289,"Action":0},{"StopId":7615,"StopCode":"BP1254","PointLetter":"T","StopName":"Ramsden Road / Court Road","Latitude":51.378101,"Longitude":0.109497,"Action":0},{"StopId":7575,"StopCode":"BP1255","PointLetter":"C","StopName":"Court Road / Green Lane","Latitude":51.381081,"Longitude":0.108297,"Action":0},{"StopId":7646,"StopCode":"35743","PointLetter":"P","StopName":"High Street / Carlton Parade","Latitude":51.381594,"Longitude":0.105748,"Action":0},{"StopId":7595,"StopCode":"12444","PointLetter":"W","StopName":"High Street / Church Hill","Latitude":51.379242,"Longitude":0.102536,"Action":0},{"StopId":7412,"StopCode":"12442","PointLetter":"U","StopName":"Walnuts Centre","Latitude":51.377088,"Longitude":0.100296,"Action":0},{"StopId":7377,"StopCode":"12240","PointLetter":"S","StopName":"High Street / Orpington War Memorial","Latitude":51.374148,"Longitude":0.098251,"Action":0},{"StopId":7819,"StopCode":"13953","PointLetter":"J","StopName":"Tubbenden Lane","Latitude":51.371760,"Longitude":0.091475,"Action":0},{"StopId":7757,"StopCode":"R0398","PointLetter":"G","StopName":"Orpington Station","Latitude":51.373188,"Longitude":0.089557,"Action":0},{"StopId":7609,"StopCode":"22398","PointLetter":"D","StopName":"Orpington Bus Station","Latitude":51.373491,"Longitude":0.089715,"Action":0},{"StopId":21362,"StopCode":"H1271","PointLetter":"","StopName":"Hail & Ride Tubbenden Lane","Latitude":51.364821,"Longitude":0.080184,"Action":0},{"StopId":21424,"StopCode":"H1125","PointLetter":"","StopName":"Hail & Ride Tubbenden Drive","Latitude":51.363337,"Longitude":0.081194,"Action":0},{"StopId":21435,"StopCode":"H1126","PointLetter":"","StopName":"Hail & Ride Northlands Avenue","Latitude":51.363229,"Longitude":0.082209,"Action":0},{"StopId":21434,"StopCode":"H1128","PointLetter":"","StopName":"Hail & Ride Northlands Avenue","Latitude":51.360530,"Longitude":0.085333,"Action":0},{"StopId":21425,"StopCode":"H1129","PointLetter":"","StopName":"Hail & Ride Southlands Avenue","Latitude":51.361507,"Longitude":0.081456,"Action":0},{"StopId":20428,"StopCode":"HC9","PointLetter":"","StopName":"Hail & Ride Section","Latitude":51.362324,"Longitude":0.077959,"Action":0},{"StopId":7788,"StopCode":"37351","PointLetter":"T","StopName":"Farnborough Way","Latitude":51.361683,"Longitude":0.071553,"Action":0},{"StopId":20427,"StopCode":"HC10","PointLetter":"","StopName":"Hail & Ride Section","Latitude":51.368596,"Longitude":0.059394,"Action":0},{"StopId":7848,"StopCode":"18945","PointLetter":"HL","StopName":"Crofton Road / Starts Hill Road","Latitude":51.368559,"Longitude":0.057927,"Action":0},{"StopId":7427,"StopCode":"18943","PointLetter":"HK","StopName":"Locksbottom / St Michael's Church","Latitude":51.366769,"Longitude":0.054399,"Action":0},{"StopId":7763,"StopCode":"BP4333","PointLetter":"HB","StopName":"Princess Royal University Hospital","Latitude":51.365340,"Longitude":0.057898,"Action":0}], "Routes" : [{"Id":2386,"Route":"R4","From":"Hail & Ride Chalk Pit Avenue","Towards":"Princess Royal University Hospital","Run":"1","IsDay":1,"encodedLevels":"P?EAD?ACHAB@@C@ED@EAD?C@E@@D?AABH?BAAE@?B@DA@ABC@@B@G?EA?C?ACGABEC?CEABAI?A?C@@B@DCC@D?@F@ACBF@BC?I@C?@A@E?B@AG@?@B@DAACF?@D@C?B?@C@A?G@B@AC@@@CD?GB@AC?@E?B?BC?@C@H?@C@BB?@EAA@@BA?AFBEAB?@HDBA@C?A?F?C@B@DA??@ABAEACB?HA?ADAEA@ADB?B?CBG?A@CBAGCE?@B@CEEP","encodedPoints":"k{uxHwxV[XkFbDJ|FIjIg@~AMf@k@pDl@^hAd@dGz@jB@bBKj@Dn@H|D`AdDjAEb@c@bBpD\\hGJPErC_AvDa@|F]\\Nr@n@zA|@zA\\xDt@|BNjI`Ab@XJ_@NYhBoBl@[lCgDV_AXcCH_@bE_MR}@RoAGS?g@t@eLn@wDb@qAdBsDh@eB~@eEDc@bAT|@Xc@xCi@zBq@~BYp@mA|Bm@fB[`ExAg@rFkD`EwAfAVOrCA`@n@ChBs@rAw@rB{BlBqALpABx@AbAEl@O`Ba@xByAbLO`BYzFBrDv@EBrBM|GK|Aw@fIgB`Q]@_@IsG\\}Cb@oFhBSb@Kh@Dz@Pn@nBtJ~BbFj@`A`@^\\TdEnERZbI|IlCnBr@d@rSxKFC\\\\A^KTI^Cn@@jEHx@hBbHnAzCtAzFEvCC^UrAYrAgEfCo@VCCWe@IEG?KB[VKVER?LJPD?LMJg@b@_@FCJHd@BLCfEgCXsATsAn@zA`@vBNjApA|F`@x@RVxAdDp@jAjEbHbCdCr@l@vCfEhA|BfEdI^dAnAxAj@d@NL`@NbCh@VA\\HNa@DAN?FFl@yBp@}DE?IU?MJM?OlBuLdByI`DkCh@Gd@Jb@`@LXHVJt@ThI{EtPwAvCCEKN]~AShAo@bFE^`@dAbAdDBMNIJBJRA`@EJMNOZId@UdBU~CDtBH|AjH~k@\\rGEvBCVwAh@gEdCIJaAX{Hl@kCh@u@~@}AnCkAbCmDjFiBnAMBs@Bo@VeB~@iBjAe@jA`@v@lCjG^lArEtLdAnBLGfAz@hA@nCqFUa@[}@Qs@Ck@q@}D_BuCxAsC~ArC","Color":"993333","hasRunTwo":1,"startPoint":{"Latitude":51.399109,"Longitude":0.121883},"endPoint":{"Latitude":51.365317,"Longitude":0.057656}}]}


