{"Stops" : [{"StopId":7609,"StopCode":"22398","PointLetter":"D","StopName":"Orpington Bus Station","Latitude":51.373491,"Longitude":0.089715,"Action":0},{"StopId":7534,"StopCode":"18952","PointLetter":"H","StopName":"Tubbenden Lane","Latitude":51.371870,"Longitude":0.091379,"Action":0},{"StopId":7779,"StopCode":"12239","PointLetter":"R","StopName":"High Street / Orpington War Memorial","Latitude":51.373886,"Longitude":0.097837,"Action":0},{"StopId":7751,"StopCode":"R0520","PointLetter":"T","StopName":"Walnuts Centre","Latitude":51.376452,"Longitude":0.099621,"Action":0},{"StopId":7470,"StopCode":"R0514","PointLetter":"V","StopName":"High Street / Broomhill Road","Latitude":51.378240,"Longitude":0.101240,"Action":0},{"StopId":7699,"StopCode":"34274","PointLetter":"D","StopName":"Goodmead Road","Latitude":51.381849,"Longitude":0.102555,"Action":0},{"StopId":7543,"StopCode":"12445","PointLetter":"L","StopName":"Carlton Parade","Latitude":51.382047,"Longitude":0.107091,"Action":0},{"StopId":7662,"StopCode":"40207","PointLetter":"M","StopName":"The Royal Albert","Latitude":51.383414,"Longitude":0.108534,"Action":0},{"StopId":7660,"StopCode":"40209","PointLetter":"SN","StopName":"Reynolds Cross / Red Lion","Latitude":51.386983,"Longitude":0.113614,"Action":0},{"StopId":7658,"StopCode":"40211","PointLetter":"SM","StopName":"The Temple","Latitude":51.389090,"Longitude":0.113941,"Action":0},{"StopId":7655,"StopCode":"40214","PointLetter":"SK","StopName":"Forgefield Court","Latitude":51.391970,"Longitude":0.115295,"Action":0},{"StopId":7730,"StopCode":"BP1459","PointLetter":"","StopName":"Manning Road","Latitude":51.390229,"Longitude":0.120605,"Action":0},{"StopId":7729,"StopCode":"BP1460","PointLetter":"","StopName":"Crockenhill Road","Latitude":51.387775,"Longitude":0.122504,"Action":0},{"StopId":7731,"StopCode":"BP1458","PointLetter":"","StopName":"Molash Road","Latitude":51.391451,"Longitude":0.122142,"Action":0},{"StopId":7542,"StopCode":"BP3242","PointLetter":"","StopName":"Palmarsh Close","Latitude":51.392167,"Longitude":0.123814,"Action":0},{"StopId":7406,"StopCode":"BP1341","PointLetter":"","StopName":"Wotton Green / Sandway Road","Latitude":51.393587,"Longitude":0.123362,"Action":0},{"StopId":7478,"StopCode":"BP1343","PointLetter":"","StopName":"Oldbury Close","Latitude":51.393261,"Longitude":0.119509,"Action":0},{"StopId":7479,"StopCode":"BP1342","PointLetter":"","StopName":"Belgrave Close","Latitude":51.393466,"Longitude":0.117133,"Action":0},{"StopId":7787,"StopCode":"BP3237","PointLetter":"SE","StopName":"Station Road","Latitude":51.395371,"Longitude":0.114245,"Action":0},{"StopId":7844,"StopCode":"26143","PointLetter":"SD","StopName":"St Mary Cray/ Station Approach","Latitude":51.395037,"Longitude":0.111311,"Action":0}], "Routes" : [{"Id":7641,"Route":"R6","From":"Orpington Bus Station","Towards":"St Mary Cray/ Station Approach","Run":"1","IsDay":1,"encodedLevels":"P?B@@BE@AF@C??BC?GABA?D@BE?AE?GC@?@C@F@DB@E?G@BCB?ADG?A@FAD@?@D@BDCA?G@DAD?A?D?AC?BG@DEAADA@IA@BC?E??D?B?@B?DB?@?B@F?AFFABE@CBP","encodedPoints":"y{pxHynPXUFCJHd@BLCfEgCXsAXsBBiA?uBG}@IWUe@qCeHgBuHE]UcHaCsAiDwCmImEs@e@mCoBcI}IS[kDiCg@h@WPuDjBKGgEqCPeMTy@`@aAb@m@HY@USqAc@cBe@iAuHaGmEwE_I_INeAl@uGo@WgAQsJm@gGwA[Mk@e@oCkAyDh@E_AAq@ZiFh@eNv@@l@Q\\c@JURo@~ByE\\IzGo@x@e@rB}BLy@Bm@Cu@Ks@Yq@{ArB_Ar@QF_@BiGBWDy@TQJeAv@U^a@fA[KRwDHeEcCj@OyABcDM{Be@w@WYYEa@@UNgBf@QWMTOd@EvA?~@WlNDr@DRLPf@\\PTJl@?Jq@fRC`@G\\St@Ij@W~F]`FU@w@AuHq@oAvKnBt@jBpARv@Bd@K|QKhCi@|@","Color":"993333","hasRunTwo":1,"startPoint":{"Latitude":51.373574,"Longitude":0.089579},"endPoint":{"Latitude":51.395436,"Longitude":0.107142}}]}


