{"Stops" : [{"StopId":17842,"StopCode":"37348","PointLetter":"Q","StopName":"Orpington Police Station","Latitude":51.374957,"Longitude":0.100299,"Action":0},{"StopId":7817,"StopCode":"10690","PointLetter":"N","StopName":"Spur Road / Orpington War Memorial","Latitude":51.373108,"Longitude":0.098606,"Action":0},{"StopId":7819,"StopCode":"13953","PointLetter":"J","StopName":"Tubbenden Lane","Latitude":51.371760,"Longitude":0.091475,"Action":0},{"StopId":13569,"StopCode":"18951","PointLetter":"A","StopName":"Orpington Station","Latitude":51.372711,"Longitude":0.087079,"Action":0},{"StopId":17763,"StopCode":"BP4148","PointLetter":"L","StopName":"Crofton Road","Latitude":51.373215,"Longitude":0.081987,"Action":0},{"StopId":17830,"StopCode":"BP4149","PointLetter":"M","StopName":"Kelvin Parade","Latitude":51.375569,"Longitude":0.082122,"Action":0},{"StopId":17594,"StopCode":"BP4146","PointLetter":"N","StopName":"Allington Road / Andover Road","Latitude":51.377267,"Longitude":0.082702,"Action":0},{"StopId":17601,"StopCode":"BP4144","PointLetter":"P","StopName":"Andover Road","Latitude":51.377731,"Longitude":0.081415,"Action":0},{"StopId":17792,"StopCode":"BP4141","PointLetter":"Q","StopName":"Turnberry Way","Latitude":51.377482,"Longitude":0.079191,"Action":0},{"StopId":17800,"StopCode":"BP4126","PointLetter":"R","StopName":"Tandridge Drive / Crofton Lane","Latitude":51.377178,"Longitude":0.077625,"Action":0},{"StopId":7771,"StopCode":"33227","PointLetter":"CH","StopName":"Place Farm Avenue","Latitude":51.378876,"Longitude":0.078723,"Action":0},{"StopId":7552,"StopCode":"33226","PointLetter":"","StopName":"Crofton School","Latitude":51.380834,"Longitude":0.079846,"Action":0},{"StopId":17597,"StopCode":"BP4152","PointLetter":"H","StopName":"St John's Road / Crofton Lane","Latitude":51.382652,"Longitude":0.087875,"Action":0},{"StopId":17666,"StopCode":"BP4139","PointLetter":"","StopName":"St John's Road / St George's Road","Latitude":51.385407,"Longitude":0.081131,"Action":0},{"StopId":17752,"StopCode":"BP4138","PointLetter":"","StopName":"Tudor Way","Latitude":51.386604,"Longitude":0.079015,"Action":0},{"StopId":7770,"StopCode":"33221","PointLetter":"C","StopName":"Queensway / Petts Wood Station","Latitude":51.388710,"Longitude":0.072829,"Action":0},{"StopId":7553,"StopCode":"27606","PointLetter":"E","StopName":"Petts Wood Library","Latitude":51.389756,"Longitude":0.071166,"Action":0},{"StopId":7368,"StopCode":"29841","PointLetter":"","StopName":"Crescent Drive","Latitude":51.388630,"Longitude":0.067177,"Action":0},{"StopId":13528,"StopCode":"27605","PointLetter":"","StopName":"Oxhawth Crescent / East Arm","Latitude":51.388609,"Longitude":0.063755,"Action":0},{"StopId":13529,"StopCode":"27603","PointLetter":"","StopName":"Oxhawth Crescent / West Arm","Latitude":51.389419,"Longitude":0.059149,"Action":0},{"StopId":17603,"StopCode":"BP4136","PointLetter":"","StopName":"Blackbrook Lane / Southborough Lane","Latitude":51.391990,"Longitude":0.054075,"Action":0},{"StopId":17590,"StopCode":"BP4131","PointLetter":"","StopName":"Bromley High School","Latitude":51.394670,"Longitude":0.055072,"Action":0},{"StopId":17767,"StopCode":"BP4129","PointLetter":"","StopName":"Northumberland Gardens","Latitude":51.395881,"Longitude":0.054753,"Action":0},{"StopId":17754,"StopCode":"BP4132","PointLetter":"","StopName":"Oldfield Road / St Georges Road","Latitude":51.396697,"Longitude":0.048219,"Action":0},{"StopId":17636,"StopCode":"BP708","PointLetter":"","StopName":"Lime Close","Latitude":51.397661,"Longitude":0.046006,"Action":0},{"StopId":19485,"StopCode":"BP5182","PointLetter":"W","StopName":"Bickley Station","Latitude":51.399071,"Longitude":0.046169,"Action":0},{"StopId":20985,"StopCode":"BP5436","PointLetter":"X","StopName":"St George's Road","Latitude":51.399091,"Longitude":0.049634,"Action":0},{"StopId":20989,"StopCode":"BP5438","PointLetter":"","StopName":"Barfield Road","Latitude":51.399265,"Longitude":0.056658,"Action":0},{"StopId":20988,"StopCode":"BP5440","PointLetter":"","StopName":"Aquila Estate","Latitude":51.399291,"Longitude":0.059261,"Action":0}], "Routes" : [{"Id":5865,"Route":"R7","From":"Orpington Police Station","Towards":"Aquila Estate","Run":"1","IsDay":1,"encodedLevels":"PB?FA?EAAF@C??D?BAH?D@B?ADG@?AD?C@D?DB?HCACAFA@BAA@E@D?I?@D?@@FDA@FBG@CB?F?@B?CAC?GAABDBH@I?AFA@DCAE?GCAAB?P","encodedPoints":"{fqxH{rRlJbGl@PTBI|PBz@Hx@z@jDtCbIz@bD?tBGhBUrAo@vCuBzK@hCR`QChEY|GuAQcASI`@Wd@QNGBe@?gTgFCf@UnAa@pCAvAr@@BB?|CLnHdABB@G|CCRa@hAqEcFuC}@oGqCoA}@gA{ABoEIsGKy@FkCZoAHoDC_@Q_BcA}Fi@_A}CyE[tAwBpK}AlIgC~FyDnI{HlPc@jAYhB`IlFHJADy@fBoXrXf@tC`DlPnAbJJrC?h@ErAMfCo@hJu@rH_AhIiE|Vk@fFBt@NlA]@}CcAqHcAeGgB}DmCaBm@mDli@aArQcAE]@sHr@OcEBs`@EuQMwFqA}GS_@jA_H~@eF\\f@Wj@WFOf@]`BkA~G","Color":"993333","hasRunTwo":1,"startPoint":{"Latitude":51.375349,"Longitude":0.100466},"endPoint":{"Latitude":51.399674,"Longitude":0.057976}}]}


