{"Stops" : [{"StopId":9601,"StopCode":"35834","PointLetter":"","StopName":"Nurserylands Shopping Centre","Latitude":51.425483,"Longitude":-0.376692,"Action":0},{"StopId":9600,"StopCode":"35835","PointLetter":"RQ","StopName":"Acacia Road","Latitude":51.425922,"Longitude":-0.372016,"Action":0},{"StopId":18840,"StopCode":"BP1593","PointLetter":"RP","StopName":"Springfield Avenue","Latitude":51.425742,"Longitude":-0.368757,"Action":0},{"StopId":18847,"StopCode":"BP1594","PointLetter":"RR","StopName":"Roy Grove","Latitude":51.425811,"Longitude":-0.366583,"Action":0},{"StopId":18797,"StopCode":"BP1595","PointLetter":"RS","StopName":"Nightingale Road","Latitude":51.427345,"Longitude":-0.370901,"Action":0},{"StopId":9607,"StopCode":"33199","PointLetter":"","StopName":"Hampton School","Latitude":51.428319,"Longitude":-0.373686,"Action":0},{"StopId":9589,"StopCode":"33201","PointLetter":"","StopName":"Garden Close","Latitude":51.429498,"Longitude":-0.376319,"Action":0},{"StopId":9636,"StopCode":"33203","PointLetter":"","StopName":"Garden Court","Latitude":51.431156,"Longitude":-0.378505,"Action":0},{"StopId":9605,"StopCode":"33204","PointLetter":"X","StopName":"Hampton Lane","Latitude":51.432948,"Longitude":-0.383908,"Action":0},{"StopId":9596,"StopCode":"33207","PointLetter":"","StopName":"Swan Close","Latitude":51.433037,"Longitude":-0.386423,"Action":0},{"StopId":9625,"StopCode":"BP939","PointLetter":"U","StopName":"New Close","Latitude":51.431002,"Longitude":-0.388897,"Action":0},{"StopId":18792,"StopCode":"FW51","PointLetter":"V","StopName":"Green Lane","Latitude":51.429742,"Longitude":-0.388768,"Action":0},{"StopId":18793,"StopCode":"FW49","PointLetter":"","StopName":"Stewart Close","Latitude":51.427910,"Longitude":-0.385035,"Action":0},{"StopId":18805,"StopCode":"36618","PointLetter":"","StopName":"Fulmer Close","Latitude":51.427239,"Longitude":-0.382685,"Action":0},{"StopId":18821,"StopCode":"36619","PointLetter":"","StopName":"Stanborough Close","Latitude":51.425874,"Longitude":-0.380216,"Action":0},{"StopId":18651,"StopCode":"36620","PointLetter":"","StopName":"Old Farm Road","Latitude":51.423919,"Longitude":-0.381911,"Action":0},{"StopId":18650,"StopCode":"36621","PointLetter":"","StopName":"Cleveland Avenue","Latitude":51.422216,"Longitude":-0.379066,"Action":0},{"StopId":18804,"StopCode":"36622","PointLetter":"","StopName":"Percy Road","Latitude":51.422481,"Longitude":-0.374827,"Action":0},{"StopId":18803,"StopCode":"36623","PointLetter":"HW","StopName":"Nightingale Road","Latitude":51.422847,"Longitude":-0.371391,"Action":0},{"StopId":18720,"StopCode":"35832","PointLetter":"HY","StopName":"Albury Close","Latitude":51.423133,"Longitude":-0.367383,"Action":0},{"StopId":18751,"StopCode":"35830","PointLetter":"HZ","StopName":"Carlisle School","Latitude":51.422916,"Longitude":-0.364054,"Action":0},{"StopId":6138,"StopCode":"BP3823","PointLetter":"HJ","StopName":"Ormond Drive","Latitude":51.422189,"Longitude":-0.360354,"Action":0},{"StopId":6243,"StopCode":"6440","PointLetter":"HK","StopName":"Uxbridge Road","Latitude":51.422394,"Longitude":-0.358880,"Action":0},{"StopId":6126,"StopCode":"20523","PointLetter":"HL","StopName":"Holly Road","Latitude":51.424816,"Longitude":-0.357829,"Action":0},{"StopId":6166,"StopCode":"6435","PointLetter":"HM","StopName":"Cross Street","Latitude":51.426707,"Longitude":-0.356093,"Action":0},{"StopId":5830,"StopCode":"R0125","PointLetter":"HN","StopName":"Parkside","Latitude":51.428113,"Longitude":-0.355021,"Action":0},{"StopId":15818,"StopCode":"27571","PointLetter":"HO","StopName":"Princes Road","Latitude":51.430929,"Longitude":-0.353208,"Action":0},{"StopId":5907,"StopCode":"6393","PointLetter":"A","StopName":"Fulwell Station","Latitude":51.435129,"Longitude":-0.351345,"Action":0},{"StopId":3828,"StopCode":"14715","PointLetter":"J","StopName":"Fulwell / Sixth Cross Road","Latitude":51.436636,"Longitude":-0.350428,"Action":0},{"StopId":3768,"StopCode":"6390","PointLetter":"SD","StopName":"Trafalgar Road / Prince Of Wales","Latitude":51.440256,"Longitude":-0.346945,"Action":0},{"StopId":3920,"StopCode":"6388","PointLetter":"GA","StopName":"Twickenham / The Prince Albert","Latitude":51.442033,"Longitude":-0.344204,"Action":0},{"StopId":3767,"StopCode":"6387","PointLetter":"GM","StopName":"Twickenham Green","Latitude":51.444310,"Longitude":-0.340510,"Action":0},{"StopId":3914,"StopCode":"6422","PointLetter":"GP","StopName":"Heath Road / Grove Avenue","Latitude":51.445422,"Longitude":-0.335893,"Action":0},{"StopId":3817,"StopCode":"25898","PointLetter":"T","StopName":"Heath Road / Copthall Gardens","Latitude":51.445248,"Longitude":-0.332474,"Action":0},{"StopId":4409,"StopCode":"R0271","PointLetter":"N","StopName":"Twickenham / King Street","Latitude":51.445851,"Longitude":-0.329315,"Action":0},{"StopId":4487,"StopCode":"29987","PointLetter":"H","StopName":"York Street / Twickenham","Latitude":51.447537,"Longitude":-0.327138,"Action":0},{"StopId":8008,"StopCode":"9390","PointLetter":"S","StopName":"Lebanon Court","Latitude":51.449141,"Longitude":-0.323611,"Action":0},{"StopId":8016,"StopCode":"15559","PointLetter":"T","StopName":"Orleans Park School","Latitude":51.450313,"Longitude":-0.321323,"Action":0},{"StopId":13519,"StopCode":"BP5097","PointLetter":"U","StopName":"Marble Hill Park / Crown Road","Latitude":51.451896,"Longitude":-0.316299,"Action":0},{"StopId":8051,"StopCode":"15556","PointLetter":"V","StopName":"St Stephen's Church","Latitude":51.453356,"Longitude":-0.313439,"Action":0},{"StopId":4452,"StopCode":"15211","PointLetter":"W","StopName":"Cresswell Road","Latitude":51.455841,"Longitude":-0.309878,"Action":0},{"StopId":1879,"StopCode":"29982","PointLetter":"B","StopName":"George Street","Latitude":51.460713,"Longitude":-0.304718,"Action":0},{"StopId":1851,"StopCode":"16350","PointLetter":"C","StopName":"The Quadrant","Latitude":51.462742,"Longitude":-0.302656,"Action":0},{"StopId":1853,"StopCode":"16239","PointLetter":"RS","StopName":"Richmond Circus","Latitude":51.465387,"Longitude":-0.297130,"Action":0},{"StopId":1907,"StopCode":"16242","PointLetter":"ST","StopName":"Sheendale Road","Latitude":51.465959,"Longitude":-0.294402,"Action":0},{"StopId":1827,"StopCode":"9347","PointLetter":"SA","StopName":"Manor Circus","Latitude":51.467140,"Longitude":-0.290313,"Action":0},{"StopId":17329,"StopCode":"FW53","PointLetter":"","StopName":"Richmond / Manor Road","Latitude":51.466559,"Longitude":-0.288751,"Action":0}], "Routes" : [{"Id":9591,"Route":"R70","From":"Nurserylands Shopping Centre","Towards":"Richmond / Manor Road","Run":"1","IsDay":1,"encodedLevels":"PF?DAIAE@@B?E?@BAG?@?I@CB?F@?AF??A?CB@?G@BDE??@?F?A@G@@@ACBA?BE??DAI@B?DA@@DA??D@@BEBD?@HAC@FAC?BD@A@F?BB@BAD??C?EAB@BGAB@EA@CAE?B?F@B?F?A@E@A@CB@@CAA?A?G@B@@@@AC?D?@?B?B@F@AA?CCP","encodedPoints":"k_{xHfrhA}GgM`B{DdAqCfAei@G[wAtE{Q~t@c@t@}EhG_AtAiD`Gs@vAIXm@nD{@tGaBnI{ChMtJfMnFzGl@`AdAjAv@gBBWIeOB[La@LSpEuDjIkHFWEOQ[_@kAKo@Ew@UcKFo@Ja@LY^Yn@[t@?fHvAAJHNBVHz@v@lGjAy@`Ay@xHcHl@u@?}@YcGKoGe@iOo@oMa@uHScBa@sACQ@gGd@mRf@cPL}CbAoDrBiKwCc@mFmAeAc@kBaAsAu@mC}BgCkCkEqD_LyGwGgDk@]oFmCiASoFuAiHsBcCsAkLmHsCgCeBiCiDwEeC_DaDyGgDmIaEuHcGaK{@{F]_EEsBAkFb@uNGoCe@aHU}Ba@qCy@oBWe@{@aA[Q[CkByB_@s@}@qCiCuISk@iLgXg@aAgAmDk@gDQsB_B{M{B}Mu@AsB\\]A[K[[aBcFWa@IIgABUy@oBeGoAoCiM{Wm@d@{E~BOAMEOKOScB_EqEsJm@i@a@UeFsBo@_@{@s@AKaCkDk@gA[W_@GMJC?KGGIIc@WaDAm@@WHMCa@D}@Gy@cAuIkCaTqAeGGc@qBqIcA_Fw@qBGKAWDWHEPBRRXBvEbAMx@g@a@","Color":"993333","hasRunTwo":1,"startPoint":{"Latitude":51.425342,"Longitude":-0.376831},"endPoint":{"Latitude":51.466596,"Longitude":-0.288727}}]}


