{"Stops" : [{"StopId":7622,"StopCode":"26965","PointLetter":"F","StopName":"Orpington Bus Station","Latitude":51.373394,"Longitude":0.089596,"Action":0},{"StopId":7534,"StopCode":"18952","PointLetter":"H","StopName":"Tubbenden Lane","Latitude":51.371870,"Longitude":0.091379,"Action":0},{"StopId":7779,"StopCode":"12239","PointLetter":"R","StopName":"High Street / Orpington War Memorial","Latitude":51.373886,"Longitude":0.097837,"Action":0},{"StopId":7654,"StopCode":"40232","PointLetter":"X","StopName":"Orpington / Walnuts Centre","Latitude":51.375394,"Longitude":0.100492,"Action":0},{"StopId":7377,"StopCode":"12240","PointLetter":"S","StopName":"High Street / Orpington War Memorial","Latitude":51.374148,"Longitude":0.098251,"Action":0},{"StopId":12020,"StopCode":"R0882","PointLetter":"P","StopName":"Spur Road / Orpington War Memorial","Latitude":51.373228,"Longitude":0.098381,"Action":0},{"StopId":12022,"StopCode":"40196","PointLetter":"","StopName":"Spur Road","Latitude":51.372384,"Longitude":0.104363,"Action":0},{"StopId":12018,"StopCode":"40199","PointLetter":"","StopName":"Court Road","Latitude":51.371638,"Longitude":0.108323,"Action":0},{"StopId":7628,"StopCode":"R0516","PointLetter":"J","StopName":"Tintagel Road / Gillmans Road","Latitude":51.372847,"Longitude":0.111554,"Action":0}], "Routes" : [{"Id":5466,"Route":"R9","From":"Orpington Bus Station","Towards":"Tintagel Road / Gillmans Road","Run":"1","IsDay":1,"encodedLevels":"PA?AE@BA?F??BD?EAA?F@C??B@GA?BF?AG@C?AFBBD@ADD@P","encodedPoints":"q{pxH}mPn@e@N?XEfEgCXsAXsBDwCAg@G}@IWUe@qCeHgBuHE]UcHaCsAiDwCqBeAi@_@`@mCnAeGDiDCGBy@LMP?NT@PATgDnQh@^vLpGNC?{Bd@sNXsChGmj@BeA_@iAs@?Q_@Fq@A_B]{DiCPF{GEeA","Color":"993333","hasRunTwo":1,"startPoint":{"Latitude":51.373532,"Longitude":0.089434},"endPoint":{"Latitude":51.372826,"Longitude":0.112765}}]}


