{"Stops" : [{"StopId":20933,"StopCode":"LRS103","PointLetter":"","StopName":"Embankment","Latitude":51.506947,"Longitude":-0.121363,"Action":0},{"StopId":21602,"StopCode":"LRS115","PointLetter":"3","StopName":"London Eye","Latitude":51.503408,"Longitude":-0.120485,"Action":0},{"StopId":21750,"StopCode":"LRS120","PointLetter":"","StopName":"Blackfriars","Latitude":51.510718,"Longitude":-0.106450,"Action":0},{"StopId":21751,"StopCode":"LRS121","PointLetter":"","StopName":"Bankside","Latitude":51.508795,"Longitude":-0.097105,"Action":0},{"StopId":21598,"StopCode":"LRS116","PointLetter":"","StopName":"London Bridge","Latitude":51.506950,"Longitude":-0.084832,"Action":0},{"StopId":21752,"StopCode":"LRS122","PointLetter":"","StopName":"Tower","Latitude":51.507236,"Longitude":-0.078710,"Action":0},{"StopId":21595,"StopCode":"LRS117","PointLetter":"A","StopName":"Canary Wharf","Latitude":51.505385,"Longitude":-0.028929,"Action":0},{"StopId":21753,"StopCode":"LRS123","PointLetter":"","StopName":"Greenland","Latitude":51.494803,"Longitude":-0.031764,"Action":0},{"StopId":21754,"StopCode":"LRS124","PointLetter":"","StopName":"Masthouse Terrace","Latitude":51.487347,"Longitude":-0.022117,"Action":0},{"StopId":21755,"StopCode":"LRS125","PointLetter":"","StopName":"Greenwich","Latitude":51.484187,"Longitude":-0.008658,"Action":0},{"StopId":21756,"StopCode":"LRS126","PointLetter":"","StopName":"North Greenwich","Latitude":51.502219,"Longitude":0.009218,"Action":0},{"StopId":21593,"StopCode":"LRS106","PointLetter":"","StopName":"Woolwich","Latitude":51.495905,"Longitude":0.070803,"Action":0}], "Routes" : [{"Id":1963,"Route":"RB1","From":"Embankment","Towards":"Woolwich","Run":"1","IsDay":1,"encodedLevels":"P@DEGCDAFABDBGACAD?B@?HDDADAC@ADEABFCDACB@E?CB@HACAEBCCAF@ACAIACA@BCHD@EBFBDB@HADAFAD@C?ACICC@BE@ACAHBAD@AF?CABAE@CAHA@DB@EBCA@I@B@D@BFCFD@CAEA?CA@H?A?DAC@?E@B@A@D@A@AD@CP","encodedPoints":"eakyHtrV~B~An@XhOd@~DuEsC_@yElAkB]oAk@qAcA{C}C_B}BqCwFu@iCyA_He@_De@}Di@iJIqD]_UAgEHgKD{IXmVvCsJDiBU_JnB{L`@uDX_En@wLXgKhCqIDgAe@gPgAsKfAaGtHeMvBqMnAuFxB{F|@}CfBaIbAqFzByM|AcOTwCR}FO_He@aG{@_HkAqF{BsH_F_MaSab@eBkFs@cDYmDQaEEuGRaLZ_F~@gGvCkNdBsGzAeDb@}AzBcL|@k@`NvEdJn@~KdAdNXdQe@lDi@hBs@pD}BpFiE~CsCrFmI|A}AdD_ItDmKpD}Qj@kE^iFP}DDmEA}HKaDlAsKm@}GmDuHu@qDiCaKuAsDkAkCuAkC{AqBcBaBoCcBkBu@wB]qBMwA@sBJsBT{Bn@aBl@qBdAqLxH_HrDqD|AeDx@mCd@oCNkCMiDo@_AYeBu@uA{@_CaCmB}BqBqCy@{B_BmGYoAYwBOiDCsBBuBTqCb@kCb@yAfFkO~LwDhBwBtImW|C}DxBcDtCwFxBwFfBqFlAoFZ}AhAgHb@uD\\kELyGDmFAoFGwD_Cga@u@uRg@}SQmKIeJBiGJaJRuH~@}SdAk^JuGCuFYqOSgIk@eNSgLVqC~@_He@uF","Color":"993333","hasRunTwo":1,"startPoint":{"Latitude":51.507551,"Longitude":-0.120900},"endPoint":{"Latitude":51.496373,"Longitude":0.072327}}]}


