{"Stops" : [{"StopId":18540,"StopCode":"BP1302","PointLetter":"K","StopName":"Sutton Hospital","Latitude":51.345582,"Longitude":-0.194122,"Action":0},{"StopId":13428,"StopCode":"18596","PointLetter":"F","StopName":"Downs Road / Belmont Station","Latitude":51.343526,"Longitude":-0.194318,"Action":0},{"StopId":17849,"StopCode":"16698","PointLetter":"M","StopName":"Royal Marsden Hospital / Downs Road","Latitude":51.342491,"Longitude":-0.192492,"Action":0},{"StopId":17785,"StopCode":"BP2073","PointLetter":"L","StopName":"Royal Marsden Hospital","Latitude":51.343247,"Longitude":-0.190768,"Action":0},{"StopId":17778,"StopCode":"16700","PointLetter":"","StopName":"Downs Road / Banstead Road South","Latitude":51.341291,"Longitude":-0.188763,"Action":0},{"StopId":17847,"StopCode":"16702","PointLetter":"","StopName":"Pine Walk","Latitude":51.343686,"Longitude":-0.185438,"Action":0},{"StopId":17783,"StopCode":"16704","PointLetter":"","StopName":"West Way","Latitude":51.347571,"Longitude":-0.181422,"Action":0},{"StopId":18574,"StopCode":"16706","PointLetter":"","StopName":"Crossways","Latitude":51.350648,"Longitude":-0.179218,"Action":0},{"StopId":18572,"StopCode":"16709","PointLetter":"","StopName":"Staplehurst Road","Latitude":51.354996,"Longitude":-0.175426,"Action":0},{"StopId":18624,"StopCode":"BP626","PointLetter":"","StopName":"Downside Road","Latitude":51.357616,"Longitude":-0.173297,"Action":0},{"StopId":8383,"StopCode":"6489","PointLetter":"","StopName":"Carshalton Road / Cambridge Road","Latitude":51.363061,"Longitude":-0.170710,"Action":0},{"StopId":20379,"StopCode":"HC23","PointLetter":"","StopName":"Hail & Ride Section","Latitude":51.366104,"Longitude":-0.175559,"Action":0},{"StopId":12715,"StopCode":"6468","PointLetter":"","StopName":"Byron Avenue","Latitude":51.366143,"Longitude":-0.179753,"Action":0},{"StopId":12522,"StopCode":"6467","PointLetter":"","StopName":"Benhill Road","Latitude":51.365519,"Longitude":-0.183038,"Action":0},{"StopId":12642,"StopCode":"6466","PointLetter":"","StopName":"Thicket Road","Latitude":51.365571,"Longitude":-0.185823,"Action":0},{"StopId":20380,"StopCode":"HC24","PointLetter":"","StopName":"Hail & Ride Section","Latitude":51.363565,"Longitude":-0.185184,"Action":0},{"StopId":8436,"StopCode":"16714","PointLetter":"","StopName":"Lind Road","Latitude":51.362394,"Longitude":-0.186250,"Action":0},{"StopId":20376,"StopCode":"HC25","PointLetter":"","StopName":"Hail & Ride Section","Latitude":51.358205,"Longitude":-0.189259,"Action":0},{"StopId":11983,"StopCode":"4527","PointLetter":"P","StopName":"Sutton Station","Latitude":51.359378,"Longitude":-0.191239,"Action":0},{"StopId":8317,"StopCode":"W41","PointLetter":"R","StopName":"Sutton Post Office","Latitude":51.360068,"Longitude":-0.192849,"Action":0},{"StopId":4062,"StopCode":"35568","PointLetter":"V","StopName":"Sutton Civic Centre","Latitude":51.361980,"Longitude":-0.194368,"Action":0},{"StopId":4078,"StopCode":"35570","PointLetter":"W","StopName":"St Nicholas Centre","Latitude":51.365114,"Longitude":-0.195207,"Action":0},{"StopId":4035,"StopCode":"35573","PointLetter":"Y","StopName":"Crown Road","Latitude":51.368277,"Longitude":-0.195686,"Action":0},{"StopId":11939,"StopCode":"7594","PointLetter":"A","StopName":"Sutton Green","Latitude":51.371204,"Longitude":-0.194753,"Action":0},{"StopId":20373,"StopCode":"HC26","PointLetter":"","StopName":"Hail & Ride Section","Latitude":51.378161,"Longitude":-0.200385,"Action":0},{"StopId":21725,"StopCode":"BP5701","PointLetter":"","StopName":"Tesco Sutton Cheam","Latitude":51.376413,"Longitude":-0.206072,"Action":0},{"StopId":20374,"StopCode":"HC27","PointLetter":"","StopName":"Hail & Ride Section","Latitude":51.376216,"Longitude":-0.220290,"Action":0},{"StopId":12674,"StopCode":"7592","PointLetter":"HC","StopName":"Langley Avenue","Latitude":51.375856,"Longitude":-0.222589,"Action":0},{"StopId":12505,"StopCode":"14915","PointLetter":"HD","StopName":"North Cheam Sports Club","Latitude":51.374112,"Longitude":-0.224438,"Action":0},{"StopId":18515,"StopCode":"BP1036","PointLetter":"L","StopName":"North Cheam / Sainsbury's","Latitude":51.371970,"Longitude":-0.224291,"Action":0},{"StopId":12530,"StopCode":"14918","PointLetter":"HJ","StopName":"North Cheam Sports Club","Latitude":51.374672,"Longitude":-0.224014,"Action":0},{"StopId":18506,"StopCode":"OC892","PointLetter":"","StopName":"Longfellow Road","Latitude":51.384472,"Longitude":-0.238768,"Action":0},{"StopId":20383,"StopCode":"HC28","PointLetter":"","StopName":"Hail & Ride Section","Latitude":51.381807,"Longitude":-0.242133,"Action":0},{"StopId":12773,"StopCode":"2022","PointLetter":"C","StopName":"Worcester Park Station","Latitude":51.381479,"Longitude":-0.246658,"Action":0},{"StopId":20778,"StopCode":"BP5378","PointLetter":"MZ","StopName":"Malden Manor Station","Latitude":51.384711,"Longitude":-0.262559,"Action":0}], "Routes" : [{"Id":1244,"Route":"S3","From":"Sutton Hospital","Towards":"Malden Manor Station","Run":"1","IsDay":1,"encodedLevels":"PDCG?AE?@D?@F@A?CD@FA?F?HAD?C??C@C@F@D?B@C?AG@E?AD?AAAG@A@DAJAAD@D@A@D?AFA@A@DAB@C?@AGAA?E@F?AD?AG@AIA?BF?B@@B@@AEAG?@B?BAEAAC@?@AF?@E@@AHBDA?BGADA?DA@G?AI?BDA@BAF@AC@@CF@FCEE?AF@@C?D?BH?@D?AAD@G@?@G@@AF@AAAE@HE@DAA@FA@G@BB?DG?@ABAD@A@@D??GD@D?B@?D@H?AD@D@@DCG?A@F@@E?DAFADBB?P","encodedPoints":"mmkxH|}d@nEa@BbAbJo@@{@Dg@~A_K]OqCyAKMAQJ_CHu@LAHFDL@Pg@zBhCfBh@d@j@}ChDuMRaAoCcDeGsHgOyPqFwFcCqBwFiEoDsB{Aw@sHkEaDaDkC}C{CeCmV_R}G}DQSORSL]H_@Ag@I_JcAcGoAFiCt@eNi@BU?m@MGMkAgEkBsEOEOc@OLAL[NyErD}MhAsCh@hAhEdBbFpAtCzAfCLJRJPB|@I`@@V^FVx@~D@dB]|HQ`CYxI?bCLtHf@pHP|@rApN?t@Gn@S~GJlCJOrIqCnA_@vCo@`@hD\\dFbAGvI]`AOv@[TK~BcBbBpNhAxH\\fEi@GyALsARaGtAIPGb@J|@f@lBHz@Ar@PlAJlCEf@oBdAcCr@OGGKO_@COAcBYg@a@Oe@NsGf@iB\\sEpAaDfAkDfAkDnA_Cf@MWQcAu@mCW@mCUoH{@mEu@@`ISjAwAfHmCfLu@tCoDbKiBaGq@{Cf@u@ZW`@Sm@oDcAwEw@qC_F~EaIvHmCxBVh@nDzFhBjBT?xDjBVBjE`Cr@j@Eb@Ob@q@jAa@TiANw@VkCvEfCzFbC`FbByAl@VrEpGRM^MxDw@j@xB|AhEP|@ZrBxAbMKvA@d@tAhWkA@]DyE?mAOo@McAe@kFiAy@NoDrAEb@e@~AwC~Kg@zBzFnFnAvAdHdHRb@NMRw@n@s@`@eAdE}Gr@bCNdAsD|Dw@eCKKs@lBo@r@Sv@OL[M}G{HyF}Fi@pA_AzA{DfEsGjJkBbCcBCIXKr@MzAYpGWfICxIPj@V\\v@v@DAj@t@Ih@AX[hBkQpROXeBbHy@u@MIOCQ@KDQNeCxDFN~ArC`CdDzAdAdElDTBtBIHDtFxFn@|BOXaDzHUViBvDtEbN\\d@DVS`AkBvML`SI|LkAvA_FpEyFxIuDhHK`AEL","Color":"993333","hasRunTwo":1,"startPoint":{"Latitude":51.345678,"Longitude":-0.194381},"endPoint":{"Latitude":51.384825,"Longitude":-0.262878}}]}


