{"Stops" : [{"StopId":8136,"StopCode":"27764","PointLetter":"","StopName":"Homestead Way / Milne Park","Latitude":51.335574,"Longitude":-0.005038,"Action":0},{"StopId":8177,"StopCode":"25761","PointLetter":"","StopName":"Addington High School","Latitude":51.336818,"Longitude":-0.001495,"Action":0},{"StopId":8167,"StopCode":"25759","PointLetter":"","StopName":"Calley Down Crescent","Latitude":51.338655,"Longitude":-0.005335,"Action":0},{"StopId":8126,"StopCode":"25757","PointLetter":"J","StopName":"New Addington Baptist Church","Latitude":51.339489,"Longitude":-0.009994,"Action":0},{"StopId":8190,"StopCode":"25754","PointLetter":"K","StopName":"Central Parade","Latitude":51.340184,"Longitude":-0.013841,"Action":0},{"StopId":8104,"StopCode":"BP2430","PointLetter":"A","StopName":"New Addington Tram Stop","Latitude":51.342864,"Longitude":-0.018106,"Action":0},{"StopId":8181,"StopCode":"20808","PointLetter":"N","StopName":"King Henry's Drive Tram Stop","Latitude":51.345817,"Longitude":-0.021008,"Action":0},{"StopId":8111,"StopCode":"R0522","PointLetter":"R","StopName":"Betchworth Way","Latitude":51.347574,"Longitude":-0.019080,"Action":0},{"StopId":8113,"StopCode":"W5","PointLetter":"","StopName":"Tilford Avenue","Latitude":51.348410,"Longitude":-0.015310,"Action":0},{"StopId":8127,"StopCode":"27759","PointLetter":"","StopName":"Goldcrest Way / King Henrys Drive","Latitude":51.348644,"Longitude":-0.010560,"Action":0},{"StopId":8166,"StopCode":"27757","PointLetter":"","StopName":"Goldcrest Community Centre","Latitude":51.350520,"Longitude":-0.010307,"Action":0},{"StopId":8189,"StopCode":"33672","PointLetter":"","StopName":"Merrow Way","Latitude":51.354249,"Longitude":-0.013836,"Action":0},{"StopId":8186,"StopCode":"33667","PointLetter":"","StopName":"Castle Hill School","Latitude":51.356053,"Longitude":-0.015783,"Action":0},{"StopId":8176,"StopCode":"33668","PointLetter":"","StopName":"The Lindens","Latitude":51.357802,"Longitude":-0.017101,"Action":0},{"StopId":8156,"StopCode":"33666","PointLetter":"","StopName":"North Walk","Latitude":51.358049,"Longitude":-0.021098,"Action":0},{"StopId":8130,"StopCode":"33663","PointLetter":"","StopName":"Foxcombe","Latitude":51.356192,"Longitude":-0.020791,"Action":0},{"StopId":8143,"StopCode":"BP4425","PointLetter":"","StopName":"Brierley","Latitude":51.354235,"Longitude":-0.021550,"Action":0},{"StopId":8153,"StopCode":"33660","PointLetter":"FD","StopName":"Applegarth","Latitude":51.353223,"Longitude":-0.023935,"Action":0},{"StopId":8123,"StopCode":"BP2328","PointLetter":"C","StopName":"Addington Village Interchange","Latitude":51.356471,"Longitude":-0.032614,"Action":0},{"StopId":8128,"StopCode":"34387","PointLetter":"G","StopName":"Gravel Hill","Latitude":51.352707,"Longitude":-0.037673,"Action":0},{"StopId":8159,"StopCode":"BP1849","PointLetter":"K","StopName":"Yew Tree Way","Latitude":51.349292,"Longitude":-0.036196,"Action":0},{"StopId":8193,"StopCode":"BP1850","PointLetter":"L","StopName":"The Green","Latitude":51.347301,"Longitude":-0.035449,"Action":0},{"StopId":8141,"StopCode":"BP1851","PointLetter":"","StopName":"Courtwood Primary School","Latitude":51.344074,"Longitude":-0.037137,"Action":0},{"StopId":8121,"StopCode":"BP1852","PointLetter":"","StopName":"Bears Wood","Latitude":51.342902,"Longitude":-0.037475,"Action":0},{"StopId":8129,"StopCode":"BP1857","PointLetter":"","StopName":"Markfield","Latitude":51.341279,"Longitude":-0.037788,"Action":0}], "Routes" : [{"Id":7345,"Route":"T31","From":"Homestead Way / Milne Park","Towards":"Markfield","Run":"1","IsDay":1,"encodedLevels":"P@BD?CAF??@G@?@EAB?D@B@?D@B@B@G?B@?C@CBADBACA?H?AC?@D?@B?D@B@EAC?AE@I@CB??C?ADAF?AC?AEC@ABAACB@J@CA?G?AB@ADA?F@C?@A@G@DBAAG@B?AFAC?DAC?AE?BD@AD?A?D@B?EACHBA?C@@BC@FAABFA?AD@BAP","encodedPoints":"klixHh_@SLGAu@_A\\u@JMUaBeA{Pi@Na@D_GvASJ_@ZiBjCUb@cC~Ch@|Bj@hEFpAAf@WxFIr@o@zEUjAuBdNEbBHnEPJLVBt@EZKJKBU?GEEI_ArAsH~LyBzE@d@Oh@yE|F}GvGeF~DG|@Yx@MN[NO@e@GMGOQ[k@EQAa@HeBJ[HMg@sAcCwJ{@sFUuBa@iGI}FBiCLuDl@sHiAe@iCq@uCQ{A?kARMH]d@g@h@_@WYKwAOm@J}A`AWVc@p@eAdCYzACTM|Ci@IkBfBsF~FIVcEpDwBtAoFbF_CbC[h@I`@Al@JjBfJbSNXn@|@PGLI\\}@v@kDLaAnBwGx@?XHPLx@dA|BtDRv@jB|FzDhLF@Tb@oA|BiNzYiBfCyB~AM?u@x@IhA@l@LdAJl@d@|A^IFSDg@P_F]UMJCl@A`AL|BJ@DEP_F]UOUSq@G?MFOPO^IhA@l@LdAJl@nAjE|@rBhFzIpExBLIN@\\HNJRf@t@lAzAr@XFvA?jH{DdC{@vHcEzBs@dAXfH`D`HtCtA^vE`AbBTrFh@|B?","Color":"993333","hasRunTwo":1,"startPoint":{"Latitude":51.335262,"Longitude":-0.005164},"endPoint":{"Latitude":51.340617,"Longitude":-0.037883}}]}


