{"Stops" : [{"StopId":4886,"StopCode":"27862","PointLetter":"B","StopName":"Ruislip Station","Latitude":51.572231,"Longitude":-0.421601,"Action":0},{"StopId":6553,"StopCode":"15771","PointLetter":"C","StopName":"Brickwall Lane","Latitude":51.572535,"Longitude":-0.422817,"Action":0},{"StopId":6365,"StopCode":"19214","PointLetter":"F","StopName":"Midcroft","Latitude":51.574168,"Longitude":-0.424550,"Action":0},{"StopId":6428,"StopCode":"BP160","PointLetter":"Q","StopName":"Church Avenue","Latitude":51.572383,"Longitude":-0.430932,"Action":0},{"StopId":6541,"StopCode":"16289","PointLetter":"R","StopName":"Sharps Lane","Latitude":51.571868,"Longitude":-0.432090,"Action":0},{"StopId":6491,"StopCode":"16290","PointLetter":"S","StopName":"West Ruislip Station","Latitude":51.569628,"Longitude":-0.438054,"Action":0},{"StopId":6542,"StopCode":"16292","PointLetter":"T","StopName":"Oak Avenue","Latitude":51.566872,"Longitude":-0.441784,"Action":0},{"StopId":4909,"StopCode":"16356","PointLetter":"B","StopName":"Ickenham Pump","Latitude":51.564424,"Longitude":-0.444321,"Action":0},{"StopId":6508,"StopCode":"29103","PointLetter":"","StopName":"Ivy House Road","Latitude":51.565494,"Longitude":-0.447083,"Action":0},{"StopId":6487,"StopCode":"16357","PointLetter":"","StopName":"Wallasey Crescent","Latitude":51.565460,"Longitude":-0.450591,"Action":0},{"StopId":6486,"StopCode":"16359","PointLetter":"","StopName":"Thornhill Road","Latitude":51.565146,"Longitude":-0.455449,"Action":0},{"StopId":6485,"StopCode":"16361","PointLetter":"","StopName":"Breakspear Road South","Latitude":51.564836,"Longitude":-0.461259,"Action":0},{"StopId":6484,"StopCode":"16364","PointLetter":"","StopName":"Roker Park Avenue","Latitude":51.562499,"Longitude":-0.466157,"Action":0},{"StopId":6483,"StopCode":"16365","PointLetter":"","StopName":"Warren Road","Latitude":51.559587,"Longitude":-0.469010,"Action":0},{"StopId":6481,"StopCode":"16367","PointLetter":"","StopName":"Harefield Road","Latitude":51.556878,"Longitude":-0.469549,"Action":0},{"StopId":6478,"StopCode":"16370","PointLetter":"","StopName":"North Common Road","Latitude":51.554716,"Longitude":-0.469924,"Action":0},{"StopId":6477,"StopCode":"16372","PointLetter":"","StopName":"The Hermitage","Latitude":51.550213,"Longitude":-0.472109,"Action":0},{"StopId":4978,"StopCode":"23061","PointLetter":"M","StopName":"Uxbridge Station","Latitude":51.546755,"Longitude":-0.478700,"Action":0},{"StopId":5016,"StopCode":"34836","PointLetter":"B","StopName":"Uxbridge High Street","Latitude":51.547965,"Longitude":-0.481184,"Action":0},{"StopId":5032,"StopCode":"34774","PointLetter":"R","StopName":"Crown Walk","Latitude":51.545559,"Longitude":-0.482172,"Action":0},{"StopId":4893,"StopCode":"35013","PointLetter":"T","StopName":"Vine Street","Latitude":51.544923,"Longitude":-0.477478,"Action":0},{"StopId":5008,"StopCode":"3153","PointLetter":"Y","StopName":"St Andrews Church","Latitude":51.542926,"Longitude":-0.472598,"Action":0},{"StopId":5034,"StopCode":"3151","PointLetter":"Z","StopName":"Manor Waye","Latitude":51.540581,"Longitude":-0.472086,"Action":0},{"StopId":5028,"StopCode":"3147","PointLetter":"BD","StopName":"The Greenway","Latitude":51.537066,"Longitude":-0.470718,"Action":0},{"StopId":4877,"StopCode":"16374","PointLetter":"BG","StopName":"Ivybridge Close","Latitude":51.535198,"Longitude":-0.468907,"Action":0},{"StopId":4993,"StopCode":"16375","PointLetter":"BH","StopName":"Brunel University","Latitude":51.531782,"Longitude":-0.466210,"Action":0},{"StopId":4902,"StopCode":"BP760","PointLetter":"HC","StopName":"Brunel University Sports Park","Latitude":51.528302,"Longitude":-0.464813,"Action":0},{"StopId":4939,"StopCode":"16380","PointLetter":"HB","StopName":"Hillingdon Hospital","Latitude":51.527105,"Longitude":-0.461999,"Action":0},{"StopId":4943,"StopCode":"16381","PointLetter":"A","StopName":"Colham Road","Latitude":51.526127,"Longitude":-0.459452,"Action":0},{"StopId":4898,"StopCode":"BP1934","PointLetter":"D","StopName":"Violet Avenue","Latitude":51.522856,"Longitude":-0.458913,"Action":0},{"StopId":5023,"StopCode":"16386","PointLetter":"L","StopName":"Apple Tree Avenue","Latitude":51.517437,"Longitude":-0.463261,"Action":0},{"StopId":4880,"StopCode":"20477","PointLetter":"A","StopName":"Otterfield Road","Latitude":51.517111,"Longitude":-0.469945,"Action":0},{"StopId":4876,"StopCode":"16389","PointLetter":"W","StopName":"Yiewsley Library","Latitude":51.515088,"Longitude":-0.474092,"Action":0},{"StopId":5009,"StopCode":"16391","PointLetter":"B","StopName":"Yiewsley High Street","Latitude":51.512423,"Longitude":-0.472466,"Action":0},{"StopId":18596,"StopCode":"BP3566","PointLetter":"Z1","StopName":"West Drayton Station","Latitude":51.510404,"Longitude":-0.472807,"Action":0}], "Routes" : [{"Id":2488,"Route":"U1","From":"Ruislip Station","Towards":"West Drayton Station","Run":"1","IsDay":1,"encodedLevels":"PDBD@ABC?FA?D?BAG?DABD?@@B?FA@C@B@GAAFA@DB@AAH?B?B?D@AGAAC@@?B?D?A?A?D??CAAC?H?A?BA@?D?BA?@CEBC@F?BBD@D@E??JA?@E?AB?F?E?B@@E?@AB?@A?G@BAEA@@D@F@C@E?AC?AADAB@G?ABE?C??I??C?A?G?BD@?@BG@@CA@C?A??EAAG?@BE@D@ABE@P","encodedPoints":"etwyHzhqAiAf@j@pDMRQFGEmB~@wArAgCxDeBvCjAlALRZ|@Hl@fCpNRvDjA~FtB|AZX`@tFlAnI|ApG\\j@fA`CfAtClD~Hv@tAvDjHd@v@|@fAb@^xCdBbF`Dz@p@zCxCuCvM_@hAoB|JFjBv@nGhAlLAlSTdMd@~M?nERxAxA|BT`@hAzCfEvKh@hAhBfDz@dApCnClGtFNKrAb@TANKH[NWFGHC`@ERHNLHNVx@FHLDx@FtLlAfJt@~Cp@xAf@dGz@`@AzBWEX@`@Bp@Jf@jA|ErAjIR~@\\pAz@vBlDbIDTCFIHBb@fDtIzBuCNaANPL^?RCHi@M{BtC^xBNnBiBzAkDlDpA|Ad@p@NNXALJHLdCtAj@Sr@YfFyCLSHS@MrCyKAcAQoDQeBi@aCU_BZcAp@yClBsGr@cBHa@De@Ca@FWHQv@i@fFgC`Bm@pAQv@A|@Rd@PdGjAl@IdBo@jAeA`IsIdA}BbAaBJF^LNEzEgDrI}FpCaCfEgChCc@vFwApA_@`DyAFu@Fq@z@wDxHeYbDsAb@Uf@e@PYvFiGDl@R|AfA`KJ`CFpEAfMBd@XDxBJjAOfAWzBw@PEvKyDnCg@LzATbA|@fH@pBc@jI?hADz@\\~CThF?r@f@jLdGzLR|@v@hAPSvImGTWfAa@x@OnBGhBd@fA`@pAjAnBf@@UO{B","Color":"993333","hasRunTwo":1,"startPoint":{"Latitude":51.572038,"Longitude":-0.421410},"endPoint":{"Latitude":51.510385,"Longitude":-0.472812}}]}


