{"Stops" : [{"StopId":21738,"StopCode":"BP5722","PointLetter":"","StopName":"Prologis Park","Latitude":51.502225,"Longitude":-0.445734,"Action":0},{"StopId":4892,"StopCode":"16172","PointLetter":"","StopName":"Conway Drive","Latitude":51.503079,"Longitude":-0.441686,"Action":0},{"StopId":4994,"StopCode":"BP2093","PointLetter":"","StopName":"Glamis Crescent","Latitude":51.501511,"Longitude":-0.441436,"Action":0},{"StopId":5017,"StopCode":"BP2094","PointLetter":"","StopName":"Pinkwell Park","Latitude":51.500156,"Longitude":-0.441598,"Action":0},{"StopId":4966,"StopCode":"BP2095","PointLetter":"","StopName":"Pinkwell Infant School","Latitude":51.498975,"Longitude":-0.440688,"Action":0},{"StopId":4871,"StopCode":"BP2096","PointLetter":"","StopName":"Pinkwell Junior School","Latitude":51.498525,"Longitude":-0.438686,"Action":0},{"StopId":4980,"StopCode":"BP2097","PointLetter":"","StopName":"Ross Close","Latitude":51.499004,"Longitude":-0.435486,"Action":0},{"StopId":5036,"StopCode":"BP2098","PointLetter":"","StopName":"Waltham Avenue","Latitude":51.502085,"Longitude":-0.435192,"Action":0},{"StopId":4986,"StopCode":"R0451","PointLetter":"","StopName":"Guinness Close","Latitude":51.502472,"Longitude":-0.431866,"Action":0},{"StopId":4918,"StopCode":"BP1684","PointLetter":"","StopName":"Pinkwell Avenue","Latitude":51.498307,"Longitude":-0.429732,"Action":0},{"StopId":5033,"StopCode":"16168","PointLetter":"X","StopName":"Clement Gardens","Latitude":51.497237,"Longitude":-0.429049,"Action":0},{"StopId":4960,"StopCode":"16166","PointLetter":"U","StopName":"Redmead Road","Latitude":51.499089,"Longitude":-0.425686,"Action":0},{"StopId":4878,"StopCode":"15978","PointLetter":"K","StopName":"Fairey Corner","Latitude":51.501899,"Longitude":-0.423327,"Action":0},{"StopId":5035,"StopCode":"29994","PointLetter":"L","StopName":"Hayes and Harlington Station","Latitude":51.503338,"Longitude":-0.420727,"Action":0},{"StopId":4969,"StopCode":"16163","PointLetter":"M","StopName":"Clayton Road","Latitude":51.504414,"Longitude":-0.419811,"Action":0},{"StopId":5039,"StopCode":"BP852","PointLetter":"P","StopName":"Hayes Town / Pump Lane","Latitude":51.507083,"Longitude":-0.418349,"Action":0},{"StopId":4984,"StopCode":"R0460","PointLetter":"J","StopName":"Printing House Lane","Latitude":51.510685,"Longitude":-0.424061,"Action":0},{"StopId":4929,"StopCode":"23742","PointLetter":"D","StopName":"Botwell Common","Latitude":51.512823,"Longitude":-0.424592,"Action":0},{"StopId":4952,"StopCode":"27340","PointLetter":"C","StopName":"Sycamore Avenue","Latitude":51.516169,"Longitude":-0.426639,"Action":0},{"StopId":4937,"StopCode":"27338","PointLetter":"B","StopName":"Lilac Gardens","Latitude":51.517276,"Longitude":-0.429397,"Action":0},{"StopId":4953,"StopCode":"27336","PointLetter":"A","StopName":"Princes Park Lane","Latitude":51.517658,"Longitude":-0.435106,"Action":0},{"StopId":5042,"StopCode":"27334","PointLetter":"","StopName":"Wood End Park School","Latitude":51.517979,"Longitude":-0.440283,"Action":0},{"StopId":5027,"StopCode":"27332","PointLetter":"","StopName":"Goulds Green","Latitude":51.519091,"Longitude":-0.444151,"Action":0},{"StopId":4988,"StopCode":"BP1330","PointLetter":"CE","StopName":"Barwick Drive","Latitude":51.523863,"Longitude":-0.448703,"Action":0},{"StopId":4956,"StopCode":"BP1377","PointLetter":"CF","StopName":"Lees Road","Latitude":51.526030,"Longitude":-0.450719,"Action":0},{"StopId":4963,"StopCode":"CW8","PointLetter":"CH","StopName":"Pield Heath Avenue","Latitude":51.525951,"Longitude":-0.452178,"Action":0},{"StopId":4896,"StopCode":"CW7","PointLetter":"C","StopName":"Micawber Avenue","Latitude":51.525646,"Longitude":-0.456354,"Action":0},{"StopId":4910,"StopCode":"16379","PointLetter":"HA","StopName":"Hillingdon Hospital","Latitude":51.527110,"Longitude":-0.462417,"Action":0},{"StopId":4935,"StopCode":"BP761","PointLetter":"HD","StopName":"Kingston Lane Pentecostal Church","Latitude":51.530093,"Longitude":-0.465618,"Action":0},{"StopId":5000,"StopCode":"16376","PointLetter":"BJ","StopName":"Brunel University","Latitude":51.533811,"Longitude":-0.468045,"Action":0},{"StopId":4912,"StopCode":"3148","PointLetter":"BE","StopName":"The Greenway","Latitude":51.536581,"Longitude":-0.470764,"Action":0},{"StopId":4927,"StopCode":"3152","PointLetter":"W","StopName":"Manor Waye","Latitude":51.540123,"Longitude":-0.472793,"Action":0},{"StopId":4959,"StopCode":"3228","PointLetter":"X","StopName":"St Andrew's Church","Latitude":51.542859,"Longitude":-0.472946,"Action":0},{"StopId":5012,"StopCode":"BP1609","PointLetter":"U","StopName":"Civic Centre","Latitude":51.544504,"Longitude":-0.475703,"Action":0},{"StopId":4975,"StopCode":"34773","PointLetter":"P","StopName":"Crown Walk","Latitude":51.545746,"Longitude":-0.482685,"Action":0},{"StopId":5040,"StopCode":"BP3290","PointLetter":"D","StopName":"Belmont Road","Latitude":51.547399,"Longitude":-0.479804,"Action":0}], "Routes" : [{"Id":3351,"Route":"U4","From":"Prologis Park","Towards":"Belmont Road","Run":"1","IsDay":1,"encodedLevels":"P@A?CA@DA@?C?B?GGCA?@C?@G???GCA?B@G?BC??D@CADA?FH@@BBE?@DAB??DA?C@JB@A@CA@D?C@?@@?C?@BF?BB@BEBAC?B?@G?ABB?AG??C?@EDCB@GAAE?@?FB@H@@DBB?B@BCA?E@?D?@BAF?@B@AE?AB?G?ACA@BC?AF@B@A@A??BBFAD@@AC@BG@C@?CEA?@B@EA?P","encodedPoints":"c_jyH~jvAB{@CcEEgASsBUu@]a@}AsC@gBFu@HUF_@Ig@[yDUc@Uq@~XfBp@_Lb@_CPo@t@kBhAcEFq@B{@J_GyAGs@AgEU{Qw@VgXWKa@k@IQGe@D_@HYJMZBLJh@t@v@|@v@]|FaBdCe@vE_@|@@zCj@n@Rx@{P{@k@i@m@oJ}G_GmDwEgEYk@Sk@}CcJoB_C_BwAcEoC{A}@OMXgA?YCMaI_G]OU`BW\\G?ARIJNp@H`BCJmFlJY`@e@\\QFUB_@RAFGDERiAfD}AdEwA`Ce@^]RmCp@yAXkGt@wAn@kHtFeBj@kFdE?PIf@INMPOFO`AKvA}Bdy@_@`P?|AF~@J^wArDmBtFq@hBS\\WZ_E|EkLpGyB~DeLtJaFtFMXCNn@`BjC~JAv@UhJ]pKQ|EgJh]UdBGjAqKbDyAVeEnAkCzAqC`CCXCFOCCGsOnKOD_@MKGUv@iBhESXm@r@y@v@gFrGsBdBo@ZU@}@EQEo@WcCuAkC{@_@@a@HsGnBu@`@OLIHIVKvASXO@q@\\s@bBeAfDg@jBmAfGTt@h@`CPdBPnDLVBb@@h@CPB~@`ArDIf@aBhCw@t@KAWMk@O_@FcAj@eGpCgCh@c@IWSI]Ak@UaCoB_CXg@LI`@MjCyA`BsAJO?a@g@kCKs@","Color":"993333","hasRunTwo":1,"startPoint":{"Latitude":51.502102,"Longitude":-0.447356},"endPoint":{"Latitude":51.547464,"Longitude":-0.479330}}]}


