{"Stops" : [{"StopId":14367,"StopCode":"BP779","PointLetter":"","StopName":"Chingford Hall Estate","Latitude":51.609346,"Longitude":-0.025066,"Action":0},{"StopId":14855,"StopCode":"BP778","PointLetter":"","StopName":"May Road","Latitude":51.608695,"Longitude":-0.021628,"Action":0},{"StopId":2122,"StopCode":"7923","PointLetter":"","StopName":"Higham Station Avenue","Latitude":51.607327,"Longitude":-0.016791,"Action":0},{"StopId":2119,"StopCode":"7927","PointLetter":"CC","StopName":"Rowden Park Gardens","Latitude":51.605199,"Longitude":-0.016451,"Action":0},{"StopId":2113,"StopCode":"24339","PointLetter":"CD","StopName":"Walthamstow Stadium","Latitude":51.603481,"Longitude":-0.016381,"Action":0},{"StopId":14022,"StopCode":"BP927","PointLetter":"CA","StopName":"Salisbury Hall Sainsbury's","Latitude":51.603776,"Longitude":-0.020528,"Action":0},{"StopId":13852,"StopCode":"29548","PointLetter":"CJ","StopName":"Waltham Park Way","Latitude":51.600500,"Longitude":-0.018273,"Action":0},{"StopId":13825,"StopCode":"10347","PointLetter":"CK","StopName":"Cecil Road","Latitude":51.600327,"Longitude":-0.020779,"Action":0},{"StopId":14140,"StopCode":"10345","PointLetter":"CL","StopName":"Walthamstow Academy","Latitude":51.599895,"Longitude":-0.022906,"Action":0},{"StopId":14702,"StopCode":"10343","PointLetter":"","StopName":"North Countess Road","Latitude":51.599523,"Longitude":-0.026474,"Action":0},{"StopId":14959,"StopCode":"10341","PointLetter":"","StopName":"Guildsway","Latitude":51.599607,"Longitude":-0.029344,"Action":0},{"StopId":3713,"StopCode":"OC686","PointLetter":"","StopName":"Millfields Road","Latitude":51.599017,"Longitude":-0.032763,"Action":0},{"StopId":129,"StopCode":"6630","PointLetter":"N","StopName":"Wolsey Avenue","Latitude":51.589961,"Longitude":-0.026267,"Action":0},{"StopId":203,"StopCode":"6631","PointLetter":"BE","StopName":"Lloyd Park / William Morris Gallery","Latitude":51.590865,"Longitude":-0.021189,"Action":0},{"StopId":136,"StopCode":"6633","PointLetter":"BF","StopName":"Bromley Road","Latitude":51.590553,"Longitude":-0.018705,"Action":0},{"StopId":247,"StopCode":"7949","PointLetter":"BN","StopName":"Jewel Road","Latitude":51.588502,"Longitude":-0.020281,"Action":0},{"StopId":1043,"StopCode":"7953","PointLetter":"H","StopName":"Walthamstow Market","Latitude":51.585494,"Longitude":-0.019474,"Action":0},{"StopId":842,"StopCode":"R0036","PointLetter":"AP","StopName":"Walthamstow Central Station","Latitude":51.583099,"Longitude":-0.019809,"Action":0},{"StopId":83,"StopCode":"BP4267","PointLetter":"","StopName":"Walthamstow Bus Station","Latitude":51.583582,"Longitude":-0.020206,"Action":0}], "Routes" : [{"Id":8777,"Route":"W11","From":"Chingford Hall Estate","Towards":"Walthamstow Bus Station","Run":"1","IsDay":1,"encodedLevels":"PEE@E@C?HAD?AC@@G?A@A?EGDEBB?EAE@F@@ADA@AC?@I@?B@?C?@CA?BC@@?C?BH?@B?D@@BE@B?GB@AC@EADBF@@AAB@@H?A?B?AEBHA?CB@F@BDB?C?AD?A?AFBC?CC?D@A?BP","encodedPoints":"i{~yHb{C_DHNwD\\@xE_@GcE[uHi@wDwBaQfCgArBi@zF[pBQhH}@xHFRGZ?FTFf@?~AL`CPpAd@xEgDfHqBcDnBiEh@xBE`ANVJJTCrAuCe@yEo@qJpABJHnAFnC@^SFa@b@w@n@q@HAV?PHR\\FPBXAn@Kf@]tCBlAH~@^nKf@|IXfBhAvI^pG@zGGlCAjN@dAB\\n@jOVADAz@w@d@k@Xs@ZcAZsAJkAlBqMl@uAXa@nCmCTKxByAvAEtCu@VOfCYb@@~@LhBt@PXbBhJf@^\\DBCT?DJdAJlGIhBFNGIk@gAaNm@gKU_Dw@yF_@sBc@qF@eBdCwP~@fBnBpFh@bBjAzB~@~@`@V|@Xl@FlASnB}@RQhAaBv@QpI{AdBi@ZSXU^i@h@m@d@OVXCx@{@PKFKjBFl@JnCM@IEEKUYy@?","Color":"993333","hasRunTwo":1,"startPoint":{"Latitude":51.609011,"Longitude":-0.024975},"endPoint":{"Latitude":51.583707,"Longitude":-0.020183}}]}


