{"Stops" : [{"StopId":14795,"StopCode":"BP2539","PointLetter":"","StopName":"Rensburg Road","Latitude":51.579708,"Longitude":-0.041751,"Action":0},{"StopId":14358,"StopCode":"BP1816","PointLetter":"X","StopName":"Carisbrooke Road","Latitude":51.582509,"Longitude":-0.032840,"Action":0},{"StopId":14627,"StopCode":"BP1817","PointLetter":"T","StopName":"Walthamstow Market / High Street","Latitude":51.583326,"Longitude":-0.029023,"Action":0},{"StopId":2011,"StopCode":"R0035","PointLetter":"N","StopName":"Selborne Walk / Vernon Road","Latitude":51.582496,"Longitude":-0.025666,"Action":0},{"StopId":1925,"StopCode":"BP4871","PointLetter":"P","StopName":"Selborne Walk","Latitude":51.582771,"Longitude":-0.023316,"Action":0},{"StopId":336,"StopCode":"BP3899","PointLetter":"R","StopName":"Walthamstow Central Station","Latitude":51.583046,"Longitude":-0.021442,"Action":0},{"StopId":1116,"StopCode":"BP4271","PointLetter":"B","StopName":"Walthamstow Bus Station","Latitude":51.583694,"Longitude":-0.020418,"Action":0},{"StopId":841,"StopCode":"11481","PointLetter":"K","StopName":"Grosvenor Park Road","Latitude":51.579571,"Longitude":-0.018028,"Action":0},{"StopId":2536,"StopCode":"17901","PointLetter":"P","StopName":"Oliver Road","Latitude":51.582422,"Longitude":-0.003715,"Action":0},{"StopId":1158,"StopCode":"14271","PointLetter":"A","StopName":"Whipps Cross / Wood Street","Latitude":51.581159,"Longitude":-0.000898,"Action":0},{"StopId":2520,"StopCode":"LE239","PointLetter":"K","StopName":"Whipps Cross Hospital / Main Entrance","Latitude":51.579553,"Longitude":0.001571,"Action":0},{"StopId":2670,"StopCode":"LE238","PointLetter":"L","StopName":"Whipps Cross Hospital / A & E","Latitude":51.577473,"Longitude":0.002779,"Action":0},{"StopId":14667,"StopCode":"27515","PointLetter":"S","StopName":"James Lane","Latitude":51.578448,"Longitude":0.007282,"Action":0},{"StopId":14068,"StopCode":"14576","PointLetter":"H","StopName":"Whipps Cross Hospital","Latitude":51.579942,"Longitude":0.003523,"Action":0},{"StopId":1130,"StopCode":"14275","PointLetter":"","StopName":"Hainault Court","Latitude":51.583063,"Longitude":0.004006,"Action":0},{"StopId":13884,"StopCode":"FC89","PointLetter":"SP","StopName":"The Forest","Latitude":51.583457,"Longitude":0.010403,"Action":0},{"StopId":14423,"StopCode":"FC87","PointLetter":"SR","StopName":"Eagle Pond","Latitude":51.583321,"Longitude":0.016734,"Action":0},{"StopId":2531,"StopCode":"20985","PointLetter":"SK","StopName":"Eagle Lane","Latitude":51.584445,"Longitude":0.020421,"Action":0},{"StopId":2554,"StopCode":"15546","PointLetter":"SL","StopName":"Beechwood Park","Latitude":51.587226,"Longitude":0.021309,"Action":0},{"StopId":2500,"StopCode":"15545","PointLetter":"W","StopName":"Clarendon Road","Latitude":51.590233,"Longitude":0.022165,"Action":0},{"StopId":2591,"StopCode":"27854","PointLetter":"X","StopName":"Bedford Road","Latitude":51.592225,"Longitude":0.022398,"Action":0},{"StopId":2522,"StopCode":"BP1267","PointLetter":"K","StopName":"Grove Hill","Latitude":51.594098,"Longitude":0.022264,"Action":0},{"StopId":2624,"StopCode":"35966","PointLetter":"G","StopName":"George Lane Shopping Centre","Latitude":51.594482,"Longitude":0.024519,"Action":0},{"StopId":2607,"StopCode":"29463","PointLetter":"C","StopName":"South Woodford Station","Latitude":51.591285,"Longitude":0.028939,"Action":0},{"StopId":2553,"StopCode":"15501","PointLetter":"B","StopName":"George Lane / Chigwell Road","Latitude":51.590092,"Longitude":0.030301,"Action":0},{"StopId":14350,"StopCode":"15503","PointLetter":"S","StopName":"Charnwood Drive","Latitude":51.587800,"Longitude":0.028178,"Action":0},{"StopId":2556,"StopCode":"15553","PointLetter":"SE","StopName":"Wanstead Place","Latitude":51.577988,"Longitude":0.026197,"Action":0},{"StopId":14604,"StopCode":"27814","PointLetter":"AP","StopName":"Woodbine Place","Latitude":51.576817,"Longitude":0.026838,"Action":0}], "Routes" : [{"Id":737,"Route":"W12","From":"Rensburg Road","Towards":"Woodbine Place","Run":"1","IsDay":1,"encodedLevels":"PEBF?FAF?DDAD@FA@@C?AE?@?EB?A?DB@H?ACBEABE@B?@BBC@AGE?F?A?GE@D?A?C?FA@C@ACBF?DG?A?C@AD?@FCCGACB@B@I@BD@GABD?C@HA?A@F@C@?H?@B?B@@DAC?@CCID@D?AACA?G@?B@AEBCEE@@FBC@?GBDAA@H??BAG?CFADA@FAEAP","encodedPoints":"{eyyHt`Gv@nCbJmGl@}@eAaCsC_GyA~@cGxCsB}PiAgKa@}BSf@cAl@eCmRgCoPv@[b@c@NY^UPC|@CXNWaGy@gOeA}PKeAS{AKAOEEKUYmC@IDITBVDHJBnD@ZQWyCIuEZa@d@OZCVHb@R~@PjAYbIIl@G|@Y`Ag@mEeYsBfAwD|Bk@gBm@_CiAgFeAqFtCsBcB_Ly@}GT[Rg@Ry@D_@?gAXeKn@kA^_@ZOXMVAzBDfBc@|AeASu@aGoPs@aKJYLOXQNEZHnBLRKJINUz@mB|BdEIhDdAvEfF_I`FsGdBwCBeAFUb@_An@}@qCqF{@qBg@eCwBsAkA_As@pDkEpOoCvH{@lBcDzGa@@[M_@i@IYmDmKgDaJu@yARi@l@{Cd@ii@Vga@@qFaAO_AGsB]kCw@sFuAsBY{MsCgBW{H{@eBEiCJuEHkBNgCYGk@f@{GnDiFz@_BCMAwAa@mCEkCHc@Xi@RUTMREV@NBv@`@fAJDg@]i@jDoGfBtE|@gAfAiBvC_E|BpEnCnDz@r@dBlAPFt@iDvEyJjA{AvCsCvCoCjEqDR|@hB|JbAvEbAfGTrCx@k@nBkAzAsDxEvG`B`DVfB?tBP~CdHoFx@iAd@rA`@d@","Color":"993333","hasRunTwo":1,"startPoint":{"Latitude":51.579986,"Longitude":-0.041230},"endPoint":{"Latitude":51.576625,"Longitude":0.026414}}]}


