{"Stops" : [{"StopId":2546,"StopCode":"BP2540","PointLetter":"","StopName":"William Morris School","Latitude":51.600710,"Longitude":-0.033426,"Action":0},{"StopId":2557,"StopCode":"10330","PointLetter":"","StopName":"Lawrence Avenue","Latitude":51.598826,"Longitude":-0.039067,"Action":0},{"StopId":2558,"StopCode":"10334","PointLetter":"","StopName":"Higham Hill Road","Latitude":51.599024,"Longitude":-0.036373,"Action":0},{"StopId":2549,"StopCode":"BP1666","PointLetter":"","StopName":"Whittingham Community Primary School","Latitude":51.597286,"Longitude":-0.035177,"Action":0},{"StopId":2605,"StopCode":"BP1667","PointLetter":"F","StopName":"St Andrews Road","Latitude":51.593796,"Longitude":-0.034533,"Action":0},{"StopId":2604,"StopCode":"BP1668","PointLetter":"G","StopName":"Hillyfield Primary School","Latitude":51.591511,"Longitude":-0.032336,"Action":0},{"StopId":2603,"StopCode":"BP1669","PointLetter":"H","StopName":"Renness Road","Latitude":51.589403,"Longitude":-0.030536,"Action":0},{"StopId":47,"StopCode":"R0030","PointLetter":"T","StopName":"Century Road","Latitude":51.587935,"Longitude":-0.033588,"Action":0},{"StopId":16,"StopCode":"37074","PointLetter":"BJ","StopName":"Pretoria Avenue","Latitude":51.587508,"Longitude":-0.037114,"Action":0},{"StopId":15751,"StopCode":"10317","PointLetter":"BB","StopName":"Blackhorse Road Station","Latitude":51.586788,"Longitude":-0.040321,"Action":0},{"StopId":15438,"StopCode":"10313","PointLetter":"BK","StopName":"Longfield Avenue","Latitude":51.584375,"Longitude":-0.037422,"Action":0},{"StopId":13967,"StopCode":"10309","PointLetter":"C","StopName":"Walthamstow Market","Latitude":51.581893,"Longitude":-0.034166,"Action":0},{"StopId":15451,"StopCode":"R0031","PointLetter":"D","StopName":"St James's Street Station","Latitude":51.580303,"Longitude":-0.032675,"Action":0},{"StopId":15098,"StopCode":"BP2753","PointLetter":"G","StopName":"South Grove","Latitude":51.581078,"Longitude":-0.028514,"Action":0},{"StopId":2011,"StopCode":"R0035","PointLetter":"N","StopName":"Selborne Walk / Vernon Road","Latitude":51.582496,"Longitude":-0.025666,"Action":0},{"StopId":1925,"StopCode":"BP4871","PointLetter":"P","StopName":"Selborne Walk","Latitude":51.582771,"Longitude":-0.023316,"Action":0},{"StopId":336,"StopCode":"BP3899","PointLetter":"R","StopName":"Walthamstow Central Station","Latitude":51.583046,"Longitude":-0.021442,"Action":0},{"StopId":1116,"StopCode":"BP4271","PointLetter":"B","StopName":"Walthamstow Bus Station","Latitude":51.583694,"Longitude":-0.020418,"Action":0},{"StopId":841,"StopCode":"11481","PointLetter":"K","StopName":"Grosvenor Park Road","Latitude":51.579571,"Longitude":-0.018028,"Action":0},{"StopId":847,"StopCode":"7962","PointLetter":"SJ","StopName":"Grove Road","Latitude":51.577773,"Longitude":-0.016489,"Action":0},{"StopId":855,"StopCode":"7964","PointLetter":"SK","StopName":"Bakers Avenue","Latitude":51.576207,"Longitude":-0.014768,"Action":0},{"StopId":1250,"StopCode":"10468","PointLetter":"EH","StopName":"Lea Bridge Road / Bakers Arms","Latitude":51.576309,"Longitude":-0.011762,"Action":0},{"StopId":1241,"StopCode":"14265","PointLetter":"EJ","StopName":"Leyton Green Road","Latitude":51.577680,"Longitude":-0.008310,"Action":0},{"StopId":1239,"StopCode":"14267","PointLetter":"EK","StopName":"Shernhall Street","Latitude":51.578834,"Longitude":-0.006398,"Action":0},{"StopId":1251,"StopCode":"14269","PointLetter":"EL","StopName":"Peterborough Road","Latitude":51.580024,"Longitude":-0.003416,"Action":0},{"StopId":1158,"StopCode":"14271","PointLetter":"A","StopName":"Whipps Cross / Wood Street","Latitude":51.581159,"Longitude":-0.000898,"Action":0},{"StopId":2520,"StopCode":"LE239","PointLetter":"K","StopName":"Whipps Cross Hospital / Main Entrance","Latitude":51.579553,"Longitude":0.001571,"Action":0},{"StopId":2670,"StopCode":"LE238","PointLetter":"L","StopName":"Whipps Cross Hospital / A & E","Latitude":51.577473,"Longitude":0.002779,"Action":0},{"StopId":2627,"StopCode":"36569","PointLetter":"Q","StopName":"Clare Road","Latitude":51.575750,"Longitude":0.004681,"Action":0},{"StopId":2626,"StopCode":"36567","PointLetter":"","StopName":"Peterborough Road","Latitude":51.574023,"Longitude":0.001545,"Action":0},{"StopId":2530,"StopCode":"36565","PointLetter":"","StopName":"Essex Road South","Latitude":51.572243,"Longitude":0.000976,"Action":0},{"StopId":2513,"StopCode":"18002","PointLetter":"","StopName":"Elim Pentecostal Church","Latitude":51.570860,"Longitude":0.001406,"Action":0},{"StopId":2450,"StopCode":"18000","PointLetter":"","StopName":"Clarendon Road","Latitude":51.569577,"Longitude":0.003875,"Action":0},{"StopId":2576,"StopCode":"BP1791","PointLetter":"B","StopName":"Leytonstone Station  / Grove Green Road","Latitude":51.568074,"Longitude":0.007604,"Action":0},{"StopId":2451,"StopCode":"17998","PointLetter":"BB","StopName":"Hampton Road","Latitude":51.565366,"Longitude":0.002969,"Action":0},{"StopId":2509,"StopCode":"17996","PointLetter":"","StopName":"Ashville Road","Latitude":51.563151,"Longitude":0.003145,"Action":0},{"StopId":2453,"StopCode":"17994","PointLetter":"","StopName":"Central Avenue","Latitude":51.561365,"Longitude":0.000802,"Action":0},{"StopId":2570,"StopCode":"17993","PointLetter":"","StopName":"Francis Road","Latitude":51.559551,"Longitude":-0.002495,"Action":0},{"StopId":2541,"StopCode":"17992","PointLetter":"C","StopName":"Leyton High Road / Leyton Station","Latitude":51.558188,"Longitude":-0.005873,"Action":0},{"StopId":2492,"StopCode":"BP4373","PointLetter":"E","StopName":"York Road","Latitude":51.557234,"Longitude":-0.008006,"Action":0},{"StopId":2653,"StopCode":"17988","PointLetter":"H","StopName":"Oliver Road","Latitude":51.557028,"Longitude":-0.011737,"Action":0},{"StopId":2456,"StopCode":"17986","PointLetter":"K","StopName":"Spitalfields Market","Latitude":51.555075,"Longitude":-0.016453,"Action":0},{"StopId":2663,"StopCode":"BP3076","PointLetter":"L","StopName":"Ruckholt Road Bridge","Latitude":51.552948,"Longitude":-0.018839,"Action":0},{"StopId":2510,"StopCode":"34395","PointLetter":"M","StopName":"Hackney Marsh","Latitude":51.551965,"Longitude":-0.022358,"Action":0},{"StopId":2608,"StopCode":"29456","PointLetter":"N","StopName":"Kingsmead Estate","Latitude":51.550273,"Longitude":-0.032990,"Action":0},{"StopId":2611,"StopCode":"29453","PointLetter":"P","StopName":"Marsh Hill","Latitude":51.549694,"Longitude":-0.035496,"Action":0},{"StopId":2664,"StopCode":"10260","PointLetter":"M","StopName":"Glyn Road","Latitude":51.548811,"Longitude":-0.039659,"Action":0},{"StopId":709,"StopCode":"BP3801","PointLetter":"HB","StopName":"Brooksby's Walk / Homerton Station","Latitude":51.549580,"Longitude":-0.042684,"Action":0},{"StopId":737,"StopCode":"BP1818","PointLetter":"F","StopName":"Homerton Hospital","Latitude":51.549891,"Longitude":-0.044055,"Action":0},{"StopId":2446,"StopCode":"18012","PointLetter":"A","StopName":"Banister House","Latitude":51.547996,"Longitude":-0.045304,"Action":0},{"StopId":2511,"StopCode":"17298","PointLetter":"T","StopName":"Ponsford Street","Latitude":51.546927,"Longitude":-0.049144,"Action":0},{"StopId":2532,"StopCode":"17296","PointLetter":"C","StopName":"Morning Lane / Trelawney Estate","Latitude":51.545987,"Longitude":-0.054290,"Action":0},{"StopId":806,"StopCode":"306","PointLetter":"A","StopName":"Hackney Town Hall","Latitude":51.545268,"Longitude":-0.055402,"Action":0}], "Routes" : [{"Id":5450,"Route":"W15","From":"William Morris School","Towards":"Hackney Town Hall","Run":"1","IsDay":1,"encodedLevels":"P?@F@?C@C?AG?E?HA?G?ABFB?C@AC?@HA??BD@AHA@@ADADD@C?BBA@D?BAIAB@E?AC@?AE?A?E?A?CB@H?ACBEABE@B?@CB@DAF?AE?B?A?H@BCDC??BD@AI?A?C@AD?@FCCGACB@B@GC??H@EE@BDCB@K@?BCCD??AF@AD?@@FA@CAF@BAE?B@DA@DA@C@AFA?BHCED@@C?@?F@FECFABE?AE@?@D?AF?EA@AEAD?P","encodedPoints":"ab}yH`oEyF^s@BQFCT@lBCXO`@oAtBE`CUxFB`Cn@x@|FtG\\FdIl@?cES_G]iHh@U`AU|GeAhT}BpLeLzCkETU\\OfAIh@Q^[tAwAl@w@^hAJp@pBzJNf@bAlHl@hK`AbT\\fCDIPEFFf@MnAk@hBoDzEcIvGqDZmBr@cCfAgBbBgCt@c@`@q@Lo@HQh@e@xBaBzA_@tAo@KmBw@eFO_@iB{IUi@e@{@q@q@c@O_@AI@cB]e@gKu@wM]qF}@wKKAOEEKUYmC@IDITBVDHJBnD@ZQWyCIuEZa@d@OZCVHb@R~@PjAYbIIl@GdA_@xDaCpCqCl@k@hF{DLWdBaFNs@TaB^yALUc@oBUi@wEwHcEiSyEqHe@uAiAeE}CsKkFsNKi@}@{IF_@L_@LOXQNEZHnBLRKJINUz@mB|BdEIhDdAvEfF_I`FsGdBwCBeAFUb@_An@}@vGbMb@dA`ClHtBhGfCaEjCqDhB~Dr@aBrCqFrL_]aAg@VoALIL?RJHHDLC`BpAd@lBbDd@hDd@dEhA~HTb@NBJExGwE^APCJDnCA|@h@jBnBZf@hF`IrDbHXbAnDfIzDzMrGzRABu@|@Kb@Ab@Bl@bBlFFf@FlBQhCStIJdARdAb@tA|A|BlDxDfRpT~BrDw@vF`Bzr@dGhSdAtItA|IjBlOLrAXlF@tALjCeD|AqC|AbA`GzDiBxBAj@`FPxEE~HpADx@FnB`@GdBKfAO`Ae@nGBp@NlAbB`JvBrIRf@LJ\\K~AOrBEPrBGb@m@AwBO","Color":"993333","hasRunTwo":1,"startPoint":{"Latitude":51.599853,"Longitude":-0.033285},"endPoint":{"Latitude":51.545365,"Longitude":-0.055293}}]}


