{"Stops" : [{"StopId":11036,"StopCode":"70337","PointLetter":"A","StopName":"Chase Farm Hospital","Latitude":51.664615,"Longitude":-0.104696,"Action":0},{"StopId":3617,"StopCode":"18883","PointLetter":"B","StopName":"Chase Farm Hospital / The Ridgeway","Latitude":51.664013,"Longitude":-0.104735,"Action":0},{"StopId":11109,"StopCode":"19617","PointLetter":"D","StopName":"Hardy Way","Latitude":51.663391,"Longitude":-0.100770,"Action":0},{"StopId":11085,"StopCode":"18882","PointLetter":"B","StopName":"Gordon Hill Station","Latitude":51.664098,"Longitude":-0.093872,"Action":0},{"StopId":11077,"StopCode":"33942","PointLetter":"C","StopName":"Blossom Lane","Latitude":51.663933,"Longitude":-0.090380,"Action":0},{"StopId":11020,"StopCode":"20108","PointLetter":"D","StopName":"Chase Side","Latitude":51.663811,"Longitude":-0.087840,"Action":0},{"StopId":11041,"StopCode":"15883","PointLetter":"E","StopName":"Browning Road","Latitude":51.664045,"Longitude":-0.082914,"Action":0},{"StopId":11053,"StopCode":"33940","PointLetter":"F","StopName":"Baker Street","Latitude":51.663366,"Longitude":-0.078185,"Action":0},{"StopId":11048,"StopCode":"18879","PointLetter":"H","StopName":"Bell Road","Latitude":51.661317,"Longitude":-0.078836,"Action":0},{"StopId":19978,"StopCode":"BP5344","PointLetter":"HH","StopName":"Gordon Road","Latitude":51.659504,"Longitude":-0.079577,"Action":0},{"StopId":11014,"StopCode":"19027","PointLetter":"J","StopName":"Parsonage Lane","Latitude":51.657378,"Longitude":-0.079942,"Action":0},{"StopId":11140,"StopCode":"BP920","PointLetter":"K","StopName":"Enfield Police Station","Latitude":51.655712,"Longitude":-0.080301,"Action":0},{"StopId":11112,"StopCode":"18876","PointLetter":"H","StopName":"Enfield Civic Centre","Latitude":51.652838,"Longitude":-0.080539,"Action":0},{"StopId":1537,"StopCode":"10927","PointLetter":"R","StopName":"Enfield Town / Genotin Road","Latitude":51.651669,"Longitude":-0.079431,"Action":0},{"StopId":1549,"StopCode":"10926","PointLetter":"T","StopName":"Cecil Road / St Annes School","Latitude":51.649041,"Longitude":-0.079861,"Action":0},{"StopId":1538,"StopCode":"10922","PointLetter":"A","StopName":"Park Crescent","Latitude":51.646226,"Longitude":-0.080355,"Action":0},{"StopId":1522,"StopCode":"10920","PointLetter":"B","StopName":"Bush Hill","Latitude":51.644083,"Longitude":-0.080735,"Action":0},{"StopId":1519,"StopCode":"3487","PointLetter":"C","StopName":"St Stephens Church","Latitude":51.641479,"Longitude":-0.078822,"Action":0},{"StopId":1540,"StopCode":"10914","PointLetter":"D","StopName":"Conifer Gardens","Latitude":51.638619,"Longitude":-0.079911,"Action":0},{"StopId":1520,"StopCode":"3805","PointLetter":"A","StopName":"Church Street","Latitude":51.637232,"Longitude":-0.080851,"Action":0},{"StopId":11126,"StopCode":"BP4257","PointLetter":"B","StopName":"Bury Street West","Latitude":51.635448,"Longitude":-0.081736,"Action":0},{"StopId":11019,"StopCode":"18872","PointLetter":"EA","StopName":"Lower Edmonton School","Latitude":51.632744,"Longitude":-0.080232,"Action":0},{"StopId":11076,"StopCode":"14126","PointLetter":"EB","StopName":"Edmonton Cemetery","Latitude":51.630361,"Longitude":-0.079162,"Action":0},{"StopId":11103,"StopCode":"18870","PointLetter":"EC","StopName":"Haselbury Road","Latitude":51.628056,"Longitude":-0.073466,"Action":0},{"StopId":11068,"StopCode":"25195","PointLetter":"ED","StopName":"Edmonton Fire Station","Latitude":51.626935,"Longitude":-0.068775,"Action":0},{"StopId":11111,"StopCode":"18868","PointLetter":"T","StopName":"All Saints Church","Latitude":51.626327,"Longitude":-0.065723,"Action":0},{"StopId":11058,"StopCode":"33979","PointLetter":"U","StopName":"Edmonton Green Station","Latitude":51.625281,"Longitude":-0.061693,"Action":0},{"StopId":11118,"StopCode":"BP4953","PointLetter":"C","StopName":"Edmonton Green Bus Station","Latitude":51.625368,"Longitude":-0.058266,"Action":0},{"StopId":3508,"StopCode":"34148","PointLetter":"P","StopName":"Monmouth Road","Latitude":51.626512,"Longitude":-0.057335,"Action":0},{"StopId":11038,"StopCode":"27960","PointLetter":"LJ","StopName":"Bounces Road","Latitude":51.627901,"Longitude":-0.056453,"Action":0},{"StopId":11027,"StopCode":"27746","PointLetter":"LS","StopName":"St Edmunds Catholic Primary School","Latitude":51.628769,"Longitude":-0.055115,"Action":0},{"StopId":11046,"StopCode":"27744","PointLetter":"LU","StopName":"Chester Road","Latitude":51.628369,"Longitude":-0.051621,"Action":0},{"StopId":11073,"StopCode":"BP2382","PointLetter":"LV","StopName":"Exeter Road","Latitude":51.628123,"Longitude":-0.048684,"Action":0},{"StopId":11075,"StopCode":"33498","PointLetter":"","StopName":"Montagu Road","Latitude":51.627937,"Longitude":-0.046178,"Action":0},{"StopId":11052,"StopCode":"R0336","PointLetter":"","StopName":"Pentland Close","Latitude":51.627052,"Longitude":-0.044323,"Action":0},{"StopId":11021,"StopCode":"34653","PointLetter":"","StopName":"Meridian Way","Latitude":51.627959,"Longitude":-0.041019,"Action":0},{"StopId":11037,"StopCode":"70116","PointLetter":"","StopName":"Picketts Lock Centre","Latitude":51.632251,"Longitude":-0.037452,"Action":0}], "Routes" : [{"Id":246,"Route":"W8","From":"Chase Farm Hospital","Towards":"Picketts Lock Centre","Run":"1","IsDay":1,"encodedLevels":"P@@@DAACAG@EA@@ADADCA@ED@AI@B?D@FABCAAE?D@ED@??B?EF@@B@G?BD@@ABF@CAAC?AC?A@CAG??ECACJAADE@?C?AD@BAC?A?B@H?E@A?DAD?@BAG??B@EDB@@GAACCDF@BBBP","encodedPoints":"czizHf}RPpArAdG^bABVC`@y@`AC^l@f@Ph@rCyCp@}@Ga@HcA@iEZqLCiGyAyEqAgGlAqt@GiJe@aO@mA`@yTf@wCnBgJR[`@r@bCvC`@ZxBnArDbAlH`ClCFfJx@hGpAdEH`EGpDJEa@CeCx@[zAa@~BWJLHVDVb@pA\\LR@lRiBVBf@TXRxCvCnF~EdA{Av@aAnC_C\\UpBq@rCwAh@m@bDeAdBpAr@ZpC|@pAPrFfBnAbAj@j@zCdB`@IZCX@XHp@b@bGzBNS`AgBfDsF`E{@DJzFJ\\i@dBiF~DeJ~BoHvFcZV}CbBsNdBeNf@uBfAgF~@wFLgBPgHS_AD_AHMLGHCPBDI@QI_@sBwIGAKHIV]`@mAeBkCqCe@W{@[gCy@uBM]Q@OZeDx@sLbB_f@\\eGtA`@fCeOTiBP}BCSMQsCcAuCgBk@SGlAsX_KLo@d@cFUQJgAX@","Color":"993333","hasRunTwo":1,"startPoint":{"Latitude":51.665144,"Longitude":-0.102110},"endPoint":{"Latitude":51.632070,"Longitude":-0.037441}}]}


